Id,source,latitude,longitude,region,country,admin1,localityName,localityQuality,observationDate,reportingDate,status,disease,serotypes,speciesDescription,sumAtRisk,sumCases,sumDeaths,sumDestroyed,sumSlaughtered,humansGenderDesc,humansAge,humansAffected,humansDeaths
154393,OIE,-28.7452,20.6054,Africa,South Africa,Northern Cape,Geduld Boerdery,Unknown,01/04/2010,06/05/2010,Confirmed,Rift Valley fever,,"domestic, sheep",230,26,19,0,0,,,,
154392,OIE,-30.0026,24.6804,Africa,South Africa,Northern Cape,Lieberwalt,Unknown,15/04/2010,06/05/2010,Confirmed,Rift Valley fever,,"domestic, sheep",294,1,1,0,0,,,,
154391,OIE,-30.81666,25.25,Africa,South Africa,Northern Cape,Slingerfontein,Unknown,13/03/2010,06/05/2010,Confirmed,Rift Valley fever,,"domestic, sheep",2800,86,86,0,0,,,,
154390,OIE,-28.6167,21.1,Africa,South Africa,Northern Cape,Dysonsklip,Unknown,20/04/2010,06/05/2010,Confirmed,Rift Valley fever,,"domestic, sheep",50,3,3,0,0,,,,
154389,OIE,-30.7077,24.077,Africa,South Africa,Northern Cape,Bletterman,Unknown,17/04/2010,06/05/2010,Confirmed,Rift Valley fever,,"domestic, sheep",83,1,1,0,0,,,,
154388,OIE,-29.4713,24.6218,Africa,South Africa,Free State,Vaaldan,Unknown,15/03/2010,06/05/2010,Confirmed,Rift Valley fever,,"domestic, cattle, domestic, sheep",332,12,8,0,0,,,,
154387,OIE,-29.42108,22.2535,Africa,South Africa,Northern Cape,Soutputs,Unknown,07/04/2010,06/05/2010,Confirmed,Rift Valley fever,,"domestic, sheep",550,15,15,0,0,,,,
154386,OIE,-29.4167,23.4167,Africa,South Africa,Northern Cape,Swemkuil,Unknown,01/04/2010,06/05/2010,Confirmed,Rift Valley fever,,"domestic, cattle, wild, unspecified mammal, domestic, goat/sheep ",915,99,99,0,0,,,,
154385,OIE,-28.5474,21.7675,Africa,South Africa,Northern Cape,Geluksoord,Unknown,23/04/2010,06/05/2010,Confirmed,Rift Valley fever,,"domestic, sheep",350,5,5,0,0,,,,
154384,OIE,-27.6963,27.0261,Africa,South Africa,Free State,Springboklaagte,Unknown,19/03/2010,06/05/2010,Confirmed,Rift Valley fever,,"domestic, cattle, domestic, sheep",502,1,0,0,0,,,,
154383,OIE,-28.0497,25.9733,Africa,South Africa,Free State,Helka,Unknown,01/03/2010,06/05/2010,Confirmed,Rift Valley fever,,"domestic, sheep",605,66,16,0,0,,,,
154382,OIE,-27.7488,25.8648,Africa,South Africa,Free State,Doornbult,Unknown,06/03/2010,06/05/2010,Confirmed,Rift Valley fever,,"domestic, sheep, domestic, cattle",264,8,3,0,0,,,,
154381,OIE,-30.0765,23.6706,Africa,South Africa,Northern Cape,Nuwekraal,Unknown,09/04/2010,06/05/2010,Confirmed,Rift Valley fever,,"domestic, sheep",,3,3,0,0,,,,
154380,OIE,-28.4833,24.7166,Africa,South Africa,Northern Cape,Smithdale,Unknown,31/03/2010,06/05/2010,Confirmed,Rift Valley fever,,"domestic, cattle, domestic, goat, domestic, sheep",652,10,5,0,0,,,,
154379,OIE,-28.4334,21.2498,Africa,South Africa,Northern Cape,Vaalkoppies Perseel 203,Unknown,23/04/2010,06/05/2010,Confirmed,Rift Valley fever,,"domestic, sheep",400,1,1,0,0,,,,
154378,OIE,-29.1763,25.1348,Africa,South Africa,Free State,Hartbeespan,Unknown,27/02/2010,06/05/2010,Confirmed,Rift Valley fever,,"domestic, sheep",600,300,115,0,0,,,,
154377,OIE,-28.84844,22.021682,Africa,South Africa,Northern Cape,Standen,Centroid Admin1,15/04/2010,06/05/2010,Confirmed,Rift Valley fever,,"domestic, sheep",2000,50,50,0,0,,,,
154376,OIE,-31.1713,26.2088,Africa,South Africa,Eastern Cape,Aarbossiesplaat,Unknown,19/04/2010,06/05/2010,Confirmed,Rift Valley fever,,"domestic, sheep",2100,7,7,7,0,,,,
154375,OIE,-26.5333,26.333,Africa,South Africa,North West,Goedgedacht,Unknown,20/04/2010,06/05/2010,Confirmed,Rift Valley fever,,"domestic, sheep",550,264,264,0,0,,,,
154374,OIE,-28.614945,28.084,Africa,South Africa,Free State,Caledonsdraai,Centroid Admin1,15/03/2010,06/05/2010,Confirmed,Rift Valley fever,,"domestic, sheep",286,26,26,0,0,,,,
154373,OIE,-30.6735,23.9823,Africa,South Africa,Northern Cape,Witplaas,Unknown,16/04/2010,06/05/2010,Confirmed,Rift Valley fever,,"domestic, sheep",158,3,3,0,0,,,,
154372,OIE,-31.1869,24.9519,Africa,South Africa,Northern Cape,Sanddrift,Unknown,08/04/2010,06/05/2010,Confirmed,Rift Valley fever,,"domestic, cattle",160,1,1,0,0,,,,
154371,OIE,-28.4833,23.7,Africa,South Africa,Northern Cape,Klein Papkuil,Unknown,23/04/2010,06/05/2010,Confirmed,Rift Valley fever,,"domestic, buffaloes",70,1,1,0,0,,,,
154370,OIE,-33.7592,18.9143,Africa,South Africa,Western Cape,Landskroon,Unknown,18/04/2010,06/05/2010,Confirmed,Rift Valley fever,,"captive, alpaca, domestic, sheep",301,3,3,0,0,,,,
154369,OIE,-28.84844,22.021682,Africa,South Africa,Northern Cape,Modderfontein,Centroid Admin1,11/04/2010,06/05/2010,Confirmed,Rift Valley fever,,"domestic, sheep",1500,10,10,0,0,,,,
154368,OIE,-30.3393,24.7661,Africa,South Africa,Northern Cape,Ventersvallei,Unknown,09/04/2010,06/05/2010,Confirmed,Rift Valley fever,,"domestic, sheep",2033,1,1,0,0,,,,
154367,OIE,-30.3451,23.7059,Africa,South Africa,Northern Cape,Seekoeigat,Unknown,20/04/2010,06/05/2010,Confirmed,Rift Valley fever,,"domestic, sheep",800,6,6,0,0,,,,
154366,OIE,-30.1412,23.9615,Africa,South Africa,Northern Cape,Christiaanskuil,Unknown,14/04/2010,06/05/2010,Confirmed,Rift Valley fever,,"domestic, sheep",265,5,5,0,0,,,,
154365,OIE,-28.8093,24.8624,Africa,South Africa,Free State,Rooifontein,Unknown,22/04/2010,06/05/2010,Confirmed,Rift Valley fever,,"wild, antelope",,1,1,0,0,,,,
154364,OIE,-30.8062,21.7816,Africa,South Africa,Northern Cape,Skietkolk,Unknown,02/04/2010,06/05/2010,Confirmed,Rift Valley fever,,"domestic, sheep",1522,23,23,0,0,,,,
154363,OIE,-32.4586,24.4616,Africa,South Africa,Eastern Cape,Tandjiesview,Unknown,28/04/2010,06/05/2010,Confirmed,Rift Valley fever,,"domestic, sheep",3000,24,24,0,0,,,,
154362,OIE,-28.035361,26.501389,Africa,South Africa,Free State,Brakpan,Unknown,01/03/2010,06/05/2010,Confirmed,Rift Valley fever,,"domestic, sheep",45,16,4,0,0,,,,
154361,OIE,-30.329,23.8961,Africa,South Africa,Northern Cape,Rhenosterfontein,Unknown,13/04/2010,06/05/2010,Confirmed,Rift Valley fever,,"domestic, cattle",,1,1,0,0,,,,
154360,OIE,-29.9705,23.5525,Africa,South Africa,Northern Cape,Rooipan Droogedam,Unknown,28/03/2010,06/05/2010,Confirmed,Rift Valley fever,,"domestic, sheep",230,12,11,0,0,,,,
154359,OIE,-28.48,21.2403,Africa,South Africa,Northern Cape,Oyfenhoudtsdrift Perseel 235,Unknown,29/03/2010,06/05/2010,Confirmed,Rift Valley fever,,"domestic, sheep",500,10,10,0,0,,,,
154358,OIE,-29.059,23.6919,Africa,South Africa,Northern Cape,Buchlands,Unknown,16/04/2010,06/05/2010,Confirmed,Rift Valley fever,,"domestic, sheep, domestic, goat",307,1,1,0,0,,,,
154357,OIE,-32.3421,22.6283,Africa,South Africa,Western Cape,Coleshill,Unknown,02/04/2010,06/05/2010,Confirmed,Rift Valley fever,,"domestic, sheep",10,4,4,0,0,,,,
154356,OIE,-32.22,25.6866,Africa,South Africa,Eastern Cape,Experimental Farm Cradock,Unknown,13/04/2010,06/05/2010,Confirmed,Rift Valley fever,,"domestic, sheep",3000,3,1,0,0,,,,
154355,OIE,-30.596,22.52788,Africa,South Africa,Northern Cape,De Put,Unknown,27/03/2010,06/05/2010,Confirmed,Rift Valley fever,,"domestic, sheep",1267,50,50,0,0,,,,
154354,OIE,-29.6695,22.8111,Africa,South Africa,Northern Cape,Hydepark,Unknown,05/04/2010,06/05/2010,Confirmed,Rift Valley fever,,"domestic, sheep",398,31,30,0,0,,,,
154353,OIE,-29.7545,22.6913,Africa,South Africa,Northern Cape,Preservation,Unknown,05/04/2010,06/05/2010,Confirmed,Rift Valley fever,,"domestic, sheep",500,8,7,0,0,,,,
154352,OIE,-28.6625,21.0722,Africa,South Africa,Northern Cape,Baklei-Eiland Perseel 219,Unknown,27/04/2010,06/05/2010,Confirmed,Rift Valley fever,,"domestic, sheep",200,1,1,0,0,,,,
154351,OIE,-29.9,20.7333,Africa,South Africa,Northern Cape,Klein Lemoenkop-Wes,Unknown,24/03/2010,06/05/2010,Confirmed,Rift Valley fever,,"domestic, sheep",1200,20,20,0,0,,,,
154350,OIE,-27.82638,27.08777,Africa,South Africa,Free State,Lesparance,Unknown,03/03/2010,06/05/2010,Confirmed,Rift Valley fever,,"domestic, cattle, domestic, sheep",110,24,4,0,0,,,,
154349,OIE,-27.1277,26.9525,Africa,South Africa,Free State,De Wetsdrift,Unknown,25/03/2010,06/05/2010,Confirmed,Rift Valley fever,,"domestic, cattle",170,1,1,0,0,,,,
154348,OIE,-28.3736,26.4708,Africa,South Africa,Free State,Kleinbegin,Unknown,15/02/2010,06/05/2010,Confirmed,Rift Valley fever,,"domestic, sheep",52,2,0,0,0,,,,
154347,OIE,-27.7597,26.8719,Africa,South Africa,Free State,De Rust,Unknown,15/03/2010,06/05/2010,Confirmed,Rift Valley fever,,"domestic, sheep",195,1,0,0,0,,,,
154346,OIE,-29.3092,21.1473,Africa,South Africa,Northern Cape,Kenhardt Meent,Unknown,09/03/2010,06/05/2010,Confirmed,Rift Valley fever,,"domestic, sheep",2500,8,8,0,0,,,,
154345,OIE,-28.5087,21.1785,Africa,South Africa,Northern Cape,Ben Ora,Unknown,14/04/2010,06/05/2010,Confirmed,Rift Valley fever,,"domestic, sheep",250,3,2,0,0,,,,
154344,OIE,-28.3616,24.329,Africa,South Africa,Northern Cape,Fairfield,Unknown,15/03/2010,06/05/2010,Confirmed,Rift Valley fever,,"domestic, sheep",176,13,11,0,0,,,,
154343,OIE,-31.5763,24.921,Africa,South Africa,Eastern Cape,Tweefontein,Unknown,10/04/2010,06/05/2010,Confirmed,Rift Valley fever,,"domestic, sheep",1500,1,1,0,0,,,,
154342,OIE,-31.8874,25.4882,Africa,South Africa,Eastern Cape,Katkop,Unknown,17/04/2010,06/05/2010,Confirmed,Rift Valley fever,,"domestic, sheep",1500,15,15,0,0,,,,
154341,OIE,-28.49,27.359,Africa,South Africa,Free State,Bellona,Unknown,16/03/2010,06/05/2010,Confirmed,Rift Valley fever,,"domestic, sheep",450,20,20,0,0,,,,
154340,National authorities,37.330017,100.131908,Asia,China,Qinghai Sheng,Gangcha Xian,Exact,23/04/2006,30/04/2006,Confirmed,Influenza - Avian,H5N1 HPAI,"wild, bar-headed goose",,1,1,,,,,,
154339,National authorities,30.083,31.433,Africa,Egypt,Cairo,Elhoda,Centroid Locality,05/05/2010,06/05/2010,Confirmed,Influenza - Avian,H5N1 HPAI,"domestic, chicken, domestic, duck, domestic, goose, domestic, unspecified bird",,25,,25,,,,,
154338,National authorities,31.129,30.091,Africa,Egypt,Behera,Ezbet elkadesia,Centroid Admin2,04/05/2010,05/05/2010,Confirmed,Influenza - Avian,H5N1 HPAI,"domestic, chicken, domestic, duck, domestic, unspecified bird",,10,,10,,,,,
154337,National authorities,25.75,32.683,Africa,Egypt,Luxor,Elzinia Kebly,Centroid Locality,04/05/2010,05/05/2010,Confirmed,Influenza - Avian,H5N1 HPAI,"domestic, chicken",,29,,29,,,,,
154336,National authorities,25.75,32.683,Africa,Egypt,Luxor,Elzinia Kebly,Centroid Locality,03/05/2010,04/05/2010,Confirmed,Influenza - Avian,H5N1 HPAI,"domestic, chicken",,1800,,1800,,,,,
154335,National authorities,31.022,31.229,Africa,Egypt,Gharbia,Mahalet Zeyad,Centroid Locality,02/05/2010,03/05/2010,Confirmed,Influenza - Avian,H5N1 HPAI,"domestic, chicken",,9,,9,,,,,
154333,OIE,37.620227,127.1738,Asia,Republic of Korea,Kyonggi-do,Juwon-ri,Centroid Locality,09/03/2010,11/03/2010,Confirmed,Foot and mouth disease,A,"captive, deer",12,12,0,12,0,,,,
154332,OIE,-27.871388,26.722222,Africa,South Africa,Free State,Thelma,Unknown,20/02/2010,10/03/2010,Confirmed,Rift Valley fever,,"domestic, cattle, wild, deer, domestic, goat, domestic, sheep",403,42,42,0,0,,,,
154331,OIE,-28.292278,26.122194,Africa,South Africa,Free State,Adriana,Unknown,20/02/2010,10/03/2010,Confirmed,Rift Valley fever,,"domestic, cattle, domestic, sheep",143,3,3,0,0,,,,
154330,OIE,-28.585278,26.1625,Africa,South Africa,Free State,Stillerust,Unknown,19/02/2010,10/03/2010,Confirmed,Rift Valley fever,,"domestic, cattle, domestic, sheep",2200,90,60,0,0,,,,
154329,OIE,-31.783333,25.7,Africa,South Africa,Eastern Cape,Groot dam Farm 1,Unknown,01/03/2010,10/03/2010,Confirmed,Rift Valley fever,,"domestic, cattle, domestic, sheep",4580,250,150,0,0,,,,
154328,OIE,-27.854444,26.354667,Africa,South Africa,Free State,Magdalena,Unknown,19/02/2010,10/03/2010,Confirmed,Rift Valley fever,,"domestic, cattle, domestic, sheep",420,15,2,0,0,,,,
154327,OIE,-28.150917,26.261833,Africa,South Africa,Free State,Electi,Unknown,19/02/2010,10/03/2010,Confirmed,Rift Valley fever,,"domestic, cattle, domestic, sheep",370,38,20,0,0,,,,
154326,OIE,-26.041972,28.547777,Africa,South Africa,Gauteng,Ystervarkfontein,Unknown,01/03/2010,10/03/2010,Confirmed,Rift Valley fever,,"domestic, goat, domestic, sheep",229,6,4,0,0,,,,
154325,OIE,-28.428972,26.222333,Africa,South Africa,Free State,Roodevallei,Unknown,19/02/2010,10/03/2010,Confirmed,Rift Valley fever,,"domestic, cattle, domestic, sheep",450,126,26,0,0,,,,
154324,OIE,-27.773667,26.535667,Africa,South Africa,Free State,Modderfontein,Unknown,22/02/2010,10/03/2010,Confirmed,Rift Valley fever,,"domestic, cattle, domestic, sheep",1110,9,9,0,0,,,,
154323,OIE,-27.939472,26.53311,Africa,South Africa,Free State,Kortlaagte,Unknown,19/02/2010,10/03/2010,Confirmed,Rift Valley fever,,"domestic, cattle, domestic, sheep",297,68,62,0,0,,,,
154322,OIE,-31.269722,25.200556,Africa,South Africa,Eastern Cape,Vetfontein,Unknown,15/02/2010,10/03/2010,Confirmed,Rift Valley fever,,"domestic, cattle",21,0,0,0,0,,,,
154321,OIE,-29.235278,26.082777,Africa,South Africa,Free State,Ratau,Unknown,22/02/2010,10/03/2010,Confirmed,Rift Valley fever,,"domestic, cattle",12,1,1,0,0,,,,
154320,OIE,44.86,0.06,Europe,France,Aquitaine,MONTCARET,Unknown,03/03/2010,10/03/2010,Confirmed,Equine infectious anaemia,,"domestic, horse",29,1,0,0,0,,,,
154319,OIE,32.2,131.53,Asia,Japan,Miyazaki,Kawaminami-cho Koyu-gun 15,Unknown,03/05/2010,05/05/2010,Confirmed,Foot and mouth disease,O,"domestic, swine",15747,3,0,15747,0,,,,
154318,OIE,32.2,131.53,Asia,Japan,Miyazaki,Kawaminami-cho Koyu-gun 14,Unknown,02/05/2010,05/05/2010,Confirmed,Foot and mouth disease,O,"domestic, cattle",37,2,0,37,0,,,,
154317,OIE,32.2,131.53,Asia,Japan,Miyazaki,Kawaminami-cho Koyu-gun 18,Unknown,04/05/2010,05/05/2010,Confirmed,Foot and mouth disease,O,"domestic, swine",679,2,0,679,0,,,,
154316,OIE,32.2,131.53,Asia,Japan,Miyazaki,Kawaminami-cho Koyu-gun 10,Unknown,29/04/2010,05/05/2010,Confirmed,Foot and mouth disease,O,"domestic, swine",1429,4,0,1429,0,,,,
154315,OIE,32.2,131.53,Asia,Japan,Miyazaki,Kawaminami-cho Koyu-gun 19,Unknown,04/05/2010,05/05/2010,Confirmed,Foot and mouth disease,O,"domestic, swine",4434,3,0,4434,0,,,,
154314,OIE,32.04,130.81,Asia,Japan,Miyazaki,Ebino city 2,Unknown,02/05/2010,05/05/2010,Confirmed,Foot and mouth disease,O,"domestic, swine",320,3,0,320,0,,,,
154313,OIE,32.2,131.53,Asia,Japan,Miyazaki,Kawaminami-cho Koyu-gun 17,Unknown,04/05/2010,05/05/2010,Confirmed,Foot and mouth disease,O,"domestic, swine",780,5,0,780,0,,,,
154312,OIE,32.2,131.53,Asia,Japan,Miyazaki,Kawaminami-cho Koyu-gun 12,Unknown,30/04/2010,05/05/2010,Confirmed,Foot and mouth disease,O,"domestic, swine",299,1,0,299,0,,,,
154311,OIE,32.2,131.53,Asia,Japan,Miyazaki,Kawaminami-cho Koyu-gun 11,Unknown,30/04/2010,05/05/2010,Confirmed,Foot and mouth disease,O,"domestic, swine",3882,1,0,3882,0,,,,
154310,OIE,32.2,131.53,Asia,Japan,Miyazaki,Kawaminami-cho Koyu-gun 9,Unknown,28/04/2010,05/05/2010,Confirmed,Foot and mouth disease,O,"domestic, cattle",424,3,0,424,0,,,,
154309,OIE,32.2,131.53,Asia,Japan,Miyazaki,Kawaminami-cho Koyu-gun 16,Unknown,03/05/2010,05/05/2010,Confirmed,Foot and mouth disease,O,"domestic, swine",3010,3,0,3010,0,,,,
154308,OIE,32.2,131.53,Asia,Japan,Miyazaki,Kawaminami-cho Koyu-gun 13,Unknown,02/05/2010,05/05/2010,Confirmed,Foot and mouth disease,O,"domestic, cattle",4,2,0,4,0,,,,
154307,OIE,32.2,131.53,Asia,Japan,Miyazaki,Kawaminami-cho Koyu-gun 8,Unknown,28/04/2010,05/05/2010,Confirmed,Foot and mouth disease,O,"domestic, cattle",50,2,0,50,0,,,,
154306,OIE,51.475455,7.184187,Europe,Germany,Nordrhein-Westfalen,Goldhamme,Unknown,03/05/2010,04/05/2010,Confirmed,Newcastle disease,,"domestic, pigeon",20,5,5,0,0,,,,
154305,OIE,47.2669,118.1894,Asia,Mongolia,Dornod,Tashgai Bayanburd,Unknown,21/04/2010,04/05/2010,Confirmed,Foot and mouth disease,O,"domestic, cattle, domestic, sheep, domestic, camelidae, domestic, goat",3157,269,,269,,,,,
154304,OIE,36.225955,126.570278,Asia,Republic of Korea,Chungchongnam-do,Jeongsan-myeon,Unknown,30/04/2010,03/05/2010,Confirmed,Foot and mouth disease,O,"domestic, cattle, domestic, swine",1540,2,0,1540,0,,,,
154303,OIE,37.43949,126.40946,Asia,Republic of Korea,Inchon,Buleun-myeon 2,Centroid Locality,27/04/2010,03/05/2010,Confirmed,Foot and mouth disease,O,"domestic, swine",1118,2,0,1118,0,,,,
154301,OIE,24.204412,120.559636,Asia,Taiwan (Province of China),Taiwan Sheng,Lungjing Township,Unknown,28/04/2010,30/04/2010,Confirmed,Sheep pox and goat pox,,"domestic, goat",231,4,0,231,0,,,,
154300,OIE,23.3654,120.1546,Asia,Taiwan (Province of China),Taiwan Sheng,Shueilin Township 1,Unknown,01/03/2010,30/04/2010,Confirmed,Sheep pox and goat pox,,"domestic, goat",130,10,0,130,0,,,,
154299,OIE,23.574371,120.207371,Asia,Taiwan (Province of China),Taiwan Sheng,Shueilin Township 2,Unknown,28/04/2010,30/04/2010,Confirmed,Sheep pox and goat pox,,"domestic, goat",51,8,0,51,0,,,,
154298,OIE,23.550626,120.192032,Asia,Taiwan (Province of China),Taiwan Sheng,Yuanchang Township 4,Unknown,13/04/2010,30/04/2010,Confirmed,Sheep pox and goat pox,,"domestic, goat",32,20,0,32,0,,,,
154297,OIE,23.823448,120.483968,Asia,Taiwan (Province of China),Taiwan Sheng,Shijou Township 1,Unknown,20/04/2010,30/04/2010,Confirmed,Sheep pox and goat pox,,"domestic, goat",367,54,0,367,0,,,,
154296,OIE,24.001938,120.386897,Asia,Taiwan (Province of China),Taiwan Sheng,Shijou Township 2,Unknown,26/04/2010,30/04/2010,Confirmed,Sheep pox and goat pox,,"domestic, goat",155,1,0,155,0,,,,
154295,OIE,23.042928,120.443179,Asia,Taiwan (Province of China),Taiwan Sheng,Nanhua Township,Unknown,25/04/2010,30/04/2010,Confirmed,Sheep pox and goat pox,,"domestic, goat",378,30,0,378,0,,,,
154293,OIE,-29.09725,24.606222,Africa,South Africa,Northern Cape,Rietrivier,Unknown,03/04/2010,28/04/2010,Confirmed,Rift Valley fever,,"domestic, goat",,3,0,0,0,,,,
154292,OIE,-28.95,24.733333,Africa,South Africa,Northern Cape,Magersfontein,Unknown,16/04/2010,28/04/2010,Confirmed,Rift Valley fever,,"domestic, cattle, wild, unspecified mammal, domestic, goat, domestic, sheep, domestic, buffaloes",3810,1,0,0,0,,,,
154291,OIE,-28.8,24.5,Africa,South Africa,Northern Cape,De Hoop,Unknown,17/04/2010,28/04/2010,Confirmed,Rift Valley fever,,"domestic, cattle, domestic, sheep, domestic, goat",102,3,1,0,0,,,,
154290,OIE,-30.051278,22.945889,Africa,South Africa,Northern Cape,Ramkraal,Unknown,22/03/2010,28/04/2010,Confirmed,Rift Valley fever,,"domestic, sheep",,280,15,15,0,,,,
154289,OIE,-31.4,27.6,Africa,South Africa,Eastern Cape,Deochandoris,Unknown,06/04/2010,28/04/2010,Confirmed,Rift Valley fever,,"domestic, sheep",330,2,0,0,0,,,,
154288,OIE,-31.945306,25.177,Africa,South Africa,Eastern Cape,Strydomskraal,Unknown,13/04/2010,28/04/2010,Confirmed,Rift Valley fever,,"domestic, sheep",1500,7,7,0,0,,,,
154287,OIE,-31.351944,25.444167,Africa,South Africa,Eastern Cape,Skoongesig,Unknown,22/03/2010,28/04/2010,Confirmed,Rift Valley fever,,"domestic, sheep",500,11,11,0,0,,,,
154286,OIE,-28.035361,26.501389,Africa,South Africa,Free State,Baumgarden,Unknown,01/03/2010,28/04/2010,Confirmed,Rift Valley fever,,"domestic, sheep",45,16,4,0,0,,,,
154285,OIE,-30.205,25.703333,Africa,South Africa,Free State,Skoon Uitzight,Unknown,26/03/2010,28/04/2010,Confirmed,Rift Valley fever,,"domestic, sheep, domestic, cattle",1048,5,4,0,0,,,,
154284,OIE,-27.576667,27.493333,Africa,South Africa,Free State,Fonteinspruit,Unknown,20/03/2010,28/04/2010,Confirmed,Rift Valley fever,,"domestic, sheep, domestic, cattle",250,14,1,0,0,,,,
154283,OIE,-27.26833,26.95138,Africa,South Africa,Free State,Viljoenskroon Townlands,Unknown,06/04/2010,28/04/2010,Confirmed,Rift Valley fever,,"domestic, sheep, domestic, cattle",7,2,2,0,0,,,,
154282,OIE,-30.2688,26.0444,Africa,South Africa,Free State,Katfontein,Unknown,13/04/2010,28/04/2010,Confirmed,Rift Valley fever,,"domestic, cattle",,3,3,0,0,,,,
154281,OIE,-29.4925,24.53306,Africa,South Africa,Free State,Deellaagte,Unknown,09/04/2010,28/04/2010,Confirmed,Rift Valley fever,,"domestic, sheep",1000,20,20,0,0,,,,
154280,OIE,-29.559981,24.753917,Africa,South Africa,Free State,Biesiesfontein,Unknown,31/03/2010,28/04/2010,Confirmed,Rift Valley fever,,"domestic, sheep, domestic, cattle",716,12,9,0,0,,,,
154279,OIE,-29.18333,24.5,Africa,South Africa,Northern Cape,Heuningneskloof,Unknown,13/04/2010,28/04/2010,Confirmed,Rift Valley fever,,"wild, antelope, domestic, sheep",3504,1,1,0,0,,,,
154278,OIE,-27.661694,24.700833,Africa,South Africa,Northern Cape,Perseel 3 M15,Unknown,01/04/2010,28/04/2010,Confirmed,Rift Valley fever,,"domestic, sheep",61,10,10,0,0,,,,
154277,OIE,-29.881278,24.177194,Africa,South Africa,Northern Cape,Kraankuil,Unknown,15/03/2010,28/04/2010,Confirmed,Rift Valley fever,,"domestic, sheep",40,7,7,0,0,,,,
154276,OIE,-31.996889,25.497083,Africa,South Africa,Eastern Cape,Panorama,Unknown,06/04/2010,28/04/2010,Confirmed,Rift Valley fever,,"domestic, sheep",,6,6,0,0,,,,
154275,OIE,-31.442778,25.47,Africa,South Africa,Eastern Cape,Mount Melsetter,Unknown,28/03/2010,28/04/2010,Confirmed,Rift Valley fever,,"domestic, sheep, domestic, cattle",940,5,5,0,0,,,,
154274,OIE,-28.386111,26.105555,Africa,South Africa,Free State,Klipkuil,Unknown,28/02/2010,28/04/2010,Confirmed,Rift Valley fever,,"domestic, cattle",42,18,18,0,0,,,,
154273,OIE,-30.023361,24.943417,Africa,South Africa,Free State,Bloedfontein,Unknown,21/03/2010,28/04/2010,Confirmed,Rift Valley fever,,"domestic, cattle, domestic, sheep",2050,1,1,0,0,,,,
154272,OIE,-29.468794,25.106819,Africa,South Africa,Free State,Blaauwbank,Unknown,31/03/2010,28/04/2010,Confirmed,Rift Valley fever,,"domestic, sheep, domestic, cattle",376,5,2,0,0,,,,
154271,OIE,-27.4388,28.1163,Africa,South Africa,Free State,Bankfontein,Unknown,08/03/2010,28/04/2010,Confirmed,Rift Valley fever,,"domestic, cattle",300,4,0,0,0,,,,
154270,OIE,-27.9063,26.4318,Africa,South Africa,Free State,Philadelphia,Unknown,23/03/2010,28/04/2010,Confirmed,Rift Valley fever,,"domestic, cattle, domestic, sheep, domestic, goat",165,8,5,0,0,,,,
154269,OIE,-28.83101,24.83101,Africa,South Africa,Free State,Duraville,Unknown,14/03/2010,28/04/2010,Confirmed,Rift Valley fever,,"domestic, sheep",300,46,41,0,0,,,,
154268,OIE,-29.997889,23.300889,Africa,South Africa,Northern Cape,Koppiesdam,Unknown,21/03/2010,28/04/2010,Confirmed,Rift Valley fever,,"domestic, cattle, domestic, sheep",,3,3,2,0,,,,
154267,OIE,-31.263,22.914083,Africa,South Africa,Northern Cape,Tromps graf,Unknown,14/04/2010,28/04/2010,Confirmed,Rift Valley fever,,"domestic, sheep",,100,100,0,0,,,,
154266,OIE,-31.77675,25.307222,Africa,South Africa,Eastern Cape,Glencoe,Unknown,02/04/2010,28/04/2010,Confirmed,Rift Valley fever,,"domestic, sheep",2650,30,10,0,0,,,,
154265,OIE,-31.234167,25.991389,Africa,South Africa,Eastern Cape,Leeuwfontein,Unknown,14/03/2010,28/04/2010,Confirmed,Rift Valley fever,,"domestic, sheep, domestic, cattle",1350,8,7,0,0,,,,
154264,OIE,-29.183864,24.798336,Africa,South Africa,Free State,Edaneg,Unknown,07/03/2010,28/04/2010,Confirmed,Rift Valley fever,,"domestic, cattle",78,2,2,0,0,,,,
154263,OIE,-30.228333,25.698333,Africa,South Africa,Free State,Rondefontein,Unknown,26/03/2010,28/04/2010,Confirmed,Rift Valley fever,,"domestic, cattle, domestic, sheep",147,3,2,0,0,,,,
154262,OIE,-29.64039,24.66508,Africa,South Africa,Free State,Brakput,Unknown,07/04/2010,28/04/2010,Confirmed,Rift Valley fever,,"domestic, sheep, domestic, cattle",1250,85,70,0,0,,,,
154261,OIE,-27.052,27.612,Africa,South Africa,Free State,Lettiesrust,Unknown,20/03/2010,28/04/2010,Confirmed,Rift Valley fever,,"domestic, cattle, domestic, sheep",230,6,2,0,0,,,,
154260,OIE,-29.17136,25.0754,Africa,South Africa,Free State,Danzig,Unknown,24/03/2010,28/04/2010,Confirmed,Rift Valley fever,,"domestic, sheep",,42,12,0,0,,,,
154259,OIE,-29.4369,25.249444,Africa,South Africa,Free State,Leeuwkop,Unknown,25/03/2010,28/04/2010,Confirmed,Rift Valley fever,,"domestic, cattle, domestic, sheep",996,48,33,0,0,,,,
154258,OIE,-30.41611,26.975,Africa,South Africa,Free State,Hekkamp,Unknown,06/04/2010,28/04/2010,Confirmed,Rift Valley fever,,"domestic, sheep",140,4,3,0,0,,,,
154257,OIE,-29.714961,24.581919,Africa,South Africa,Free State,Poortjie,Unknown,07/04/2010,28/04/2010,Confirmed,Rift Valley fever,,"domestic, sheep, domestic, cattle",462,5,5,0,0,,,,
154256,OIE,-29.585833,26.294444,Africa,South Africa,Free State,Bultfontein Reddersburg,Unknown,29/03/2010,28/04/2010,Confirmed,Rift Valley fever,,"domestic, cattle, domestic, sheep",4100,7,0,0,0,,,,
154255,OIE,-28.416667,24.283333,Africa,South Africa,Northern Cape,Delportshoop Plot,Unknown,17/04/2010,28/04/2010,Confirmed,Rift Valley fever,,"domestic, sheep",62,1,0,0,0,,,,
154254,OIE,-31.338138,23.609383,Africa,South Africa,Northern Cape,Alexandria,Unknown,07/04/2010,28/04/2010,Confirmed,Rift Valley fever,,"domestic, sheep",1125,35,35,0,0,,,,
154253,OIE,-31.613833,25.329722,Africa,South Africa,Eastern Cape,Landsdown,Unknown,10/04/2010,28/04/2010,Confirmed,Rift Valley fever,,"domestic, sheep",2000,1,1,0,0,,,,
154252,OIE,-31.552056,26.003583,Africa,South Africa,Eastern Cape,The Pines,Unknown,31/03/2010,28/04/2010,Confirmed,Rift Valley fever,,"domestic, sheep, domestic, cattle, domestic, goat",2630,7,6,0,0,,,,
154251,OIE,-27.2058,27.431944,Africa,South Africa,Free State,Zaaiplaats,Unknown,28/02/2010,28/04/2010,Confirmed,Rift Valley fever,,"domestic, sheep, domestic, cattle",1000,87,10,87,0,,,,
154250,OIE,-26.96138,27.3966,Africa,South Africa,Free State,Schulpspruit,Unknown,26/03/2010,28/04/2010,Confirmed,Rift Valley fever,,"domestic, sheep, domestic, cattle",41,8,6,0,0,,,,
154249,OIE,-27.42888,27.2058,Africa,South Africa,Free State,Rustplaas,Unknown,09/04/2010,28/04/2010,Confirmed,Rift Valley fever,,"domestic, sheep, domestic, cattle",363,19,4,0,0,,,,
154248,OIE,-27.2183,27.9513,Africa,South Africa,Free State,Viljoenskroon Townlands,Unknown,29/03/2010,28/04/2010,Confirmed,Rift Valley fever,,"domestic, cattle, domestic, sheep, domestic, goat",299,1,1,0,0,,,,
154247,OIE,-29.3867,25.1286,Africa,South Africa,Free State,Anex Twyfelpoort,Unknown,11/03/2010,28/04/2010,Confirmed,Rift Valley fever,,"domestic, cattle, domestic, sheep",146,8,6,0,0,,,,
154246,OIE,-29.3292,24.9329,Africa,South Africa,Free State,Wintershoek,Unknown,16/03/2010,28/04/2010,Confirmed,Rift Valley fever,,"domestic, sheep",600,42,19,0,0,,,,
154245,OIE,-29.466706,24.433139,Africa,South Africa,Northern Cape,Oudam,Unknown,08/04/2010,28/04/2010,Confirmed,Rift Valley fever,,"domestic, sheep, domestic, cattle",417,3,3,0,0,,,,
154244,OIE,-29.566666,24.316666,Africa,South Africa,Northern Cape,Donnybrook,Unknown,11/04/2010,28/04/2010,Confirmed,Rift Valley fever,,"domestic, sheep, domestic, goat",1520,3,2,0,0,,,,
154243,OIE,-27.709194,24.793778,Africa,South Africa,Northern Cape,Perseel 2 JX 4,Unknown,12/04/2010,28/04/2010,Confirmed,Rift Valley fever,,"domestic, cattle",77,10,8,0,0,,,,
154242,OIE,-28.118861,24.824833,Africa,South Africa,Northern Cape,Middelplaas,Unknown,15/04/2010,28/04/2010,Confirmed,Rift Valley fever,,"domestic, cattle",300,1,0,0,0,,,,
154241,OIE,-31.2725,25.408888,Africa,South Africa,Eastern Cape,Henningsfontein,Unknown,26/03/2010,28/04/2010,Confirmed,Rift Valley fever,,"domestic, goat, domestic, sheep, domestic, cattle",1175,8,1,0,0,,,,
154240,OIE,-28.45,26.416666,Africa,South Africa,Free State,Normandi,Unknown,18/02/2010,28/04/2010,Confirmed,Rift Valley fever,,"domestic, sheep, domestic, cattle",36,13,11,0,0,,,,
154239,OIE,-31.934664,23.519667,Africa,South Africa,Western Cape,Sekretariskraal,Unknown,29/03/2010,28/04/2010,Confirmed,Rift Valley fever,,"domestic, sheep",100,45,19,0,0,,,,
154238,OIE,-27.935889,26.922333,Africa,South Africa,Free State,Maatskappy,Unknown,15/02/2010,28/04/2010,Confirmed,Rift Valley fever,,"domestic, sheep, domestic, cattle",230,16,4,0,0,,,,
154237,OIE,-27.463,27.286,Africa,South Africa,Free State,Drummond,Unknown,06/04/2010,28/04/2010,Confirmed,Rift Valley fever,,"domestic, goat",400,2,2,0,0,,,,
154236,OIE,-27.802,26.7145,Africa,South Africa,Free State,Buitendags Hoop,Unknown,20/03/2010,28/04/2010,Confirmed,Rift Valley fever,,"domestic, sheep",70,7,2,0,0,,,,
154235,OIE,-29.60167,26.14056,Africa,South Africa,Free State,Felicitas,Unknown,16/03/2010,28/04/2010,Confirmed,Rift Valley fever,,"domestic, sheep, domestic, cattle",,76,26,0,0,,,,
154234,OIE,-30.681083,23.516278,Africa,South Africa,Northern Cape,Kolkenburg,Unknown,13/04/2010,28/04/2010,Confirmed,Rift Valley fever,,"domestic, sheep",62,1,1,0,0,,,,
154233,OIE,-31.090472,23.391083,Africa,South Africa,Northern Cape,Dombietersfontein,Unknown,14/04/2010,28/04/2010,Confirmed,Rift Valley fever,,"domestic, sheep",,2,2,0,0,,,,
154232,OIE,-29.977194,21.315944,Africa,South Africa,Northern Cape,Poortjies,Unknown,24/03/2010,28/04/2010,Confirmed,Rift Valley fever,,"domestic, sheep",500,7,1,0,0,,,,
154231,OIE,-28.986111,25.388056,Africa,South Africa,Free State,Middelpunt,Unknown,16/03/2010,28/04/2010,Confirmed,Rift Valley fever,,"domestic, cattle",56,2,2,0,0,,,,
154230,OIE,-28.163888,26.416944,Africa,South Africa,Free State,Onssin,Unknown,22/02/2010,28/04/2010,Confirmed,Rift Valley fever,,"domestic, sheep",2000,600,150,0,0,,,,
154229,OIE,-29.416033,24.516561,Africa,South Africa,Free State,Memo,Unknown,17/04/2010,28/04/2010,Confirmed,Rift Valley fever,,"domestic, sheep, domestic, goat, domestic, cattle",772,20,11,0,0,,,,
154228,OIE,-29.393064,24.561514,Africa,South Africa,Free State,Hartebeesdam,Unknown,31/03/2010,28/04/2010,Confirmed,Rift Valley fever,,"domestic, cattle, domestic, sheep",235,11,9,0,0,,,,
154227,OIE,-29.567594,25.060003,Africa,South Africa,Free State,Eensgevonden,Unknown,07/04/2010,28/04/2010,Confirmed,Rift Valley fever,,"domestic, cattle, domestic, sheep",352,13,7,0,0,,,,
154226,OIE,-27.7369,27.0133,Africa,South Africa,Free State,Geluk 2484,Unknown,10/03/2010,28/04/2010,Confirmed,Rift Valley fever,,"domestic, sheep, domestic, cattle",1200,450,450,0,0,,,,
154225,OIE,-27.31,26.9733,Africa,South Africa,Free State,Geluk,Unknown,18/03/2010,28/04/2010,Confirmed,Rift Valley fever,,"domestic, cattle, domestic, sheep",658,179,129,0,0,,,,
154224,OIE,-29.2936,24.9669,Africa,South Africa,Free State,Koppieskraal,Unknown,15/03/2010,28/04/2010,Confirmed,Rift Valley fever,,"domestic, cattle, domestic, sheep",820,16,9,0,0,,,,
154223,OIE,-29.3382,24.82137,Africa,South Africa,Free State,De Klei Oos,Unknown,07/04/2010,28/04/2010,Confirmed,Rift Valley fever,,"domestic, cattle, domestic, sheep",700,182,82,0,0,,,,
154222,OIE,-28.125,24.8625,Africa,South Africa,Northern Cape,Grasbult,Unknown,14/04/2010,28/04/2010,Confirmed,Rift Valley fever,,"domestic, sheep, domestic, goat, domestic, cattle",1150,2,0,0,0,,,,
154221,OIE,-27.708333,25.054167,Africa,South Africa,North West,Misgun Kareeboomput,Unknown,25/03/2010,28/04/2010,Confirmed,Rift Valley fever,,"domestic, cattle",110,1,1,0,0,,,,
154220,OIE,-31.48333,25.116666,Africa,South Africa,Eastern Cape,Buffelskop,Unknown,31/03/2010,28/04/2010,Confirmed,Rift Valley fever,,"domestic, cattle, domestic, goat, domestic, sheep",26,1,0,0,0,,,,
154219,OIE,-31.392194,25.047833,Africa,South Africa,Eastern Cape,Bangor,Unknown,31/03/2010,28/04/2010,Confirmed,Rift Valley fever,,"domestic, sheep",1500,2,2,0,0,,,,
154218,OIE,-31.904556,25.4732,Africa,South Africa,Eastern Cape,Terminus,Unknown,12/04/2010,28/04/2010,Confirmed,Rift Valley fever,,"domestic, sheep",1500,1,1,0,0,,,,
154217,OIE,-30.186056,25.569444,Africa,South Africa,Free State,Slangfontein,Unknown,26/03/2010,28/04/2010,Confirmed,Rift Valley fever,,"domestic, sheep",1500,16,9,0,0,,,,
154216,OIE,-29.582997,25.052108,Africa,South Africa,Free State,Inkomst,Unknown,07/04/2010,28/04/2010,Confirmed,Rift Valley fever,,"domestic, sheep, domestic, cattle",949,81,56,0,0,,,,
154215,OIE,-29.3658,25.48944,Africa,South Africa,Free State,Legkraal,Unknown,12/03/2010,28/04/2010,Confirmed,Rift Valley fever,,"domestic, sheep",2000,96,16,0,0,,,,
154214,OIE,-34.00916,22.2725,Africa,South Africa,Western Cape,Montainview,Unknown,20/04/2010,28/04/2010,Confirmed,Rift Valley fever,,"domestic, cattle",55,1,1,0,0,,,,
154213,OIE,-29.421253,24.756997,Africa,South Africa,Free State,Doringfontein,Unknown,17/03/2010,28/04/2010,Confirmed,Rift Valley fever,,"domestic, sheep, domestic, goat, domestic, cattle",327,37,24,0,0,,,,
154212,OIE,-29.400961,24.660053,Africa,South Africa,Free State,Stofdam,Unknown,31/03/2010,28/04/2010,Confirmed,Rift Valley fever,,"domestic, sheep, domestic, cattle",166,15,14,0,0,,,,
154211,OIE,-29.079417,24.596639,Africa,South Africa,Northern Cape,Klipdrift,Unknown,14/04/2010,28/04/2010,Confirmed,Rift Valley fever,,"domestic, sheep, domestic, cattle, domestic, goat",312,6,6,0,0,,,,
154210,OIE,-30.428,23.194778,Africa,South Africa,Northern Cape,Holpan,Unknown,13/04/2010,28/04/2010,Confirmed,Rift Valley fever,,"domestic, sheep",,2,2,0,0,,,,
154209,OIE,-31.717861,25.925278,Africa,South Africa,Eastern Cape,Liebendal,Unknown,24/03/2010,28/04/2010,Confirmed,Rift Valley fever,,"domestic, goat/sheep ",800,10,10,0,0,,,,
154208,OIE,-31.86666,25.416666,Africa,South Africa,Eastern Cape,Prospect,Unknown,30/03/2010,28/04/2010,Confirmed,Rift Valley fever,,"domestic, sheep, domestic, cattle",1820,2,2,0,0,,,,
154207,OIE,-28.013333,26.239444,Africa,South Africa,Free State,Ouwerf,Unknown,01/03/2010,28/04/2010,Confirmed,Rift Valley fever,,"domestic, cattle",600,2,2,0,0,,,,
154206,OIE,-27.0716,27.3216,Africa,South Africa,Free State,Klippan,Unknown,12/03/2010,28/04/2010,Confirmed,Rift Valley fever,,"domestic, sheep, domestic, cattle",228,7,7,0,0,,,,
154205,OIE,-29.515003,24.817039,Africa,South Africa,Free State,Uitzight,Unknown,31/03/2010,28/04/2010,Confirmed,Rift Valley fever,,"domestic, sheep, domestic, cattle",744,20,14,0,0,,,,
154204,OIE,-27.391388,27.015556,Africa,South Africa,Free State,Kedron,Unknown,29/03/2010,28/04/2010,Confirmed,Rift Valley fever,,"domestic, sheep, domestic, cattle",244,3,2,0,0,,,,
154203,OIE,-27.34516,27.21972,Africa,South Africa,Free State,Pleasure,Unknown,25/03/2010,28/04/2010,Confirmed,Rift Valley fever,,"domestic, sheep, domestic, cattle",428,8,6,0,0,,,,
154202,OIE,-28.92,25.3,Africa,South Africa,Free State,Platkop,Unknown,12/03/2010,28/04/2010,Confirmed,Rift Valley fever,,"domestic, sheep, domestic, cattle",316,0,2,0,0,,,,
154201,OIE,-29.40668,25.00453,Africa,South Africa,Free State,Welverdiend,Unknown,16/03/2010,28/04/2010,Confirmed,Rift Valley fever,,"domestic, goat, domestic, sheep",420,26,7,0,0,,,,
154200,OIE,32.2,131.53,Asia,Japan,Miyazaki,Kawaminami-cho Koyu-gun 5,Unknown,23/04/2010,28/04/2010,Confirmed,Foot and mouth disease,O,"domestic, cattle",725,4,0,725,0,,,,
154199,OIE,32.2,131.53,Asia,Japan,Miyazaki,Kawaminami-cho Koyu-gun 6,Unknown,26/04/2010,28/04/2010,Confirmed,Foot and mouth disease,O,"domestic, swine",486,5,0,486,0,,,,
154198,OIE,32.04,130.81,Asia,Japan,Miyazaki,Ebino city 1,Unknown,27/04/2010,28/04/2010,Confirmed,Foot and mouth disease,O,"domestic, cattle",275,4,0,275,0,,,,
154197,OIE,32.2,131.53,Asia,Japan,Miyazaki,Kawaminami-cho Koyu-gun 7,Unknown,27/04/2010,28/04/2010,Confirmed,Foot and mouth disease,O,"domestic, cattle",1019,5,0,1019,0,,,,
154189,National authorities,41.2,36.718889,Asia,Turkey,Samsun,Çar amba,Exact,22/02/2006,16/03/2006,Confirmed,Influenza - Avian,H5N1 HPAI,"wild, unspecified bird",,1,1,,,,,,
154188,National authorities,40.9,35.917222,Asia,Turkey,Samsun,Ladik,Exact,22/02/2006,16/03/2006,Confirmed,Influenza - Avian,H5N1 HPAI,"wild, sparrow",,1,1,,,,,,
154187,National authorities,41.118889,37.268889,Asia,Turkey,Ordu,Ünye,Exact,22/02/2006,16/03/2006,Confirmed,Influenza - Avian,H5N1 HPAI,"wild, sparrow",,1,1,,,,,,
154186,National authorities,41.267222,36.318889,Asia,Turkey,Samsun,Merkez,Exact,17/02/2006,16/03/2006,Confirmed,Influenza - Avian,H5N1 HPAI,"wild, hawk",,1,1,,,,,,
154185,National authorities,41.267222,36.318889,Asia,Turkey,Samsun,Merkez,Exact,17/02/2006,16/03/2006,Confirmed,Influenza - Avian,H5N1 HPAI,"wild, unspecified bird",,1,1,,,,,,
154184,National authorities,41.55,35.9,Asia,Turkey,Samsun,Bafra,Exact,16/02/2006,16/03/2006,Confirmed,Influenza - Avian,H5N1 HPAI,"wild, cormorant",,1,1,,,,,,
154183,National authorities,41.267222,36.318889,Asia,Turkey,Samsun,Merkez,Exact,16/02/2006,16/03/2006,Confirmed,Influenza - Avian,H5N1 HPAI,"wild, pigeon",,1,1,,,,,,
154182,National authorities,41.55,35.9,Asia,Turkey,Samsun,Bafra,Exact,11/02/2006,16/03/2006,Confirmed,Influenza - Avian,H5N1 HPAI,"wild, gull",,2,2,,,,,,
154181,National authorities,37.917222,40.218889,Asia,Turkey,Diyarbakir,Merkez,Exact,02/02/2006,10/02/2006,Confirmed,Influenza - Avian,H5N1 HPAI,"wild, pigeon",,6,6,,,,,,
154180,National authorities,41.818889,32.717222,Asia,Turkey,Bartin,Kuruca ile,Exact,02/02/2006,08/02/2006,Confirmed,Influenza - Avian,H5N1 HPAI,"wild, swan",,2,2,,,,,,
154179,National authorities,37.317222,40.75,Asia,Turkey,Mardin,Merkez,Exact,02/01/2006,08/02/2006,Confirmed,Influenza - Avian,H5N1 HPAI,"wild, pigeon",,1,1,,,,,,
154178,National authorities,37.867222,41.117222,Asia,Turkey,Batman,Merkez,Exact,12/01/2006,26/01/2006,Confirmed,Influenza - Avian,H5N1 HPAI,"wild, quail",,1,1,,,,,,
154177,National authorities,40.568889,36.95,Asia,Turkey,Tokat,Niksar ,Exact,09/01/2006,09/02/2006,Confirmed,Influenza - Avian,H5N1 HPAI,"wild, owl",,1,1,,,,,,
154176,National authorities,41.2,32.617222,Asia,Turkey,Karabuk,Merkez-Kayaba  ,Exact,08/01/2006,22/01/2006,Confirmed,Influenza - Avian,H5N1 HPAI,"wild, pigeon",,1,1,,,,,,
154175,National authorities,40.317222,35.918889,Asia,Turkey,Tokat,Zile,Exact,07/01/2006,09/02/2006,Confirmed,Influenza - Avian,H5N1 HPAI,"wild, pigeon",,1,1,,,,,,
154174,National authorities,41.267222,36.318889,Asia,Turkey,Samsun,Merkez,Exact,07/01/2006,09/02/2006,Confirmed,Influenza - Avian,H5N1 HPAI,"wild, starling",,1,1,,,,,,
154173,National authorities,41.067222,36.05,Asia,Turkey,Samsun,Kavak,Exact,06/01/2006,09/02/2006,Confirmed,Influenza - Avian,H5N1 HPAI,"wild, starling",,1,1,,,,,,
154172,National authorities,38.718889,42.718889,Asia,Turkey,Bitlis,Adilcevaz,Exact,21/11/2005,06/01/2006,Confirmed,Influenza - Avian,H5N1 HPAI,"wild, pigeon",,2,2,,,,,,
154171,National authorities,39.718889,39.468889,Asia,Turkey,Erzincan,Merkez,Exact,21/11/2005,06/01/2006,Confirmed,Influenza - Avian,H5N1 HPAI,"wild, pigeon",,3,3,,,,,,
154170,National authorities,39.618889,43.367222,Asia,Turkey,Agri,Tasl cay,Exact,17/11/2005,10/12/2005,Confirmed,Influenza - Avian,H5N1 HPAI,"wild, pigeon",,5,5,,,,,,
154169,National authorities,40.867222,43.318889,Asia,Turkey,Kars,Arpaçay,Exact,15/11/2005,09/12/2005,Confirmed,Influenza - Avian,H5N1 HPAI,"wild, pigeon",,95,95,,,,,,
154168,National authorities,46.608611,15.163055,Europe,Slovenia,Koroska,Maribor,Exact,10/02/2006,10/02/2006,Confirmed,Influenza - Avian,H5N1 HPAI,"wild, grey heron",,1,1,,,,,,
154167,National authorities,46.566666,15.614166,Europe,Slovenia,Podravska,Maribor,Exact,16/02/2006,16/02/2006,Confirmed,Influenza - Avian,H5N1 HPAI,"wild, swan",,1,1,,,,,,
154166,National authorities,46.565277,15.423611,Europe,Slovenia,Podravska,Ruse,Exact,10/02/2006,10/02/2006,Confirmed,Influenza - Avian,H5N1 HPAI,"wild, swan",,1,1,,,,,,
154165,National authorities,46.565277,15.423611,Europe,Slovenia,Podravska,Ruse,Exact,10/02/2006,10/02/2006,Confirmed,Influenza - Avian,H5N1 HPAI,"wild, swan",,3,3,,,,,,
154164,National authorities,46.563611,15.585555,Europe,Slovenia,Podravska,Maribor,Exact,05/03/2006,05/03/2006,Confirmed,Influenza - Avian,H5N1 HPAI,"wild, mallard",,1,1,,,,,,
154163,National authorities,46.559444,15.676944,Europe,Slovenia,Podravska,Maribor,Exact,20/02/2006,20/02/2006,Confirmed,Influenza - Avian,H5N1 HPAI,"wild, swan",,1,1,,,,,,
154162,National authorities,46.558611,15.631666,Europe,Slovenia,Podravska,Maribor,Exact,16/02/2006,16/02/2006,Confirmed,Influenza - Avian,H5N1 HPAI,"wild, swan",,3,3,,,,,,
154161,National authorities,46.558055,15.6775,Europe,Slovenia,Podravska,Maribor,Exact,26/03/2006,26/03/2006,Confirmed,Influenza - Avian,H5N1 HPAI,"wild, swan",,1,1,,,,,,
154160,National authorities,46.556666,15.636388,Europe,Slovenia,Podravska,Maribor,Exact,20/02/2006,20/02/2006,Confirmed,Influenza - Avian,H5N1 HPAI,"wild, swan",,1,1,,,,,,
154159,National authorities,46.556111,15.948888,Europe,Slovenia,Podravska,Lenart,Exact,20/02/2006,20/02/2006,Confirmed,Influenza - Avian,H5N1 HPAI,"wild, swan",,1,1,,,,,,
154158,National authorities,46.556111,15.948888,Europe,Slovenia,Podravska,Lenart,Exact,19/02/2006,19/02/2006,Confirmed,Influenza - Avian,H5N1 HPAI,"wild, swan",,2,2,,,,,,
154157,National authorities,46.556111,15.948888,Europe,Slovenia,Podravska,Lenart,Exact,19/02/2006,19/02/2006,Confirmed,Influenza - Avian,H5N1 HPAI,"wild, swan",,2,2,,,,,,
154156,National authorities,46.556111,15.948888,Europe,Slovenia,Podravska,Lenart,Exact,18/02/2006,18/02/2006,Confirmed,Influenza - Avian,H5N1 HPAI,"wild, swan",,1,1,,,,,,
154155,National authorities,46.556111,15.948888,Europe,Slovenia,Podravska,Lenart,Exact,13/02/2006,13/02/2006,Confirmed,Influenza - Avian,H5N1 HPAI,"wild, swan",,1,1,,,,,,
154154,National authorities,46.556111,15.653055,Europe,Slovenia,Podravska,Maribor,Exact,15/02/2006,15/02/2006,Confirmed,Influenza - Avian,H5N1 HPAI,"wild, swan",,3,3,,,,,,
154153,National authorities,46.555833,15.66,Europe,Slovenia,Podravska,Maribor,Exact,18/02/2006,18/02/2006,Confirmed,Influenza - Avian,H5N1 HPAI,"wild, swan",,1,1,,,,,,
154152,National authorities,46.555833,15.66,Europe,Slovenia,Podravska,Maribor,Exact,15/02/2006,15/02/2006,Confirmed,Influenza - Avian,H5N1 HPAI,"wild, swan",,1,1,,,,,,
154151,National authorities,46.553888,15.655555,Europe,Slovenia,Podravska,Maribor,Exact,09/02/2006,09/02/2006,Confirmed,Influenza - Avian,H5N1 HPAI,"wild, swan",,1,1,,,,,,
154150,National authorities,46.548888,15.711388,Europe,Slovenia,Podravska,Maribor,Exact,17/02/2006,17/02/2006,Confirmed,Influenza - Avian,H5N1 HPAI,"wild, swan",,1,1,,,,,,
154149,National authorities,46.526111,15.4575,Europe,Slovenia,Podravska,Ruse,Exact,19/02/2006,19/02/2006,Confirmed,Influenza - Avian,H5N1 HPAI,"wild, swan",,1,1,,,,,,
154148,National authorities,46.526111,15.4575,Europe,Slovenia,Podravska,Ruse,Exact,17/02/2006,17/02/2006,Confirmed,Influenza - Avian,H5N1 HPAI,"wild, swan",,1,1,,,,,,
154147,National authorities,46.501666,15.389722,Europe,Slovenia,Podravska,Ruse,Exact,15/02/2006,15/02/2006,Confirmed,Influenza - Avian,H5N1 HPAI,"wild, grey heron",,1,1,,,,,,
154146,National authorities,46.475,15.735277,Europe,Slovenia,Podravska,Maribor,Exact,27/02/2006,27/02/2006,Confirmed,Influenza - Avian,H5N1 HPAI,"wild, swan",,1,1,,,,,,
154145,National authorities,46.460277,15.355833,Europe,Slovenia,Podravska,Slovenska Bistrica,Exact,20/02/2006,20/02/2006,Confirmed,Influenza - Avian,H5N1 HPAI,"wild, swan",,1,1,,,,,,
154144,National authorities,46.460277,15.355833,Europe,Slovenia,Podravska,Slovenska Bistrica,Exact,19/02/2006,19/02/2006,Confirmed,Influenza - Avian,H5N1 HPAI,"wild, swan",,7,7,,,,,,
154143,National authorities,46.447777,15.786666,Europe,Slovenia,Podravska,Starse,Exact,20/02/2006,20/02/2006,Confirmed,Influenza - Avian,H5N1 HPAI,"wild, swan",,1,1,,,,,,
154142,National authorities,46.446944,15.785833,Europe,Slovenia,Podravska,Starse,Exact,24/02/2006,24/02/2006,Confirmed,Influenza - Avian,H5N1 HPAI,"wild, swan",,2,2,,,,,,
154141,National authorities,46.446944,15.785833,Europe,Slovenia,Podravska,Starse,Exact,23/02/2006,23/02/2006,Confirmed,Influenza - Avian,H5N1 HPAI,"wild, swan",,2,2,,,,,,
154140,National authorities,46.446944,15.785833,Europe,Slovenia,Podravska,Starse,Exact,20/02/2006,20/02/2006,Confirmed,Influenza - Avian,H5N1 HPAI,"wild, swan",,2,2,,,,,,
154139,National authorities,46.388333,15.898055,Europe,Slovenia,Podravska,Videm,Exact,23/02/2006,23/02/2006,Confirmed,Influenza - Avian,H5N1 HPAI,"wild, mallard",,1,1,,,,,,
154134,National authorities,30.75,31.083334,Africa,Egypt,Gharbia,Santa District,Centroid Admin2,,06/05/2010,Denied,Peste des petits ruminants,,"domestic, goat/sheep , domestic, goat",,30,100,,,,,,
154133,WHO,0.56727,101.473727,Asia,Indonesia,Riau,Kodya Pekanbaru,Centroid Admin2,19/04/2010,06/05/2010,Confirmed,Influenza - Avian,H5N1 HPAI,,,,,,,,,1,1
154132,WHO,-8.105556,112.688018,Asia,Indonesia,Jawa Timur,Malang,Centroid Admin2,22/02/2010,06/05/2010,Confirmed,Influenza - Avian,H5N1 HPAI,,,,,,,,,1,0
154131,National authorities,17.353222,42.801154,Asia,Saudi Arabia,Jizan,Jizan,Centroid Admin1,23/04/2010,01/05/2010,Confirmed,Rift Valley fever,,,,,,,,,,1,0
154128,OIE,31.4586,35.3888,Asia,Israel,Southern District,"Ein Gedi Kibbutz, Dead Sea District, Hadarom Province",Unknown,29/04/2010,06/05/2010,Confirmed,Influenza - Avian,H5N1 HPAI,"captive, emu, captive, peacock, domestic, quail, captive, cockatiel, domestic, chicken",47,2,2,45,,,,,
154126,National authorities,-4.12554,104.009654,Asia,Indonesia,Sumatera Selatan,PALEMBANG,Centroid Admin2,03/03/2010,03/03/2010,Confirmed,Influenza - Avian,H5N1 HPAI,"domestic, chicken",3285,,,,0,,,,
154125,National authorities,-7.324223,109.399681,Asia,Indonesia,Jawa Tengah,LARANGAN,Centroid Admin2,17/03/2010,17/03/2010,Confirmed,Influenza - Avian,H5N1 HPAI,"domestic, chicken",14400,,,,0,,,,
154124,National authorities,-1.60707,103.627332,Asia,Indonesia,Jambi,MINCANG,Centroid Locality,29/03/2010,29/03/2010,Confirmed,Influenza - Avian,H5N1 HPAI,"domestic, chicken",3000,,,,0,,,,
154123,National authorities,-4.780227,105.01276,Asia,Indonesia,Lampung,PURWOSARI,Centroid Locality,01/03/2010,01/03/2010,Confirmed,Influenza - Avian,H5N1 HPAI,"domestic, chicken",5129,,,,0,,,,
154122,National authorities,-4.913572,105.241862,Asia,Indonesia,Lampung,TEJOAGUNG,Centroid Locality,04/03/2010,04/03/2010,Confirmed,Influenza - Avian,H5N1 HPAI,"domestic, chicken",11000,,,,0,,,,
154121,National authorities,-5.659074,105.50463,Asia,Indonesia,Lampung,GEMOLONG,Centroid Locality,18/03/2010,18/03/2010,Confirmed,Influenza - Avian,H5N1 HPAI,"domestic, chicken",879,,,,0,,,,
154120,National authorities,-6.958259,108.51716,Asia,Indonesia,Jawa Barat,JOTANGAN,Centroid Locality,08/03/2010,08/03/2010,Confirmed,Influenza - Avian,H5N1 HPAI,"domestic, chicken",1721,,,,0,,,,
154119,National authorities,-7.550232,110.258186,Asia,Indonesia,Jawa Tengah,KELURAHAN PEMATANG SULUR,Centroid Locality,01/03/2010,01/03/2010,Confirmed,Influenza - Avian,H5N1 HPAI,"domestic, chicken",4651,,,,0,,,,
154118,National authorities,-7.037501,108.484633,Asia,Indonesia,Jawa Barat,DAWUNG,Centroid Locality,24/02/2010,24/02/2010,Confirmed,Influenza - Avian,H5N1 HPAI,"domestic, chicken",3147,,,,,,,,
154117,National authorities,-7.843807,110.636662,Asia,Indonesia,Daerah Istimewa Yogyakarta,KARANG ANYAR,Centroid Locality,09/03/2010,09/03/2010,Confirmed,Influenza - Avian,H5N1 HPAI,"domestic, chicken",13500,,,,0,,,,
154116,National authorities,-5.124082,105.316725,Asia,Indonesia,Lampung,SUNGAI DAENG,Centroid Locality,25/03/2010,25/03/2010,Confirmed,Influenza - Avian,H5N1 HPAI,"domestic, chicken",8500,,,,,,,,
154115,National authorities,-7.044234,108.555527,Asia,Indonesia,Jawa Barat,NGEMPLAK,Centroid Locality,05/03/2010,05/03/2010,Confirmed,Influenza - Avian,H5N1 HPAI,"domestic, chicken",4217,,,,0,,,,
154114,National authorities,-7.164832,110.632321,Asia,Indonesia,Jawa Tengah,KRAGILAN,Centroid Locality,02/03/2010,02/03/2010,Confirmed,Influenza - Avian,H5N1 HPAI,"domestic, chicken",3300,,,,10,,,,
154113,National authorities,-7.536522,110.7117,Asia,Indonesia,Jawa Tengah,KELURAHAN PENYENGAT RENDAH,Centroid Locality,08/03/2010,08/03/2010,Confirmed,Influenza - Avian,H5N1 HPAI,"domestic, chicken",4660,,,,,,,,
154112,National authorities,-7.639192,111.063052,Asia,Indonesia,Jawa Tengah,KARANG DUWET,Centroid Locality,22/03/2010,22/03/2010,Confirmed,Influenza - Avian,H5N1 HPAI,"domestic, chicken",4135,,,,10,,,,
154111,National authorities,-8.210382,111.076392,Asia,Indonesia,Jawa Timur,PARAGE,Centroid Locality,03/03/2010,03/03/2010,Confirmed,Influenza - Avian,H5N1 HPAI,"domestic, chicken",1600,,,,0,,,,
154110,National authorities,-0.532101,100.784703,Asia,Indonesia,Sumatera Barat,LUNTO BARAT,Centroid Locality,08/03/2010,08/03/2010,Confirmed,Influenza - Avian,H5N1 HPAI,"domestic, chicken",34785,,,,,,,,
154109,National authorities,-2.748854,108.04884,Asia,Indonesia,Bangka Belitung,KELAPA TUJUH,Centroid Locality,06/03/2010,06/03/2010,Confirmed,Influenza - Avian,H5N1 HPAI,"domestic, chicken",750,,,,55,,,,
154108,National authorities,-6.372238,106.145905,Asia,Indonesia,Banten,KABONGAN KIDUL,Centroid Locality,25/03/2010,25/03/2010,Confirmed,Influenza - Avian,H5N1 HPAI,"domestic, chicken",0,,,,0,,,,
154107,National authorities,-4.116233,104.184766,Asia,Indonesia,Sumatera Selatan,PADANG BINDU,Centroid Locality,17/03/2010,17/03/2010,Confirmed,Influenza - Avian,H5N1 HPAI,"domestic, chicken",1970,,,,0,,,,
154106,National authorities,-1.609305,103.636308,Asia,Indonesia,Jambi,KAMPUNG BARU,Centroid Locality,04/03/2010,04/03/2010,Confirmed,Influenza - Avian,H5N1 HPAI,"domestic, chicken",400,,,,2,,,,
154105,National authorities,-7.135863,108.690522,Asia,Indonesia,Jawa Barat,TLOGOREJO,Centroid Locality,03/03/2010,03/03/2010,Confirmed,Influenza - Avian,H5N1 HPAI,"domestic, chicken",657,,,,0,,,,
154104,National authorities,-2.247541,106.109048,Asia,Indonesia,Bangka Belitung,HANURA,Centroid Locality,05/03/2010,05/03/2010,Confirmed,Influenza - Avian,H5N1 HPAI,"domestic, chicken",1740,,,,0,,,,
154103,National authorities,-7.24928,108.185615,Asia,Indonesia,Jawa Barat,CIKONDANG,Centroid Locality,15/03/2010,15/03/2010,Confirmed,Influenza - Avian,H5N1 HPAI,"domestic, chicken",55740,,,,0,,,,
154102,National authorities,-5.084978,105.331875,Asia,Indonesia,Lampung,SELINDUNG LAMA,Centroid Locality,28/02/2010,28/02/2010,Confirmed,Influenza - Avian,H5N1 HPAI,"domestic, chicken",10000,,,,0,,,,
154101,National authorities,-6.64067,111.526191,Asia,Indonesia,Jawa Tengah,DOROKANDANG,Centroid Locality,12/03/2010,12/03/2010,Confirmed,Influenza - Avian,H5N1 HPAI,"domestic, chicken",0,,,,0,,,,
154100,National authorities,-4.116233,104.184766,Asia,Indonesia,Sumatera Selatan,AIR PAOH,Centroid Locality,12/03/2010,12/03/2010,Confirmed,Influenza - Avian,H5N1 HPAI,"domestic, chicken",1970,,,,0,,,,
154099,National authorities,-7.008191,108.456418,Asia,Indonesia,Jawa Barat,KARANGBANGUN,Centroid Locality,01/03/2010,01/03/2010,Confirmed,Influenza - Avian,H5N1 HPAI,"domestic, chicken",980,,,,0,,,,
154098,National authorities,-4.649969,105.192886,Asia,Indonesia,Lampung,KARANG TANJUNG,Centroid Locality,03/03/2010,03/03/2010,Confirmed,Influenza - Avian,H5N1 HPAI,"domestic, chicken",4085,,,,0,,,,
154097,National authorities,-6.852932,109.10839,Asia,Indonesia,Jawa Tengah,PUDAKPAYUNG,Centroid Locality,03/03/2010,03/03/2010,Confirmed,Influenza - Avian,H5N1 HPAI,"domestic, chicken",0,,,,,,,,
154096,National authorities,-8.04432,110.463694,Asia,Indonesia,Daerah Istimewa Yogyakarta,SUKAHARJA,Centroid Locality,12/03/2010,12/03/2010,Confirmed,Influenza - Avian,H5N1 HPAI,"domestic, chicken",33050,,,,0,,,,
154095,National authorities,-0.734816,100.789716,Asia,Indonesia,Sumatera Barat,BENAYAH,Centroid Locality,25/03/2010,25/03/2010,Confirmed,Influenza - Avian,H5N1 HPAI,"domestic, chicken",500,,,,,,,,
154094,National authorities,-1.798136,103.201723,Asia,Indonesia,Jambi,PEMATANG NEBAK,Centroid Locality,01/03/2010,01/03/2010,Confirmed,Influenza - Avian,H5N1 HPAI,"domestic, chicken",7500,,,,0,,,,
154093,National authorities,-7.198198,110.430872,Asia,Indonesia,Jawa Tengah,BANGAK,Centroid Locality,10/03/2010,10/03/2010,Confirmed,Influenza - Avian,H5N1 HPAI,"domestic, chicken",1850,,,,0,,,,
154092,National authorities,-7.234107,110.60495,Asia,Indonesia,Jawa Tengah,PUNGANGAN,Centroid Locality,15/03/2010,15/03/2010,Confirmed,Influenza - Avian,H5N1 HPAI,"domestic, chicken",3000,,,,0,,,,
154091,National authorities,-7.525052,110.70862,Asia,Indonesia,Jawa Tengah,KELURAHAN TUNGKAL II,Centroid Locality,11/03/2010,11/03/2010,Confirmed,Influenza - Avian,H5N1 HPAI,"domestic, chicken",16650,,,,,,,,
154090,National authorities,-8.000223,110.498512,Asia,Indonesia,Daerah Istimewa Yogyakarta,TINGGAR,Centroid Locality,26/03/2010,26/03/2010,Confirmed,Influenza - Avian,H5N1 HPAI,"domestic, chicken",8600,,,,0,,,,
154089,National authorities,-7.35935,111.111966,Asia,Indonesia,Jawa Tengah,SIMPANG AGUNG,Centroid Locality,15/03/2010,15/03/2010,Confirmed,Influenza - Avian,H5N1 HPAI,"domestic, chicken",8200,,,,0,,,,
154088,National authorities,-5.154299,105.197192,Asia,Indonesia,Lampung,TURIREJO,Centroid Locality,01/03/2010,01/03/2010,Confirmed,Influenza - Avian,H5N1 HPAI,"domestic, chicken",27839,,,,0,,,,
154087,National authorities,-5.352321,104.793826,Asia,Indonesia,Lampung,TAWANGANOM,Centroid Locality,27/03/2010,27/03/2010,Confirmed,Influenza - Avian,H5N1 HPAI,"domestic, chicken",5009,,,,0,,,,
154086,National authorities,-6.359008,108.326943,Asia,Indonesia,Jawa Barat,JURANGJERO,Centroid Locality,08/03/2010,08/03/2010,Confirmed,Influenza - Avian,H5N1 HPAI,"domestic, chicken",15000,,,,0,,,,
154085,National authorities,1.757717,101.289091,Asia,Indonesia,Riau,SEI. TARAB,Centroid Locality,16/03/2010,16/03/2010,Confirmed,Influenza - Avian,H5N1 HPAI,"domestic, chicken",20000,,,,0,,,,
154084,National authorities,-0.889086,101.325657,Asia,Indonesia,Sumatera Barat,TANJUNG PENYEBAL,Centroid Locality,06/03/2010,06/03/2010,Confirmed,Influenza - Avian,H5N1 HPAI,"domestic, chicken",750,,,,,,,,
154083,National authorities,-5.069782,105.296255,Asia,Indonesia,Lampung,GANJARASRI,Centroid Locality,25/03/2010,25/03/2010,Confirmed,Influenza - Avian,H5N1 HPAI,"domestic, chicken",2542,,,,0,,,,
154082,National authorities,-6.576131,108.416066,Asia,Indonesia,Jawa Barat,GEDONGMULYO,Centroid Locality,15/03/2010,15/03/2010,Confirmed,Influenza - Avian,H5N1 HPAI,"domestic, chicken",0,,,,0,,,,
154081,National authorities,-7.190796,110.401712,Asia,Indonesia,Jawa Tengah,BATAN,Centroid Locality,08/03/2010,08/03/2010,Confirmed,Influenza - Avian,H5N1 HPAI,"domestic, chicken",1735,,,,0,,,,
154080,National authorities,-7.439639,110.79127,Asia,Indonesia,Jawa Tengah,GEGESIKKIDUL,Centroid Locality,12/03/2010,12/03/2010,Confirmed,Influenza - Avian,H5N1 HPAI,"domestic, chicken",5054,,,,0,,,,
154079,National authorities,-5.417483,104.7255,Asia,Indonesia,Lampung,AIR PAOH,Centroid Locality,04/03/2010,04/03/2010,Confirmed,Influenza - Avian,H5N1 HPAI,"domestic, chicken",1873,,,,0,,,,
154078,National authorities,-4.889079,104.901629,Asia,Indonesia,Lampung,YOSOREJO,Centroid Locality,23/03/2010,23/03/2010,Confirmed,Influenza - Avian,H5N1 HPAI,"domestic, chicken",1492,,,,0,,,,
154077,National authorities,-7.100934,109.210702,Asia,Indonesia,Jawa Tengah,NGABENREJO,Centroid Locality,12/03/2010,12/03/2010,Confirmed,Influenza - Avian,H5N1 HPAI,"domestic, chicken",2475,,,,,,,,
154076,National authorities,-7.637655,111.318264,Asia,Indonesia,Jawa Timur,GIRISEKAR,Centroid Locality,17/03/2010,17/03/2010,Confirmed,Influenza - Avian,H5N1 HPAI,"domestic, chicken",10875,,,,,,,,
154075,National authorities,-5.402736,104.716069,Asia,Indonesia,Lampung,SAMBUNGMACAN,Centroid Locality,20/03/2010,20/03/2010,Confirmed,Influenza - Avian,H5N1 HPAI,"domestic, chicken",965,,,,0,,,,
154074,National authorities,-6.22759,106.647147,Asia,Indonesia,Banten,JLUMPANG,Centroid Locality,02/03/2010,02/03/2010,Confirmed,Influenza - Avian,H5N1 HPAI,"domestic, chicken",1996,,,,0,,,,
154073,National authorities,-7.246706,110.43176,Asia,Indonesia,Jawa Tengah,DAWAGUNG,Centroid Locality,04/03/2010,04/03/2010,Confirmed,Influenza - Avian,H5N1 HPAI,"domestic, chicken",3150,,,,0,,,,
154072,National authorities,-5.362285,104.738603,Asia,Indonesia,Lampung,JRAGAN,Centroid Locality,05/03/2010,05/03/2010,Confirmed,Influenza - Avian,H5N1 HPAI,"domestic, chicken",1788,,,,0,,,,
154071,National authorities,-7.188982,110.416775,Asia,Indonesia,Jawa Tengah,PULISEN,Centroid Locality,03/03/2010,03/03/2010,Confirmed,Influenza - Avian,H5N1 HPAI,"domestic, chicken",2350,,,,0,,,,
154070,National authorities,-7.607979,111.052301,Asia,Indonesia,Jawa Tengah,KELURAHAN JEMBATAN MAS,Centroid Locality,27/03/2010,27/03/2010,Confirmed,Influenza - Avian,H5N1 HPAI,"domestic, chicken",7450,,,,37,,,,
154069,National authorities,-2.330435,106.204615,Asia,Indonesia,Bangka Belitung,NEGERI SAKTI,Centroid Locality,03/03/2010,03/03/2010,Confirmed,Influenza - Avian,H5N1 HPAI,"domestic, chicken",1625,,,,0,,,,
154068,National authorities,-4.71298,104.57804,Asia,Indonesia,Lampung,SUKA NEGARA,Centroid Locality,28/02/2010,28/02/2010,Confirmed,Influenza - Avian,H5N1 HPAI,"domestic, chicken",30000,,,,0,,,,
154067,National authorities,-7.528111,110.626157,Asia,Indonesia,Jawa Tengah,KELURAHAN TUNGKAL HARAPAN,Centroid Locality,22/03/2010,22/03/2010,Confirmed,Influenza - Avian,H5N1 HPAI,"domestic, chicken",12525,,,,0,,,,
154066,National authorities,-7.681821,109.994978,Asia,Indonesia,Jawa Tengah,PILANG REJO,Centroid Locality,05/03/2010,05/03/2010,Confirmed,Influenza - Avian,H5N1 HPAI,"domestic, chicken",11200,,,,0,,,,
154065,National authorities,-5.527168,105.222169,Asia,Indonesia,Lampung,KRIKILAN,Centroid Locality,20/03/2010,20/03/2010,Confirmed,Influenza - Avian,H5N1 HPAI,"domestic, chicken",329,,,,0,,,,
154064,National authorities,-6.155553,106.646054,Asia,Indonesia,Banten,DIWAK,Centroid Locality,28/03/2010,28/03/2010,Confirmed,Influenza - Avian,H5N1 HPAI,"domestic, chicken",2587,,,,0,,,,
154063,National authorities,-7.053478,110.929736,Asia,Indonesia,Jawa Tengah,POPONGAN,Centroid Locality,16/03/2010,16/03/2010,Confirmed,Influenza - Avian,H5N1 HPAI,"domestic, chicken",9156,,,,0,,,,
154062,National authorities,-7.769463,110.599104,Asia,Indonesia,Jawa Tengah,ULAK AGUNG,Centroid Locality,24/02/2010,24/02/2010,Confirmed,Influenza - Avian,H5N1 HPAI,"domestic, chicken",9600,,,,0,,,,
154061,National authorities,-1.598486,103.652107,Asia,Indonesia,Jambi,SINGOSARI,Centroid Locality,02/03/2010,02/03/2010,Confirmed,Influenza - Avian,H5N1 HPAI,"domestic, chicken",900,,,,6,,,,
154060,National authorities,-5.068456,105.040174,Asia,Indonesia,Lampung,MARGOREJO,Centroid Locality,16/03/2010,16/03/2010,Confirmed,Influenza - Avian,H5N1 HPAI,"domestic, chicken",4273,,,,,,,,
154059,National authorities,-5.36405,105.254019,Asia,Indonesia,Lampung,SITAIL,Centroid Locality,05/03/2010,05/03/2010,Confirmed,Influenza - Avian,H5N1 HPAI,"domestic, chicken",5029,,,,3,,,,
154058,National authorities,-5.440816,104.934433,Asia,Indonesia,Lampung,TROBAYAN,Centroid Locality,03/03/2010,03/03/2010,Confirmed,Influenza - Avian,H5N1 HPAI,"domestic, chicken",3285,,,,0,,,,
154057,National authorities,-5.536796,105.53622,Asia,Indonesia,Lampung,KEDEN,Centroid Locality,03/03/2010,03/03/2010,Confirmed,Influenza - Avian,H5N1 HPAI,"domestic, chicken",7784,,,,0,,,,
154056,National authorities,-6.357567,108.062012,Asia,Indonesia,Jawa Barat,MANGGAR,Centroid Locality,04/03/2010,04/03/2010,Confirmed,Influenza - Avian,H5N1 HPAI,"domestic, chicken",4720,,,,0,,,,
154055,National authorities,-7.357154,110.484366,Asia,Indonesia,Jawa Tengah,PADAMULYA,Centroid Locality,01/03/2010,01/03/2010,Confirmed,Influenza - Avian,H5N1 HPAI,"domestic, chicken",10000,,,,74,,,,
154054,National authorities,-7.384136,110.802683,Asia,Indonesia,Jawa Tengah,JABRANTI,Centroid Locality,01/03/2010,01/03/2010,Confirmed,Influenza - Avian,H5N1 HPAI,"domestic, chicken",5625,,,,0,,,,
154053,National authorities,-2.147597,106.128375,Asia,Indonesia,Bangka Belitung,KOTA AGUNG,Centroid Locality,23/03/2010,23/03/2010,Confirmed,Influenza - Avian,H5N1 HPAI,"domestic, chicken",8000,,,,0,,,,
154052,National authorities,-6.763407,107.942821,Asia,Indonesia,Jawa Barat,GONDANGMANIS,Centroid Locality,02/03/2010,02/03/2010,Confirmed,Influenza - Avian,H5N1 HPAI,"domestic, chicken",0,,,,0,,,,
154051,National authorities,-6.854637,106.89977,Asia,Indonesia,Jawa Barat,KUMPULREJO,Centroid Locality,03/03/2010,03/03/2010,Confirmed,Influenza - Avian,H5N1 HPAI,"domestic, chicken",1500,,,,50,,,,
154050,National authorities,-7.898124,110.141778,Asia,Indonesia,Daerah Istimewa Yogyakarta,CIPARE,Centroid Locality,02/03/2010,02/03/2010,Confirmed,Influenza - Avian,H5N1 HPAI,"domestic, chicken",33975,,,,0,,,,
154049,National authorities,-1.674854,103.433019,Asia,Indonesia,Jambi,LANDBAW,Centroid Locality,15/03/2010,15/03/2010,Confirmed,Influenza - Avian,H5N1 HPAI,"domestic, chicken",5000,,,,0,,,,
154048,National authorities,-4.139257,104.018986,Asia,Indonesia,Sumatera Selatan,PAGAR,Centroid Locality,22/03/2010,22/03/2010,Confirmed,Influenza - Avian,H5N1 HPAI,"domestic, chicken",1257,,,,0,,,,
154047,National authorities,-6.14264,106.154348,Asia,Indonesia,Banten,PAGERSARI,Centroid Locality,08/03/2010,08/03/2010,Confirmed,Influenza - Avian,H5N1 HPAI,"domestic, chicken",3184,,,,0,,,,
154046,National authorities,-6.696321,111.43096,Asia,Indonesia,Jawa Tengah,NGADIROJO,Centroid Locality,23/03/2010,23/03/2010,Confirmed,Influenza - Avian,H5N1 HPAI,"domestic, chicken",4300,,,,0,,,,
154045,National authorities,-7.408753,111.010856,Asia,Indonesia,Jawa Tengah,RAMBATAN,Centroid Locality,03/03/2010,03/03/2010,Confirmed,Influenza - Avian,H5N1 HPAI,"domestic, chicken",3898,,,,0,,,,
154044,National authorities,-7.432285,110.237891,Asia,Indonesia,Jawa Tengah,KERTAWINANGUN,Centroid Locality,08/03/2010,08/03/2010,Confirmed,Influenza - Avian,H5N1 HPAI,"domestic, chicken",14761,,,,0,,,,
154043,National authorities,-7.43493,110.782313,Asia,Indonesia,Jawa Tengah,PEKANDANGAN,Centroid Locality,12/03/2010,12/03/2010,Confirmed,Influenza - Avian,H5N1 HPAI,"domestic, chicken",3953,,,,0,,,,
154042,National authorities,-7.600227,110.99384,Asia,Indonesia,Jawa Tengah,KELURAHAN KEBON HANDIL,Centroid Locality,12/03/2010,12/03/2010,Confirmed,Influenza - Avian,H5N1 HPAI,"domestic, chicken",2850,,,,0,,,,
154041,National authorities,-4.505679,103.14012,Asia,Indonesia,Bengkulu,LEMPUYANG BANDAR,Centroid Locality,12/03/2010,12/03/2010,Confirmed,Influenza - Avian,H5N1 HPAI,"domestic, chicken",288,,,,6,,,,
154040,National authorities,-5.070476,105.325353,Asia,Indonesia,Lampung,SEPANG JAYA,Centroid Locality,26/02/2010,26/02/2010,Confirmed,Influenza - Avian,H5N1 HPAI,"domestic, chicken",33000,,,,0,,,,
154039,National authorities,-5.108846,105.282516,Asia,Indonesia,Lampung,BASKARA BAKTI,Centroid Locality,11/03/2010,11/03/2010,Confirmed,Influenza - Avian,H5N1 HPAI,"domestic, chicken",14506,,,,0,,,,
154038,National authorities,-7.368562,109.504743,Asia,Indonesia,Jawa Tengah,PADAREK,Centroid Locality,01/03/2010,01/03/2010,Confirmed,Influenza - Avian,H5N1 HPAI,"domestic, chicken",24671,,,,0,,,,
154037,National authorities,0.888153,102.101032,Asia,Indonesia,Riau,TIGO JANGKO,Centroid Locality,17/03/2010,17/03/2010,Confirmed,Influenza - Avian,H5N1 HPAI,"domestic, chicken",983,,,,18,,,,
154036,National authorities,-0.410023,100.573006,Asia,Indonesia,Sumatera Barat,TALUAK,Centroid Locality,17/03/2010,17/03/2010,Confirmed,Influenza - Avian,H5N1 HPAI,"domestic, chicken",3000,,,,,,,,
154035,National authorities,-1.62815,103.657865,Asia,Indonesia,Jambi,SUKARAJA,Centroid Locality,09/03/2010,09/03/2010,Confirmed,Influenza - Avian,H5N1 HPAI,"domestic, chicken",5375,,,,,,,,
154034,National authorities,-5.096822,105.333272,Asia,Indonesia,Lampung,SENYUBUK,Centroid Locality,08/03/2010,08/03/2010,Confirmed,Influenza - Avian,H5N1 HPAI,"domestic, chicken",3500,,,,,,,,
154033,National authorities,-7.357154,110.484366,Asia,Indonesia,Jawa Tengah,GEDE PANGRANGO,Centroid Locality,09/03/2010,09/03/2010,Confirmed,Influenza - Avian,H5N1 HPAI,"domestic, chicken",75,,,,75,,,,
154032,National authorities,-0.490951,100.803919,Asia,Indonesia,Sumatera Barat,SUNGAI LANSEK,Centroid Locality,06/03/2010,06/03/2010,Confirmed,Influenza - Avian,H5N1 HPAI,"domestic, chicken",87938,,,,0,,,,
154031,National authorities,-4.517475,104.108696,Asia,Indonesia,Sumatera Selatan,KARANG ENDAH,Centroid Locality,10/03/2010,10/03/2010,Confirmed,Influenza - Avian,H5N1 HPAI,"domestic, chicken",2250,,,,0,,,,
154030,National authorities,-5.075495,105.385409,Asia,Indonesia,Lampung,KERAMAT,Centroid Locality,24/02/2010,24/02/2010,Confirmed,Influenza - Avian,H5N1 HPAI,"domestic, chicken",58680,,,,0,,,,
154029,National authorities,-6.659839,111.578451,Asia,Indonesia,Jawa Tengah,GINTUNGAN,Centroid Locality,05/03/2010,05/03/2010,Confirmed,Influenza - Avian,H5N1 HPAI,"domestic, chicken",1600,,,,0,,,,
154028,National authorities,-6.720649,106.862327,Asia,Indonesia,Jawa Barat,BOJONG,Centroid Locality,24/02/2010,24/02/2010,Confirmed,Influenza - Avian,H5N1 HPAI,"domestic, chicken",68827,,,,0,,,,
154027,National authorities,-6.998402,109.934527,Asia,Indonesia,Jawa Tengah,WONOYOSO,Centroid Locality,19/03/2010,19/03/2010,Confirmed,Influenza - Avian,H5N1 HPAI,"domestic, chicken",1520,,,,0,,,,
154026,National authorities,-7.085956,110.875978,Asia,Indonesia,Jawa Tengah,PULOREJO,Centroid Locality,05/03/2010,05/03/2010,Confirmed,Influenza - Avian,H5N1 HPAI,"domestic, chicken",7500,,,,0,,,,
154025,National authorities,-7.455348,110.844997,Asia,Indonesia,Jawa Tengah,CIMANDE,Centroid Locality,12/03/2010,12/03/2010,Confirmed,Influenza - Avian,H5N1 HPAI,"domestic, chicken",4891,,,,0,,,,
154024,National authorities,-7.805277,110.404091,Asia,Indonesia,Daerah Istimewa Yogyakarta,GUNUNG KAYA,Centroid Locality,28/02/2010,28/02/2010,Confirmed,Influenza - Avian,H5N1 HPAI,"domestic, chicken",2500,,,,0,,,,
154023,National authorities,-8.019669,110.538558,Asia,Indonesia,Daerah Istimewa Yogyakarta,RAWAARUM,Centroid Locality,01/03/2010,01/03/2010,Confirmed,Influenza - Avian,H5N1 HPAI,"domestic, chicken",17370,,,,0,,,,
154022,National authorities,-0.894861,103.500036,Asia,Indonesia,Jambi,BALI SADAR SELATAN,Centroid Locality,12/03/2010,12/03/2010,Confirmed,Influenza - Avian,H5N1 HPAI,"domestic, chicken",2387,,,,0,,,,
154021,National authorities,-2.035663,105.183215,Asia,Indonesia,Bangka Belitung,PUJODADI,Centroid Locality,26/03/2010,26/03/2010,Confirmed,Influenza - Avian,H5N1 HPAI,"domestic, chicken",8500,,,,,,,,
154020,National authorities,-4.896277,105.052987,Asia,Indonesia,Lampung,YOSODADI,Centroid Locality,08/03/2010,08/03/2010,Confirmed,Influenza - Avian,H5N1 HPAI,"domestic, chicken",690,,,,0,,,,
154019,National authorities,-6.185795,106.519795,Asia,Indonesia,Banten,BERGAS LOR,Centroid Locality,19/03/2010,19/03/2010,Confirmed,Influenza - Avian,H5N1 HPAI,"domestic, chicken",18725,,,,0,,,,
154018,National authorities,-6.210925,106.182083,Asia,Indonesia,Banten,BAWEN,Centroid Locality,18/03/2010,18/03/2010,Confirmed,Influenza - Avian,H5N1 HPAI,"domestic, chicken",10630,,,,0,,,,
154017,National authorities,-6.341096,108.05131,Asia,Indonesia,Jawa Barat,KEMADU,Centroid Locality,08/03/2010,08/03/2010,Confirmed,Influenza - Avian,H5N1 HPAI,"domestic, chicken",15000,,,,0,,,,
154016,National authorities,-6.653059,111.492058,Asia,Indonesia,Jawa Tengah,PANDANGAN KULON,Centroid Locality,19/03/2010,19/03/2010,Confirmed,Influenza - Avian,H5N1 HPAI,"domestic, chicken",0,,,,0,,,,
154015,National authorities,-6.828065,111.3855,Asia,Indonesia,Jawa Tengah,MUARAREJA,Centroid Locality,03/03/2010,03/03/2010,Confirmed,Influenza - Avian,H5N1 HPAI,"domestic, chicken",8249,,,,0,,,,
154014,National authorities,-7.066387,110.55391,Asia,Indonesia,Jawa Tengah,LALUNG,Centroid Locality,24/03/2010,24/03/2010,Confirmed,Influenza - Avian,H5N1 HPAI,"domestic, chicken",2250,,,,0,,,,
154013,National authorities,-7.341885,110.163864,Asia,Indonesia,Jawa Tengah,PADASARI,Centroid Locality,13/03/2010,13/03/2010,Confirmed,Influenza - Avian,H5N1 HPAI,"domestic, chicken",8000,,,,0,,,,
154012,National authorities,-7.396428,110.836793,Asia,Indonesia,Jawa Tengah,KADUGEDE,Centroid Locality,31/03/2010,31/03/2010,Confirmed,Influenza - Avian,H5N1 HPAI,"domestic, chicken",5283,,,,0,,,,
154011,National authorities,-7.429318,110.522108,Asia,Indonesia,Jawa Tengah,SOGE,Centroid Locality,03/03/2010,03/03/2010,Confirmed,Influenza - Avian,H5N1 HPAI,"domestic, chicken",1600,,,,0,,,,
154010,National authorities,-7.822786,112.679329,Asia,Indonesia,Jawa Timur,PANUNGGANGAN UTARA,Centroid Locality,17/03/2010,17/03/2010,Confirmed,Influenza - Avian,H5N1 HPAI,"domestic, chicken",8150,,,,0,,,,
154009,National authorities,-1.589831,103.599962,Asia,Indonesia,Jambi,CANDRA KENCANA,Centroid Locality,27/03/2010,27/03/2010,Confirmed,Influenza - Avian,H5N1 HPAI,"domestic, chicken",7000,,,,11,,,,
154008,National authorities,-4.768016,104.509798,Asia,Indonesia,Lampung,CINTA MULYA,Centroid Locality,03/03/2010,03/03/2010,Confirmed,Influenza - Avian,H5N1 HPAI,"domestic, chicken",10000,,,,0,,,,
154007,National authorities,-5.099207,105.053172,Asia,Indonesia,Lampung,TANJUNG GUNUNG,Centroid Locality,08/03/2010,08/03/2010,Confirmed,Influenza - Avian,H5N1 HPAI,"domestic, chicken",15075,,,,0,,,,
154006,National authorities,-7.534542,110.593675,Asia,Indonesia,Jawa Tengah,KELURAHAN SUNGAI PUTRI,Centroid Locality,09/03/2010,09/03/2010,Confirmed,Influenza - Avian,H5N1 HPAI,"domestic, chicken",1166,,,,0,,,,
154005,National authorities,-7.630149,109.492358,Asia,Indonesia,Jawa Tengah,NGESTIHARJO,Centroid Locality,03/03/2010,03/03/2010,Confirmed,Influenza - Avian,H5N1 HPAI,"domestic, chicken",7088,,,,6,,,,
154004,National authorities,-4.448618,104.210342,Asia,Indonesia,Sumatera Selatan,SIDOMUKTI,Centroid Locality,13/03/2010,13/03/2010,Confirmed,Influenza - Avian,H5N1 HPAI,"domestic, chicken",5850,,,,0,,,,
154003,National authorities,-5.137414,105.294185,Asia,Indonesia,Lampung,SIDOHARJO,Centroid Locality,01/03/2010,01/03/2010,Confirmed,Influenza - Avian,H5N1 HPAI,"domestic, chicken",9075,,,,0,,,,
154002,National authorities,-5.375772,105.170958,Asia,Indonesia,Lampung,KARANG TENGAH,Centroid Locality,08/03/2010,08/03/2010,Confirmed,Influenza - Avian,H5N1 HPAI,"domestic, chicken",88900,,,,0,,,,
154001,National authorities,-5.983031,106.00507,Asia,Indonesia,Banten,TEGALREJO,Centroid Locality,04/03/2010,04/03/2010,Confirmed,Influenza - Avian,H5N1 HPAI,"domestic, chicken",5800,,,,0,,,,
154000,National authorities,-6.719309,111.362067,Asia,Indonesia,Jawa Tengah,TREKO,Centroid Locality,26/03/2010,26/03/2010,Confirmed,Influenza - Avian,H5N1 HPAI,"domestic, chicken",2200,,,,0,,,,
153999,National authorities,-6.777202,110.87506,Asia,Indonesia,Jawa Tengah,RANDUNGUNTING,Centroid Locality,10/03/2010,10/03/2010,Confirmed,Influenza - Avian,H5N1 HPAI,"domestic, chicken",7895,,,,0,,,,
153998,National authorities,-6.884882,109.127173,Asia,Indonesia,Jawa Tengah,KUMPULREJO,Centroid Locality,01/03/2010,01/03/2010,Confirmed,Influenza - Avian,H5N1 HPAI,"domestic, chicken",1421,,,,0,,,,
153997,National authorities,-7.097418,110.402134,Asia,Indonesia,Jawa Tengah,KEDUNGJATI,Centroid Locality,19/03/2010,19/03/2010,Confirmed,Influenza - Avian,H5N1 HPAI,"domestic, chicken",4500,,,,0,,,,
153996,National authorities,-7.761475,110.654897,Asia,Indonesia,Jawa Tengah,BANGUNTAPAN,Centroid Locality,27/03/2010,27/03/2010,Confirmed,Influenza - Avian,H5N1 HPAI,"domestic, chicken",4500,,,,,,,,
153995,National authorities,-0.890799,103.558231,Asia,Indonesia,Jambi,SETIA NEGARA,Centroid Locality,19/03/2010,19/03/2010,Confirmed,Influenza - Avian,H5N1 HPAI,"domestic, chicken",3700,,,,0,,,,
153994,National authorities,-7.572337,110.26344,Asia,Indonesia,Jawa Tengah,KELURAHAN BERINGIN,Centroid Locality,04/03/2010,04/03/2010,Confirmed,Influenza - Avian,H5N1 HPAI,"domestic, chicken",28700,,,,0,,,,
153993,National authorities,-7.637917,111.03493,Asia,Indonesia,Jawa Tengah,MULUSAN,Centroid Locality,29/03/2010,29/03/2010,Confirmed,Influenza - Avian,H5N1 HPAI,"domestic, chicken",5201,,,,21,,,,
153992,National authorities,-4.49341,103.104419,Asia,Indonesia,Bengkulu,SIDODADI,Centroid Locality,05/03/2010,05/03/2010,Confirmed,Influenza - Avian,H5N1 HPAI,"domestic, chicken",525,,,,94,,,,
153991,National authorities,-4.83252,105.133435,Asia,Indonesia,Lampung,KARANGREJO,Centroid Locality,08/03/2010,08/03/2010,Confirmed,Influenza - Avian,H5N1 HPAI,"domestic, chicken",35000,,,,0,,,,
153990,National authorities,-5.402736,104.751872,Asia,Indonesia,Lampung,JERUK,Centroid Locality,04/03/2010,04/03/2010,Confirmed,Influenza - Avian,H5N1 HPAI,"domestic, chicken",324,,,,0,,,,
153989,National authorities,-6.909649,107.955484,Asia,Indonesia,Jawa Barat,TANJUNGAN,Centroid Locality,20/03/2010,20/03/2010,Confirmed,Influenza - Avian,H5N1 HPAI,"domestic, chicken",2879,,,,0,,,,
153988,National authorities,-7.609278,110.949236,Asia,Indonesia,Jawa Tengah,KELURAHAN SRI DADI,Centroid Locality,05/03/2010,05/03/2010,Confirmed,Influenza - Avian,H5N1 HPAI,"domestic, chicken",9600,,,,24,,,,
153986,National authorities,-32.63219,22.226341,Africa,South Africa,Western Cape,Western Cape,Centroid Admin1,19/03/2010,19/03/2010,Confirmed,Rift Valley fever,,,,,,,,,,3,1
153985,OIE,45.25,114.0,Asia,Mongolia,Su'xbaatar,Ganga Lake,Centroid Locality,03/05/2010,06/05/2010,Confirmed,Influenza - Avian,H5N1 HPAI,"wild, swan, wild, goose, wild, unspecified bird",,26,26,,,,,,
153984,FAO Field Officer,14.453371,100.335146,Asia,Thailand,Phra Nakhon Si Ayudhya,Phak Hai,Centroid Admin2,,02/05/2010,Denied,Influenza - Avian,H5N1 HPAI,"wild, stork",,,1000,,,,,,
153983,National authorities,31.317,30.75,Africa,Egypt,Kafr El-Shikh,Abd Eldayem,Centroid Locality,25/04/2010,26/04/2010,Confirmed,Influenza - Avian,H5N1 HPAI,"domestic, duck",,15,,15,,,,,
153982,National authorities,30.126,32.482,Africa,Egypt,Suez,Elraed,Centroid Admin2,22/04/2010,23/04/2010,Confirmed,Influenza - Avian,H5N1 HPAI,"domestic, chicken",,64,,64,,,,,
153981,National authorities,30.445,31.001,Africa,Egypt,Menoufia,Shubrazengi,Centroid Locality,21/04/2010,22/04/2010,Confirmed,Influenza - Avian,H5N1 HPAI,"domestic, chicken, domestic, duck, domestic, unspecified bird",,45,,45,,,,,
153980,National authorities,29.442,30.832,Africa,Egypt,Fayoum,Ezbet Elbassir,Centroid Admin2,20/04/2010,21/04/2010,Confirmed,Influenza - Avian,H5N1 HPAI,"domestic, chicken, domestic, duck, domestic, unspecified bird",,95,,95,,,,,
153979,National authorities,29.339,31.09,Africa,Egypt,Beni Suef,Neam,Centroid Admin2,20/04/2010,21/04/2010,Confirmed,Influenza - Avian,H5N1 HPAI,"domestic, chicken, domestic, duck, domestic, unspecified bird",,130,,130,,,,,
153978,National authorities,31.168,30.913,Africa,Egypt,Kafr El-Shikh,Kafr Elmanshy,Centroid Locality,20/04/2010,21/04/2010,Confirmed,Influenza - Avian,H5N1 HPAI,"domestic, duck",,15,,15,,,,,
153977,National authorities,30.462,31.168,Africa,Egypt,Kalyoubia,Kafr Bata Village,Centroid Locality,18/04/2010,20/04/2010,Confirmed,Influenza - Avian,H5N1 HPAI,"domestic, chicken",,5000,,5000,,,,,
153976,National authorities,37.471623,105.431476,Asia,China,Ningxia Huizu Zizhiqu,zhongwei,Centroid Admin3,23/04/2010,29/04/2010,Confirmed,Foot and mouth disease,O,"domestic, swine",,152,1,777,,,,,
153975,National authorities,37.883064,77.408692,Asia,China,Xinjiang Uygur Zizhiqu,Yecheng,Centroid Admin3,20/04/2010,26/04/2010,Confirmed,Foot and mouth disease,O,"domestic, swine",,771,15,9084,,,,,
153974,OIE,11.52,105.33,Asia,Cambodia,Prey Veng,"Peam Sdey Village, Prek Chrey Sub-District",Unknown,22/04/2010,01/05/2010,Confirmed,Influenza - Avian,H5N1 HPAI,"domestic, unspecified bird, domestic, chicken, domestic, duck",1167,954,903,264,,,,,
153973,OIE,37.679167,126.476389,Asia,Republic of Korea,Kyonggi-do,"Buleun-Myeon, Ganghwa-Gun District",Centroid Admin3,21/04/2010,22/04/2010,Confirmed,Foot and mouth disease,O,"domestic, cattle, domestic, goat",25,2,0,25,0,,,,
153972,OIE,37.724445,126.557223,Asia,Republic of Korea,Kyonggi-do,"Wolgot-Myeon, Glimpo City District",Centroid Admin3,19/04/2010,22/04/2010,Confirmed,Foot and mouth disease,O,"domestic, cattle",120,1,0,120,0,,,,
153968,OIE,32.26,131.56,Asia,Japan,Miyazaki,Tsuno-cho Koyu-gun,Unknown,31/03/2010,23/04/2010,Confirmed,Foot and mouth disease,O,"domestic, buffaloes, domestic, swine",44,1,0,44,0,,,,
153967,OIE,32.2,131.53,Asia,Japan,Miyazaki,Kawaminami-cho Koyu-gun 2,Unknown,18/04/2010,23/04/2010,Confirmed,Foot and mouth disease,O,"domestic, cattle",65,6,0,65,0,,,,
153966,OIE,32.2,131.53,Asia,Japan,Miyazaki,Kawaminami-cho Koyu-gun,Unknown,21/04/2010,23/04/2010,Confirmed,Foot and mouth disease,O,"domestic, cattle",65,2,0,65,0,,,,
153965,OIE,32.2,131.53,Asia,Japan,Miyazaki,Kawaminami-cho Koyu-gun 1,Unknown,18/04/2010,23/04/2010,Confirmed,Foot and mouth disease,O,"domestic, cattle",118,3,0,118,0,,,,
153964,OIE,32.2,131.53,Asia,Japan,Miyazaki,Kawaminami-cho Koyu-gun,Unknown,22/04/2010,23/04/2010,Confirmed,Foot and mouth disease,O,"domestic, cattle",75,1,0,75,0,,,,
153963,OIE,36.594442,127.432574,Asia,Republic of Korea,Chungchongbuk-do,Sinri-myeon,Unknown,21/04/2010,22/04/2010,Confirmed,Foot and mouth disease,O,"domestic, swine",1000,2,0,1000,0,,,,
153961,OIE,-15.65,-47.8338,Americas,Brazil,Distrito Federal,Sobradinho,Unknown,22/12/2009,20/04/2010,Confirmed,Glanders,,"domestic, horse",1,1,0,0,0,,,,
153959,OIE,-29.974388,24.622473,Africa,South Africa,Northern Cape,Kleinplaas,Unknown,15/03/2010,20/04/2010,Confirmed,Rift Valley fever,,"domestic, sheep",301,5,5,0,0,,,,
153958,OIE,-26.5,25.75,Africa,South Africa,North West,Taaibospan,Unknown,31/03/2010,20/04/2010,Confirmed,Rift Valley fever,,"domestic, sheep",1,1,1,0,0,,,,
153957,OIE,-26.45,24.566667,Africa,South Africa,North West,Langerust - Oxendale,Unknown,30/03/2010,20/04/2010,Confirmed,Rift Valley fever,,"domestic, cattle",22,2,2,0,0,,,,
153956,OIE,-30.460972,22.139389,Africa,South Africa,Northern Cape,Melkdam,Unknown,17/03/2010,20/04/2010,Confirmed,Rift Valley fever,,"domestic, sheep",162,3,3,3,0,,,,
153955,OIE,-29.05,24.593611,Africa,South Africa,Northern Cape,Drie Plotte,Unknown,29/03/2010,20/04/2010,Confirmed,Rift Valley fever,,"domestic, sheep",,6,3,0,0,,,,
153954,OIE,-26.95325,27.773,Africa,South Africa,Free State,Mooidam,Unknown,01/03/2010,20/04/2010,Confirmed,Rift Valley fever,,"domestic, cattle, domestic, sheep",67,1,1,0,0,,,,
153953,OIE,-28.985833,25.269167,Africa,South Africa,Free State,Damfontein,Unknown,12/03/2010,20/04/2010,Confirmed,Rift Valley fever,,"domestic, sheep, domestic, cattle",750,125,105,0,0,,,,
153952,OIE,-29.758055,25.871944,Africa,South Africa,Free State,Palmietfontein,Unknown,05/03/2010,20/04/2010,Confirmed,Rift Valley fever,,"domestic, sheep, domestic, cattle",1520,74,74,0,0,,,,
153951,OIE,-29.511667,25.2925,Africa,South Africa,Free State,Kalbasdrif,Unknown,29/03/2010,20/04/2010,Confirmed,Rift Valley fever,,"domestic, sheep",81,4,4,0,0,,,,
153950,OIE,-33.63778,22.21472,Africa,South Africa,Western Cape,Bakenskraal,Unknown,06/04/2010,20/04/2010,Confirmed,Rift Valley fever,,"domestic, cattle",300,1,1,0,0,,,,
153949,OIE,-29.076817,26.151367,Africa,South Africa,Free State,Bains Game Lodge,Unknown,12/04/2010,20/04/2010,Confirmed,Rift Valley fever,,"domestic, camelidae",,2,2,0,0,,,,
153948,OIE,-29.8354,24.381167,Africa,South Africa,Northern Cape,Orania Plot 29,Unknown,30/03/2010,20/04/2010,Confirmed,Rift Valley fever,,"domestic, sheep",5,5,5,0,0,,,,
153947,OIE,-29.674694,23.296083,Africa,South Africa,Northern Cape,Herbou,Unknown,24/03/2010,20/04/2010,Confirmed,Rift Valley fever,,"domestic, sheep",1184,41,40,0,0,,,,
153946,OIE,-30.971,21.9815,Africa,South Africa,Northern Cape,Klerefontein,Unknown,15/03/2010,20/04/2010,Confirmed,Rift Valley fever,,"domestic, goat",1268,12,12,11,0,,,,
153945,OIE,-30.476083,21.576694,Africa,South Africa,Northern Cape,Kleinbooi,Unknown,16/03/2010,20/04/2010,Confirmed,Rift Valley fever,,"domestic, sheep",,60,60,60,0,,,,
153944,OIE,-27.863333,27.658888,Africa,South Africa,Free State,Teboho Trust,Unknown,15/03/2010,20/04/2010,Confirmed,Rift Valley fever,,"domestic, sheep",100,1,1,0,0,,,,
153943,OIE,-27.888222,27.089028,Africa,South Africa,Free State,Vrede,Unknown,09/03/2010,20/04/2010,Confirmed,Rift Valley fever,,"domestic, sheep",1900,8,8,0,0,,,,
153942,OIE,-27.42666,25.990278,Africa,South Africa,North West,Rooihoogte,Unknown,16/03/2010,20/04/2010,Confirmed,Rift Valley fever,,"wild, unspecified mammal, wild, antelope",57,1,1,0,0,,,,
153941,OIE,-28.930555,25.52,Africa,South Africa,Free State,Homerule,Unknown,11/03/2010,20/04/2010,Confirmed,Rift Valley fever,,"domestic, sheep, domestic, cattle",280,115,25,0,0,,,,
153940,OIE,-28.938167,22.046957,Africa,South Africa,Northern Cape,Bakenkop,Unknown,13/04/2010,20/04/2010,Confirmed,Rift Valley fever,,"domestic, goat/sheep ",400,20,0,0,0,,,,
153939,OIE,-26.960833,28.71222,Africa,South Africa,Mpumalanga,Wolwefontein,Unknown,23/03/2010,20/04/2010,Confirmed,Rift Valley fever,,"domestic, sheep",680,1,1,0,0,,,,
153938,OIE,-28.225861,28.041306,Africa,South Africa,Free State,Goeie Hoop,Unknown,28/03/2010,20/04/2010,Confirmed,Rift Valley fever,,"domestic, sheep",270,3,3,0,0,,,,
153937,OIE,-30.737389,22.103083,Africa,South Africa,Northern Cape,Luckhoff,Unknown,15/03/2010,20/04/2010,Confirmed,Rift Valley fever,,"domestic, sheep",550,332,230,230,0,,,,
153936,OIE,-30.084194,22.310972,Africa,South Africa,Northern Cape,Mierdam,Unknown,17/03/2010,20/04/2010,Confirmed,Rift Valley fever,,"domestic, sheep",801,13,7,7,0,,,,
153935,OIE,-28.208333,24.483333,Africa,South Africa,Northern Cape,Doornkloof portion 2,Unknown,05/04/2010,20/04/2010,Confirmed,Rift Valley fever,,"domestic, cattle",230,2,0,0,0,,,,
153934,OIE,-29.265389,24.470861,Africa,South Africa,Northern Cape,Fergus West,Unknown,29/03/2010,20/04/2010,Confirmed,Rift Valley fever,,"domestic, cattle, domestic, sheep, domestic, goat",289,1,1,0,0,,,,
153933,OIE,-29.344222,24.408194,Africa,South Africa,Northern Cape,Graspan,Unknown,30/03/2010,20/04/2010,Confirmed,Rift Valley fever,,"domestic, sheep",800,1,1,0,0,,,,
153932,OIE,-29.123056,25.219722,Africa,South Africa,Free State,Mooigenoeg,Unknown,15/03/2010,20/04/2010,Confirmed,Rift Valley fever,,"domestic, cattle, domestic, goat/sheep ",320,7,5,0,0,,,,
153931,OIE,-27.171944,28.6,Africa,South Africa,Free State,Middenwater,Unknown,18/03/2010,20/04/2010,Confirmed,Rift Valley fever,,"domestic, cattle, domestic, sheep",680,6,6,0,0,,,,
153930,OIE,-30.060833,24.881944,Africa,South Africa,Free State,Bankfontein,Unknown,21/03/2010,20/04/2010,Confirmed,Rift Valley fever,,"domestic, cattle, domestic, sheep",2050,1,1,0,0,,,,
153929,OIE,-33.839056,22.033856,Africa,South Africa,Western Cape,Sonop,Unknown,11/04/2010,20/04/2010,Confirmed,Rift Valley fever,,"domestic, sheep",478,2,2,0,0,,,,
153928,OIE,-31.164888,21.931778,Africa,South Africa,Northern Cape,Stofkraalspoort,Unknown,24/03/2010,20/04/2010,Confirmed,Rift Valley fever,,"domestic, sheep",,1,1,0,0,,,,
153927,OIE,-30.019694,24.439806,Africa,South Africa,Northern Cape,Onrusfontein,Unknown,31/03/2010,20/04/2010,Confirmed,Rift Valley fever,,"domestic, sheep",,1,1,0,0,,,,
153926,OIE,-28.173917,28.227611,Africa,South Africa,Free State,Wattle Grove,Unknown,02/03/2010,20/04/2010,Confirmed,Rift Valley fever,,"domestic, cattle",30,1,1,0,0,,,,
153925,OIE,-30.537194,21.650972,Africa,South Africa,Northern Cape,Papparaas,Unknown,17/03/2010,20/04/2010,Confirmed,Rift Valley fever,,"domestic, cattle",15,1,1,1,0,,,,
153924,OIE,-31.075,25.323889,Africa,South Africa,Northern Cape,Fonteintjie,Unknown,23/03/2010,20/04/2010,Confirmed,Rift Valley fever,,"domestic, sheep",1700,,120,0,0,,,,
153923,OIE,-31.126667,21.364056,Africa,South Africa,Northern Cape,Blaauwsyfer,Unknown,22/03/2010,20/04/2010,Confirmed,Rift Valley fever,,"domestic, sheep",500,40,30,10,0,,,,
153922,OIE,-27.743055,27.2275,Africa,South Africa,Free State,Boskoppie,Unknown,15/02/2010,20/04/2010,Confirmed,Rift Valley fever,,"domestic, cattle",,1,1,0,0,,,,
153921,OIE,-29.120277,25.24,Africa,South Africa,Free State,Biesieput,Unknown,15/03/2010,20/04/2010,Confirmed,Rift Valley fever,,"domestic, cattle, domestic, sheep",203,13,7,0,0,,,,
153920,OIE,-29.050556,25.530833,Africa,South Africa,Free State,Goedehoop,Unknown,10/03/2010,20/04/2010,Confirmed,Rift Valley fever,,"domestic, cattle, domestic, sheep",375,6,6,0,0,,,,
153919,OIE,-29.291575,24.608936,Africa,South Africa,Free State,Equusbult,Unknown,15/03/2010,20/04/2010,Confirmed,Rift Valley fever,,"domestic, cattle, domestic, sheep",1996,56,23,0,0,,,,
153918,OIE,-26.75,25.5,Africa,South Africa,North West,Marotse Village,Unknown,08/04/2010,20/04/2010,Confirmed,Rift Valley fever,,"domestic, sheep",100,2,2,1,0,,,,
153917,OIE,-30.238722,23.611222,Africa,South Africa,Northern Cape,Uitkyk,Unknown,06/04/2010,20/04/2010,Confirmed,Rift Valley fever,,"domestic, sheep",,1,1,0,0,,,,
153916,OIE,-28.0125,28.766111,Africa,South Africa,Free State,Aurora,Unknown,26/02/2010,20/04/2010,Confirmed,Rift Valley fever,,"domestic, sheep, domestic, cattle",330,5,2,0,0,,,,
153915,OIE,-26.510167,26.915667,Africa,South Africa,North West,Graslaagte,Unknown,20/03/2010,20/04/2010,Confirmed,Rift Valley fever,,"domestic, cattle",8,1,1,,0,,,,
153914,OIE,-29.651222,22.610306,Africa,South Africa,Northern Cape,Glen Allen,Unknown,15/03/2010,20/04/2010,Confirmed,Rift Valley fever,,"domestic, sheep",1070,40,20,27,0,,,,
153913,OIE,-28.931389,25.680555,Africa,South Africa,Free State,Lovedale,Unknown,11/03/2010,20/04/2010,Confirmed,Rift Valley fever,,"domestic, cattle",300,2,2,0,0,,,,
153912,OIE,-29.146389,25.385556,Africa,South Africa,Free State,Hoekpan,Unknown,15/03/2010,20/04/2010,Confirmed,Rift Valley fever,,"domestic, sheep, domestic, cattle, domestic, goat",129,8,3,0,0,,,,
153911,OIE,-29.373131,24.580119,Africa,South Africa,Free State,Welgelegen,Unknown,06/03/2010,20/04/2010,Confirmed,Rift Valley fever,,"domestic, sheep",800,152,64,0,0,,,,
153910,OIE,-29.386731,25.128617,Africa,South Africa,Free State,Gruisdam,Unknown,15/03/2010,20/04/2010,Confirmed,Rift Valley fever,,"domestic, cattle, domestic, sheep",654,14,14,0,0,,,,
153909,OIE,-31.414278,22.023278,Africa,South Africa,Northern Cape,Gansvlei,Unknown,17/03/2010,20/04/2010,Confirmed,Rift Valley fever,,"domestic, sheep",554,78,78,0,0,,,,
153908,OIE,-26.3075,29.842222,Africa,South Africa,Mpumalanga,Elim,Unknown,01/04/2010,20/04/2010,Confirmed,Rift Valley fever,,"domestic, sheep",425,3,1,0,0,,,,
153907,OIE,-30.141194,21.704778,Africa,South Africa,Northern Cape,De Nauwte,Unknown,17/03/2010,20/04/2010,Confirmed,Rift Valley fever,,"domestic, sheep",1250,36,36,36,0,,,,
153906,OIE,-28.516667,24.516667,Africa,South Africa,Northern Cape,Groener Vlei,Unknown,30/03/2010,20/04/2010,Confirmed,Rift Valley fever,,"domestic, sheep",600,,2,2,0,,,,
153905,OIE,-29.59458,23.10206,Africa,South Africa,Northern Cape,Taaibos,Unknown,25/03/2010,20/04/2010,Confirmed,Rift Valley fever,,"domestic, sheep",729,27,17,0,0,,,,
153904,OIE,-31.499806,22.376333,Africa,South Africa,Northern Cape,Poortjie,Unknown,24/03/2010,20/04/2010,Confirmed,Rift Valley fever,,"domestic, sheep",520,1,1,0,0,,,,
153903,OIE,-28.95,23.866667,Africa,South Africa,Northern Cape,Fonteintjie,Unknown,27/03/2010,20/04/2010,Confirmed,Rift Valley fever,,"domestic, cattle",360,1,1,0,0,,,,
153902,OIE,-29.06333,25.723055,Africa,South Africa,Free State,The Chase,Unknown,10/03/2010,20/04/2010,Confirmed,Rift Valley fever,,"domestic, sheep, domestic, cattle",136,5,3,0,0,,,,
153901,OIE,-29.583051,25.813333,Africa,South Africa,Free State,Schoongesicht,Unknown,03/03/2010,20/04/2010,Confirmed,Rift Valley fever,,"domestic, sheep",2000,71,23,0,0,,,,
153900,OIE,-29.233333,25.724444,Africa,South Africa,Free State,Palmietfontein,Unknown,31/03/2010,20/04/2010,Confirmed,Rift Valley fever,,"domestic, cattle, domestic, sheep",278,16,16,0,0,,,,
153899,OIE,-27.265833,28.8425,Africa,South Africa,Free State,Blydskap,Unknown,26/03/2010,20/04/2010,Confirmed,Rift Valley fever,,"domestic, cattle, domestic, goat, domestic, sheep",1120,2,2,0,0,,,,
153898,OIE,-29.100053,24.608167,Africa,South Africa,Northern Cape,Steenbokkamp,Unknown,06/04/2010,20/04/2010,Confirmed,Rift Valley fever,,"domestic, cattle",84,1,1,0,0,,,,
153897,OIE,-29.11,24.5975,Africa,South Africa,Northern Cape,Rietrivier,Unknown,01/04/2010,20/04/2010,Confirmed,Rift Valley fever,,"domestic, sheep",110,7,6,0,0,,,,
153896,OIE,-29.222083,23.570111,Africa,South Africa,Northern Cape,Plum,Unknown,05/03/2010,20/04/2010,Confirmed,Rift Valley fever,,"domestic, sheep",600,6,4,0,0,,,,
153895,OIE,-29.660111,22.79225,Africa,South Africa,Northern Cape,Tasmania,Unknown,06/04/2010,20/04/2010,Confirmed,Rift Valley fever,,"domestic, cattle",5,1,1,1,0,,,,
153894,OIE,-27.8434,25.091683,Africa,South Africa,North West,Schoonheid,Unknown,11/03/2010,20/04/2010,Confirmed,Rift Valley fever,,"domestic, cattle, domestic, sheep",100,4,1,0,0,,,,
153893,OIE,-30.421778,21.298583,Africa,South Africa,Northern Cape,Leeukolk,Unknown,17/03/2010,20/04/2010,Confirmed,Rift Valley fever,,"domestic, sheep",600,1,1,0,0,,,,
153892,OIE,-32.095833,20.661667,Africa,South Africa,Northern Cape,Basterkraal,Unknown,19/03/2010,20/04/2010,Confirmed,Rift Valley fever,,"domestic, sheep",50,6,5,5,0,,,,
153891,OIE,-29.956,24.56272,Africa,South Africa,Northern Cape,Kloofsig,Unknown,23/03/2010,20/04/2010,Confirmed,Rift Valley fever,,"domestic, cattle, domestic, sheep",1082,68,59,0,0,,,,
153890,OIE,-28.577444,24.02775,Africa,South Africa,Northern Cape,Poloko Farm,Unknown,27/03/2010,20/04/2010,Confirmed,Rift Valley fever,,"domestic, cattle",,1,1,0,0,,,,
153889,OIE,-30.23122,22.324306,Africa,South Africa,Northern Cape,Groot Markt,Unknown,23/03/2010,20/04/2010,Confirmed,Rift Valley fever,,"domestic, sheep",2000,80,80,0,0,,,,
153888,OIE,-29.082778,25.229722,Africa,South Africa,Free State,Raadzel,Unknown,12/03/2010,20/04/2010,Confirmed,Rift Valley fever,,"domestic, cattle, domestic, goat/sheep ",550,14,6,1,0,,,,
153887,OIE,-29.116111,25.386388,Africa,South Africa,Free State,Preithos,Unknown,04/03/2010,20/04/2010,Confirmed,Rift Valley fever,,"domestic, cattle",140,5,5,0,0,,,,
153886,OIE,-30.038694,24.155,Africa,South Africa,Northern Cape,Paauwpan,Unknown,17/03/2010,20/04/2010,Confirmed,Rift Valley fever,,"domestic, sheep",3000,,20,0,0,,,,
153885,OIE,-31.51666,26.23333,Africa,South Africa,Eastern Cape,Romansfontein,Unknown,01/03/2010,20/04/2010,Confirmed,Rift Valley fever,,"domestic, sheep, domestic, cattle",2300,0,35,0,0,,,,
153884,OIE,-28.813028,24.525417,Africa,South Africa,Northern Cape,Liefdedal,Unknown,26/03/2010,20/04/2010,Confirmed,Rift Valley fever,,"domestic, sheep",26,2,2,0,0,,,,
153883,OIE,-27.227283,27.50905,Africa,South Africa,Free State,Daskop,Unknown,10/03/2010,20/04/2010,Confirmed,Rift Valley fever,,"domestic, cattle",,1,1,0,0,,,,
153882,OIE,-29.807777,26.130555,Africa,South Africa,Free State,Brakfontein,Unknown,15/03/2010,20/04/2010,Confirmed,Rift Valley fever,,"domestic, sheep",1500,39,29,0,0,,,,
153881,OIE,-29.596389,25.7333,Africa,South Africa,Free State,Kruidfontein,Unknown,22/02/2010,20/04/2010,Confirmed,Rift Valley fever,,"domestic, cattle, domestic, sheep",684,7,7,0,0,,,,
153880,OIE,23.864174,120.31366,Asia,Taiwan (Province of China),Taiwan Sheng,Dacheng Township,Unknown,06/04/2010,26/04/2010,Confirmed,Sheep pox and goat pox,,"domestic, goat",42,4,1,41,0,,,,
153879,OIE,23.537432,120.185205,Asia,Taiwan (Province of China),Taiwan Sheng,Kouhu Township 1,Unknown,20/03/2010,26/04/2010,Confirmed,Sheep pox and goat pox,,"domestic, goat",88,20,0,88,0,,,,
153878,OIE,23.956983,120.463346,Asia,Taiwan (Province of China),Taiwan Sheng,Shihu Township,Unknown,01/04/2010,26/04/2010,Confirmed,Sheep pox and goat pox,,"domestic, goat",78,78,1,77,0,,,,
153877,OIE,23.65648,120.311794,Asia,Taiwan (Province of China),Taiwan Sheng,Yuanchang Township 2,Unknown,15/04/2010,26/04/2010,Confirmed,Sheep pox and goat pox,,"domestic, goat",57,10,0,57,0,,,,
153876,OIE,23.569558,120.189236,Asia,Taiwan (Province of China),Taiwan Sheng,Kouhu Township 3,Unknown,09/04/2010,26/04/2010,Confirmed,Sheep pox and goat pox,,"domestic, goat",4,2,0,4,0,,,,
153875,OIE,23.997578,120.383249,Asia,Taiwan (Province of China),Taiwan Sheng,Fangyuan Township 1,Unknown,15/03/2010,26/04/2010,Confirmed,Sheep pox and goat pox,,"domestic, goat",55,7,0,55,0,,,,
153874,OIE,23.668125,120.300539,Asia,Taiwan (Province of China),Taiwan Sheng,Yuanchang Township 1,Unknown,20/03/2010,26/04/2010,Confirmed,Sheep pox and goat pox,,"domestic, goat",259,40,10,249,0,,,,
153873,OIE,23.997577,120.383239,Asia,Taiwan (Province of China),Taiwan Sheng,Fangyuan Township 2,Unknown,01/03/2010,26/04/2010,Confirmed,Sheep pox and goat pox,,"domestic, goat",120,114,0,120,0,,,,
153872,OIE,23.644439,120.365041,Asia,Taiwan (Province of China),Taiwan Sheng,Yuanchang Township 3,Unknown,09/04/2010,26/04/2010,Confirmed,Sheep pox and goat pox,,"domestic, goat",36,1,0,1,0,,,,
153871,OIE,23.529642,120.156033,Asia,Taiwan (Province of China),Taiwan Sheng,Kouhu Township 2,Unknown,20/03/2010,26/04/2010,Confirmed,Sheep pox and goat pox,,"domestic, goat",223,30,0,223,0,,,,
153870,OIE,24.032645,120.425192,Asia,Taiwan (Province of China),Taiwan Sheng,Fushing Township,Unknown,09/04/2010,26/04/2010,Confirmed,Sheep pox and goat pox,,"domestic, goat",100,1,0,1,0,,,,
153867,FAO Field Officer,40.729221,44.858042,Asia,Armenia,Tavush,Dilijan,Centroid Admin2,,03/05/2010,Confirmed,African swine fever,,"domestic, swine",,,,,,,,,
153865,FAO Field Officer,-3.016666,114.35,Asia,Indonesia,Kalimantan Tengah,"Batu Nidan Village, Basarang Sub-District, Kapuas District",Centroid Locality,23/12/2009,12/01/2010,Confirmed,Influenza - Avian,H5N1 HPAI,"domestic, chicken",,,,,,,,,
153864,FAO Field Officer,-3.016666,114.35,Asia,Indonesia,Kalimantan Tengah,"Lunuk Ramba Village, Basarang Sub-District, Kapuas District",Centroid Locality,27/12/2009,12/01/2010,Confirmed,Influenza - Avian,H5N1 HPAI,"domestic, chicken",2500,,700,,,,,,
153863,National authorities,16.88629351,107.1330374,Asia,Viet Nam,Quang Tri,Gio Mai,Centroid Admin3,22/04/2010,27/04/2010,Confirmed,Influenza - Avian,H5N1 HPAI,"domestic, duck",1500,300,250,1250,,,,,
153862,National authorities,15.197034,108.746143,Asia,Viet Nam,Quang Ngai,Son Tinh,Centroid Admin2,24/04/2010,24/04/2010,Confirmed,Influenza - Avian,H5N1 HPAI,"domestic, chicken",3670,550,150,3520,,,,,
153860,National authorities,27.14695,108.1499,Asia,China,Guizhou Sheng,shibing,Exact,13/04/2010,22/04/2010,Confirmed,Foot and mouth disease,O,"domestic, swine, domestic, cattle",,72,2,114,,,,,
153854,OIE,-28.153722,26.733083,Africa,South Africa,Free State,Glen ross,Unknown,01/03/2010,01/04/2010,Confirmed,Rift Valley fever,,"domestic, sheep, domestic, cattle",167,40,14,0,0,,,,
153853,OIE,-28.613611,26.283611,Africa,South Africa,Free State,Salmienas Rust,Unknown,15/02/2010,01/04/2010,Confirmed,Rift Valley fever,,"domestic, sheep, domestic, cattle",530,63,10,0,0,,,,
153852,OIE,-27.771111,26.633056,Africa,South Africa,Free State,Kromdraai,Unknown,01/04/2010,01/04/2010,Confirmed,Rift Valley fever,,"domestic, goat, domestic, cattle, domestic, sheep",260,6,6,0,0,,,,
153851,OIE,-27.881666,26.40025,Africa,South Africa,Free State,Jupiter,Unknown,18/02/2010,01/04/2010,Confirmed,Rift Valley fever,,"domestic, cattle, domestic, sheep",220,10,10,0,0,,,,
153850,OIE,-29.469444,25.948333,Africa,South Africa,Free State,Ventersvlei,Unknown,25/02/2010,01/04/2010,Confirmed,Rift Valley fever,,"domestic, cattle, domestic, goat, domestic, sheep",188,6,6,0,0,,,,
153849,OIE,-28.716944,25.946111,Africa,South Africa,Free State,Holfontein,Unknown,25/02/2010,01/04/2010,Confirmed,Rift Valley fever,,"domestic, cattle, domestic, sheep",58,4,2,0,0,,,,
153848,OIE,-31.636944,25.006111,Africa,South Africa,Eastern Cape,Dwarsvlei,Unknown,19/03/2010,01/04/2010,Confirmed,Rift Valley fever,,"domestic, sheep",2000,3,2,0,0,,,,
153847,OIE,-28.87555,26.13222,Africa,South Africa,Free State,Donkerhoek,Unknown,13/03/2010,01/04/2010,Confirmed,Rift Valley fever,,"domestic, cattle, domestic, sheep",1148,10,10,0,0,,,,
153846,OIE,-28.322778,26.073611,Africa,South Africa,Free State,Ragnarok,Unknown,07/03/2010,01/04/2010,Confirmed,Rift Valley fever,,"domestic, sheep, domestic, cattle",93,11,10,0,0,,,,
153845,OIE,-28.141944,26.433056,Africa,South Africa,Free State,Vaalkoppies,Unknown,15/02/2010,01/04/2010,Confirmed,Rift Valley fever,,"domestic, sheep",194,80,40,0,0,,,,
153844,OIE,-32.040944,23.008222,Africa,South Africa,Western Cape,Klipkraal,Unknown,26/03/2010,01/04/2010,Confirmed,Rift Valley fever,,"domestic, sheep",1016,4,3,0,0,,,,
153843,OIE,-29.057483,26.107683,Africa,South Africa,Free State,Eikelaan Bainsvlei,Unknown,23/02/2010,01/04/2010,Confirmed,Rift Valley fever,,"domestic, sheep",31,2,2,0,0,,,,
153842,OIE,-27.683056,26.181944,Africa,South Africa,Free State,Geskenk,Unknown,15/02/2010,01/04/2010,Confirmed,Rift Valley fever,,"domestic, cattle",200,5,4,0,0,,,,
153841,OIE,-31.567989,25.472028,Africa,South Africa,Eastern Cape,Temple farm,Unknown,17/03/2010,01/04/2010,Confirmed,Rift Valley fever,,"domestic, sheep",1500,1,1,0,0,,,,
153840,OIE,-31.486667,25.466944,Africa,South Africa,Eastern Cape,Manor Home,Unknown,19/03/2010,01/04/2010,Confirmed,Rift Valley fever,,"domestic, sheep",1000,1,1,0,0,,,,
153839,OIE,-29.782694,22.907,Africa,South Africa,Northern Cape,De Jagersvlei,Unknown,08/03/2010,01/04/2010,Confirmed,Rift Valley fever,,"domestic, goat, domestic, sheep",1002,180,180,0,0,,,,
153838,OIE,-29.054167,27.13,Africa,South Africa,Free State,Vreugde,Unknown,19/02/2010,01/04/2010,Confirmed,Rift Valley fever,,"domestic, sheep, domestic, cattle",200,56,6,0,0,,,,
153837,OIE,-28.232222,26.508056,Africa,South Africa,Free State,Grootkuil,Unknown,17/03/2010,01/04/2010,Confirmed,Rift Valley fever,,"domestic, sheep, domestic, cattle",772,25,11,0,0,,,,
153836,OIE,-28.663611,26.339167,Africa,South Africa,Free State,Hertzog,Unknown,21/03/2010,01/04/2010,Confirmed,Rift Valley fever,,"domestic, cattle, domestic, sheep",1504,308,29,0,0,,,,
153835,OIE,-27.6875,25.773611,Africa,South Africa,Free State,Rietvlei,Unknown,14/02/2010,01/04/2010,Confirmed,Rift Valley fever,,"domestic, sheep, domestic, cattle",297,33,18,0,0,,,,
153834,OIE,-28.639966,24.728647,Africa,South Africa,Northern Cape,Roodepan,Unknown,08/03/2010,01/04/2010,Confirmed,Rift Valley fever,,"domestic, cattle",49,4,3,0,0,,,,
153833,OIE,-31.458933,25.515117,Africa,South Africa,Eastern Cape,Friesfontein,Unknown,16/03/2010,01/04/2010,Confirmed,Rift Valley fever,,"domestic, sheep",1500,5,1,0,0,,,,
153832,OIE,-28.210833,26.523611,Africa,South Africa,Free State,Vadersgift,Unknown,01/03/2010,01/04/2010,Confirmed,Rift Valley fever,,"domestic, sheep",180,3,0,0,0,,,,
153831,OIE,-29.256667,25.878333,Africa,South Africa,Free State,Geluksdeel,Unknown,01/03/2010,01/04/2010,Confirmed,Rift Valley fever,,"domestic, sheep, domestic, cattle",365,65,2,0,0,,,,
153830,OIE,-30.562694,24.574083,Africa,South Africa,Northern Cape,Biesiespan,Unknown,16/03/2010,01/04/2010,Confirmed,Rift Valley fever,,"domestic, sheep",1116,5,5,0,0,,,,
153829,OIE,-31.303333,25.359722,Africa,South Africa,Eastern Cape,Beestekuil,Unknown,19/03/2010,01/04/2010,Confirmed,Rift Valley fever,,"domestic, sheep",100,1,1,0,0,,,,
153828,OIE,45.146719,0.631227,Europe,France,Aquitaine,Prigonrieux,Centroid Admin2,30/03/2010,01/04/2010,Confirmed,Equine infectious anaemia,,"domestic, horse",21,2,0,0,0,,,,
153826,OIE,46.204131,12.89001,Europe,Italy,Friuli-venezia Giulia,LOCALITA' BRAIDA RIVA DEL COSA,Unknown,18/03/2010,31/03/2010,Confirmed,Rabies,,"wild, fox",,1,1,0,0,,,,
153825,OIE,46.496674,12.479739,Europe,Italy,Veneto,LOCALITA' CIARESELLA,Unknown,15/03/2010,31/03/2010,Confirmed,Rabies,,"wild, fox",,1,1,0,0,,,,
153824,OIE,46.467985,12.685475,Europe,Italy,Friuli-venezia Giulia,LOCALITA' UNERVELT,Unknown,18/03/2010,31/03/2010,Confirmed,Rabies,,"wild, fox",,1,1,0,0,,,,
153823,OIE,46.498319,12.161061,Europe,Italy,Veneto,LOCALITA' RONCHI,Unknown,23/03/2010,31/03/2010,Confirmed,Rabies,,"wild, fox",,1,1,0,0,,,,
153822,OIE,46.606714,12.090519,Europe,Italy,Veneto,LOCALITA' COSTA DEI SEI,Unknown,21/03/2010,31/03/2010,Confirmed,Rabies,,"wild, fox",,1,1,0,0,,,,
153821,OIE,46.568134,12.69679,Europe,Italy,Veneto,LOCALITA' DIGA DI SANTA CATERINA,Unknown,20/03/2010,31/03/2010,Confirmed,Rabies,,"wild, fox",,1,1,0,0,,,,
153820,OIE,46.276487,12.246412,Europe,Italy,Veneto,LOCALITA' SOFFRANCO,Unknown,20/03/2010,31/03/2010,Confirmed,Rabies,,"wild, fox",,1,1,0,0,,,,
153819,OIE,46.429383,12.434728,Europe,Italy,Veneto,LOCALITA' TALAGONA,Unknown,22/03/2010,31/03/2010,Confirmed,Rabies,,"wild, fox",,1,1,0,0,,,,
153818,OIE,46.568134,12.69679,Europe,Italy,Veneto,LOCALITA' FONTANA,Unknown,23/03/2010,31/03/2010,Confirmed,Rabies,,"wild, fox",,1,0,1,0,,,,
153817,OIE,46.522906,12.68559,Europe,Italy,Friuli-venezia Giulia,LOCALITA' PESARIIS,Unknown,20/03/2010,31/03/2010,Confirmed,Rabies,,"wild, fox",,1,1,0,0,,,,
153816,OIE,46.440231,11.987865,Europe,Italy,Veneto,LOCALITA' SAVINER DI LASTE,Unknown,19/03/2010,31/03/2010,Confirmed,Rabies,,"wild, fox",,1,1,0,0,,,,
