Id,source,latitude,longitude,region,country,admin1,localityName,localityQuality,observationDate,reportingDate,status,disease,serotypes,speciesDescription,sumAtRisk,sumCases,sumDeaths,sumDestroyed,sumSlaughtered,humansGenderDesc,humansAge,humansAffected,humansDeaths
175769,OIE,18.880541,-97.416923,Americas,Mexico,Puebla,Palmar De Bravo,Centroid Admin2,01/05/2013,07/05/2013,Confirmed,Influenza - Avian,H7N3 HPAI,"domestic, unspecified bird",150000,75000,40000,11000,0,,,,
175768,OIE,20.778299,-102.683055,Americas,Mexico,Jalisco,Tepatitlan De Morelos,Centroid Admin2,29/04/2013,07/05/2013,Confirmed,Influenza - Avian,H7N3 HPAI,"domestic, unspecified bird",320000,0,0,320000,0,,,,
175767,OIE,20.999785,-100.430379,Americas,Mexico,Guanajuato,San Jose Iturbide,Centroid Admin2,03/04/2013,07/05/2013,Confirmed,Influenza - Avian,H7N3 HPAI,"domestic, unspecified bird",319398,,0,319398,0,,,,
175766,OIE,21.2222,-100.9911,Americas,Mexico,Guanajuato,Dolores Hidalgo,Unknown,10/04/2013,07/05/2013,Confirmed,Influenza - Avian,H7N3 HPAI,"domestic, unspecified bird",100601,,0,100601,0,,,,
175765,OIE,21.1111,-102.0444,Americas,Mexico,Jalisco,San Diego de Alejandría,Unknown,01/03/2013,07/05/2013,Confirmed,Influenza - Avian,H7N3 HPAI,"domestic, unspecified bird",16,11,10,6,0,,,,
175763,National authorities,30.766,31.226,Africa,Egypt,Gharbia,Hanut,Centroid Locality,29/04/2013,30/04/2013,Confirmed,Influenza - Avian,H5N1 HPAI,"domestic, chicken, domestic, duck, domestic, unspecified bird",,108,,108,,,,,
175762,National authorities,30.966,30.961,Africa,Egypt,Gharbia,Kotour,Centroid Locality,29/04/2013,30/04/2013,Confirmed,Influenza - Avian,H5N1 HPAI,"domestic, chicken",,20,,20,,,,,
175761,National authorities,30.333,30.95,Africa,Egypt,Menoufia,Samadoun,Centroid Locality,27/04/2013,28/04/2013,Confirmed,Influenza - Avian,H5N1 HPAI,"domestic, duck, domestic, chicken, domestic, unspecified bird",,20,,20,,,,,
175760,National authorities,30.019,31.271,Africa,Egypt,Cairo,Elkhalifa,Centroid Locality,26/04/2013,27/04/2013,Confirmed,Influenza - Avian,H5N1 HPAI,"domestic, duck, domestic, chicken, domestic, unspecified bird",,203,,203,,,,,
175759,National authorities,30.839,30.865,Africa,Egypt,Gharbia,Ibyar,Centroid Locality,24/04/2013,25/04/2013,Confirmed,Influenza - Avian,H5N1 HPAI,"domestic, chicken",,3000,,3000,,,,,
175758,National authorities,30.839,30.865,Africa,Egypt,Gharbia,Ibyar,Centroid Locality,24/04/2013,25/04/2013,Confirmed,Influenza - Avian,H5N1 HPAI,"domestic, duck",,25000,,25000,,,,,
175757,National authorities,31.19047,121.41822,Asia,China,Shanghai Shi,Shangai City,Centroid Admin1,16/03/2013,15/04/2013,Confirmed,Influenza - Avian,H7N9 LPAI,,,,,,,,,1,0
175756,National authorities,-13.676557,-73.889949,Americas,Peru,Ayacucho,Concepcion,Centroid Admin2,,31/10/2006,Confirmed,Rabies,,"domestic, equidae",,1,,,,,,,
175755,National authorities,-16.360768,-71.658181,Americas,Peru,Arequipa,Uchamayo,Centroid Admin2,,31/10/2006,Confirmed,Classical swine fever,,"domestic, swine",,9,,,,,,,
175754,National authorities,-17.053638,-70.883312,Americas,Peru,Moquegua,Moquegwa,Centroid Admin2,,31/10/2006,Confirmed,Classical swine fever,,"domestic, swine",,8,,,,,,,
175751,National authorities,28.545654,115.943909,Asia,China,Jiangxi Sheng,Nanchang County,Exact,03/05/2013,07/05/2013,Confirmed,Influenza - Avian,H7N9 LPAI,,,,,,,,,1,0
175750,National authorities,-16.360768,-71.658181,Americas,Peru,Arequipa,Uchumayo,Centroid Admin2,,31/10/2006,Confirmed,Classical swine fever,,"domestic, swine",,3,,,,,,,
175747,National authorities,3.575461,98.476849,Asia,Indonesia,Sumatera Utara,BHAKTIKARYA,Unknown,19/03/2013,19/03/2013,Confirmed,Influenza - Avian,H5N1 HPAI,"domestic, duck",,,500,,,,,,
175746,National authorities,-3.855745,103.776351,Asia,Indonesia,Sumatera Selatan,SELEMAN,Unknown,25/03/2013,25/03/2013,Confirmed,Influenza - Avian,H5N1 HPAI,"domestic, chicken",,,15,,,,,,
175745,National authorities,-0.500647,100.476211,Asia,Indonesia,Sumatera Barat,PITALAH,Unknown,27/03/2013,30/03/2013,Confirmed,Influenza - Avian,H5N1 HPAI,"domestic, unspecified bird",1135,,116,,0,,,,
175744,National authorities,-0.500647,100.476211,Asia,Indonesia,Sumatera Barat,PITALAH,Unknown,12/03/2013,12/03/2013,Confirmed,Influenza - Avian,H5N1 HPAI,"domestic, duck",,,1000,,,,,,
175743,National authorities,-0.505097,100.487256,Asia,Indonesia,Sumatera Barat,BUNGO TANJUNG,Unknown,21/03/2013,24/03/2013,Confirmed,Influenza - Avian,H5N1 HPAI,"domestic, unspecified bird",2213,,1872,,0,,,,
175742,National authorities,-0.095708,100.578817,Asia,Indonesia,Sumatera Barat,SUNGAI ANTUAH,Unknown,05/03/2013,05/03/2013,Confirmed,Influenza - Avian,H5N1 HPAI,"domestic, duck",,,5,,,,,,
175741,National authorities,-0.95575,119.907928,Asia,Indonesia,Sulawesi Tengah,BULUPOUNTU,Unknown,04/03/2013,04/03/2013,Confirmed,Influenza - Avian,H5N1 HPAI,"domestic, chicken",,,30,,,,,,
175740,National authorities,-0.961392,119.867134,Asia,Indonesia,Sulawesi Tengah,TAWANJUKA,Unknown,25/03/2013,25/03/2013,Confirmed,Influenza - Avian,H5N1 HPAI,"domestic, chicken",,,9,,,,,,
175739,National authorities,0.601364,101.77899,Asia,Indonesia,Riau,PANGKALAN PISANG,Unknown,12/03/2013,12/03/2013,Confirmed,Influenza - Avian,H5N1 HPAI,"domestic, chicken",,,20,,,,,,
175738,National authorities,0.518276,101.400059,Asia,Indonesia,Riau,TAMPAN,Unknown,20/03/2013,20/03/2013,Confirmed,Influenza - Avian,H5N1 HPAI,"domestic, chicken",,,3,,,,,,
175737,National authorities,0.32911,101.144112,Asia,Indonesia,Riau,SIMPANG KUBU,Unknown,07/03/2013,07/03/2013,Confirmed,Influenza - Avian,H5N1 HPAI,"domestic, chicken",,,18,,,,,,
175736,National authorities,0.34269,101.125832,Asia,Indonesia,Riau,BUKIT SEMBILAN,Unknown,10/03/2013,12/03/2013,Confirmed,Influenza - Avian,H5N1 HPAI,"domestic, unspecified bird",16,,10,,2,,,,
175735,National authorities,0.34269,101.125832,Asia,Indonesia,Riau,BUKIT SEMBILAN,Unknown,12/03/2013,12/03/2013,Confirmed,Influenza - Avian,H5N1 HPAI,"domestic, chicken",,,10,,,,,,
175734,National authorities,0.168146,101.113274,Asia,Indonesia,Riau,LANGGINI,Unknown,13/03/2013,13/03/2013,Confirmed,Influenza - Avian,H5N1 HPAI,"domestic, chicken",,,13,,,,,,
175733,National authorities,-5.417616,104.7261,Asia,Indonesia,Lampung,LANDBAW,Unknown,27/02/2013,01/03/2013,Confirmed,Influenza - Avian,H5N1 HPAI,"domestic, chicken",,,,,,,,,
175732,National authorities,-5.013223,105.452021,Asia,Indonesia,Lampung,RUKTI SEDIO,Unknown,04/03/2013,04/03/2013,Confirmed,Influenza - Avian,H5N1 HPAI,"domestic, chicken",,,28,,,,,,
175731,National authorities,1.033641,103.950585,Asia,Indonesia,Kepulauan-riau,SEI LEKOP,Unknown,14/03/2013,14/03/2013,Confirmed,Influenza - Avian,H5N1 HPAI,"domestic, chicken",,,3,,,,,,
175730,National authorities,1.038656,104.121125,Asia,Indonesia,Kepulauan-riau,KABIL,Unknown,08/03/2013,08/03/2013,Confirmed,Influenza - Avian,H5N1 HPAI,"domestic, chicken",,,6,,,,,,
175729,National authorities,-0.457974,117.244836,Asia,Indonesia,Kalimantan Timur,SAMBUTAN,Unknown,05/03/2013,05/03/2013,Confirmed,Influenza - Avian,H5N1 HPAI,"domestic, chicken",,,1,,,,,,
175728,National authorities,-7.190375,113.522589,Asia,Indonesia,Jawa Timur,PADEMAWU,Unknown,10/03/2013,10/03/2013,Confirmed,Influenza - Avian,H5N1 HPAI,"domestic, unspecified bird",,,98,,,,,,
175727,National authorities,-7.116531,113.51452,Asia,Indonesia,Jawa Timur,BLUMBUNGAN,Unknown,10/03/2013,10/03/2013,Confirmed,Influenza - Avian,H5N1 HPAI,"domestic, unspecified bird",,,90,,,,,,
175726,National authorities,-8.224596,113.664899,Asia,Indonesia,Jawa Timur,PANCAKARYA,Unknown,14/03/2013,14/03/2013,Confirmed,Influenza - Avian,H5N1 HPAI,"domestic, duck",,,1000,,,,,,
175725,National authorities,-7.148292,112.050558,Asia,Indonesia,Jawa Timur,DRAJAT,Unknown,13/03/2013,13/03/2013,Confirmed,Influenza - Avian,H5N1 HPAI,"domestic, quail",,,1935,,,,,,
175724,National authorities,-8.469896,114.254363,Asia,Indonesia,Jawa Timur,KRADENAN,Unknown,15/03/2013,15/03/2013,Confirmed,Influenza - Avian,H5N1 HPAI,"domestic, duck",,,4,,,,,,
175723,National authorities,-6.736362,108.176298,Asia,Indonesia,Jawa Barat,KARANG SAMBUNG,Unknown,25/03/2013,25/03/2013,Confirmed,Influenza - Avian,H5N1 HPAI,"domestic, duck",,,60,,,,,,
175722,National authorities,-7.369438,108.617031,Asia,Indonesia,Jawa Barat,MUKTISARI,Unknown,28/03/2013,28/03/2013,Confirmed,Influenza - Avian,H5N1 HPAI,"domestic, unspecified bird",,,40,,,,,,
175721,National authorities,-6.357401,108.21661,Asia,Indonesia,Jawa Barat,PRANGGONG,Unknown,21/03/2013,21/03/2013,Confirmed,Influenza - Avian,H5N1 HPAI,"domestic, duck",,,400,,,,,,
175720,National authorities,-3.868987,102.325349,Asia,Indonesia,Bengkulu,SUMUR DEWA,Unknown,08/03/2013,08/03/2013,Confirmed,Influenza - Avian,H5N1 HPAI,"domestic, chicken",,,19,,,,,,
175719,National authorities,-8.540453,115.048925,Asia,Indonesia,Bali,BELUMBANG,Unknown,20/03/2013,20/03/2013,Confirmed,Influenza - Avian,H5N1 HPAI,"domestic, duck",,,525,,,,,,
175718,National authorities,-8.714456,115.209906,Asia,Indonesia,Bali,PEDUNGAN,Unknown,14/03/2013,14/03/2013,Confirmed,Influenza - Avian,H5N1 HPAI,"domestic, chicken",,,33,,,,,,
175716,OIE,40.8,80.37,Asia,China,Xinjiang Uygur Zizhiqu,Soukeman,Unknown,07/05/2013,07/05/2013,Confirmed,Foot and mouth disease,A,"domestic, cattle, domestic, sheep",239,16,0,239,0,,,,
175715,National authorities,26.732162,32.060659,Africa,Egypt,Suhag,Gohina District,Centroid Admin1,25/04/2013,05/05/2013,Confirmed,Influenza - Avian,H5N1 HPAI,,,,,,,,,1,1
175713,OIE,32.327683,35.292092,Asia,West Bank,Jenin,Siris,Unknown,15/04/2013,05/05/2013,Confirmed,Lumpy skin disease,,"domestic, cattle",1,1,0,0,0,,,,
175712,OIE,32.454007,35.25528,Asia,West Bank,Jenin,Arqa,Unknown,15/04/2013,05/05/2013,Confirmed,Lumpy skin disease,,"domestic, cattle",2,1,1,0,0,,,,
175711,OIE,32.471219,35.199257,Asia,West Bank,Jenin,Arqa,Unknown,15/04/2013,05/05/2013,Confirmed,Lumpy skin disease,,"domestic, cattle",5,1,0,0,0,,,,
175710,OIE,32.457572,35.229827,Asia,West Bank,Jenin,Kafer Qud,Unknown,15/04/2013,05/05/2013,Confirmed,Lumpy skin disease,,"domestic, cattle",5,1,0,0,0,,,,
175709,OIE,32.316595,35.187173,Asia,West Bank,Jenin,Silat al-Dahr,Unknown,15/04/2013,05/05/2013,Confirmed,Lumpy skin disease,,"domestic, cattle",5,5,3,0,0,,,,
175708,OIE,32.327683,35.292092,Asia,West Bank,Jenin,Siris,Unknown,15/04/2013,05/05/2013,Confirmed,Lumpy skin disease,,"domestic, cattle",1,1,0,0,0,,,,
175707,OIE,32.457572,35.229827,Asia,West Bank,Jenin,Kafer Qud,Unknown,15/04/2013,05/05/2013,Confirmed,Lumpy skin disease,,"domestic, cattle",4,3,0,0,0,,,,
175706,OIE,32.316595,35.187173,Asia,West Bank,Jenin,Silat al-Dahr,Unknown,15/04/2013,05/05/2013,Confirmed,Lumpy skin disease,,"domestic, cattle",30,3,3,0,0,,,,
175703,National authorities,53.1682,25.7913,Europe,Belarus,Brest,"Vostochny, BaranovichiBakeries OJSC",Unknown,25/04/2013,05/05/2013,Confirmed,Porcine reproductive and respiratory syndrome,,"domestic, swine",40058,3260,2458,0,0,,,,
175702,OIE,32.369593,35.072822,Asia,West Bank,Tulkarm,ATIL 3,Unknown,24/02/2013,05/05/2013,Confirmed,Bluetongue,4,"domestic, goat/sheep ",200,7,0,0,0,,,,
175701,OIE,32.369593,35.072822,Asia,West Bank,Tulkarm,ATIL 1,Unknown,15/01/2013,05/05/2013,Confirmed,Bluetongue,4,"domestic, sheep",25,2,0,0,0,,,,
175700,OIE,32.369593,35.072822,Asia,West Bank,Tulkarm,ATIL 2,Unknown,15/01/2013,05/05/2013,Confirmed,Bluetongue,4,"domestic, sheep",80,20,0,0,0,,,,
175699,OIE,32.310448,35.0445,Asia,West Bank,Tulkarm,Danaba,Unknown,15/01/2013,05/05/2013,Confirmed,Bluetongue,4,"domestic, goat/sheep ",75,7,4,0,0,,,,
175698,National authorities,23.020614,113.751372,Asia,China,Guangdong Sheng,"Sanniao Wholesale Market, Dongguan City",Exact,05/05/2013,05/05/2013,Confirmed,Influenza - Avian,H7N9 LPAI,"domestic, chicken",,1,,,,,,,
175697,National authorities,28.430933,115.969881,Asia,China,Jiangxi Sheng,"Xiangtangzhen, Nanchang County, Nanchang City",Exact,05/05/2013,05/05/2013,Confirmed,Influenza - Avian,H7N9 LPAI,"domestic, chicken",,1,,,,,,,
175696,National authorities,34.795064,117.263164,Asia,China,Shandong Sheng,"Xingfulu market, Xuecheng, Zaozhuang City",Exact,05/05/2013,05/05/2013,Confirmed,Influenza - Avian,H7N9 LPAI,"domestic, unspecified bird",,,,,,,,,
175695,National authorities,-8.811325,-75.470029,Americas,Peru,Ucayali,Padre Abad,Centroid Admin2,,25/10/2006,Confirmed,Rabies,,"domestic, unspecified mammal",,1,,,,,,,
175694,National authorities,-13.978086,-73.499684,Americas,Peru,Apurímac,Pacucha,Centroid Admin2,,25/10/2006,Confirmed,Rabies,,"domestic, goat",,1,,,,,,,
175693,National authorities,-5.198636,-80.574891,Americas,Peru,Piura,Catacaos,Centroid Admin2,,25/10/2006,Confirmed,Classical swine fever,,"domestic, swine",,2,,,,,,,
175692,National authorities,26.046586,119.273675,Asia,China,Fujian Sheng,"Cangshan district, Fuzhou",Exact,26/04/2013,06/05/2013,Confirmed,Influenza - Avian,H7N9 LPAI,,,,,,,,,1,0
175691,National authorities,25.529303,119.521375,Asia,China,Fujian Sheng,"Sanshanzhen, Fuqing, Fuzhou City",Exact,29/04/2013,04/05/2013,Confirmed,Influenza - Avian,H7N9 LPAI,,,,,,,,,1,0
175690,National authorities,26.726611,110.631911,Asia,China,Hunan Sheng,"Wugang City, Shaoyang City",Exact,23/04/2013,01/05/2013,Confirmed,Influenza - Avian,H7N9 LPAI,,,,,,,,,1,0
175689,National authorities,26.06712,119.2381,Asia,China,Fujian Sheng,"Cangshan district, Fuzhou",Exact,21/04/2013,30/04/2013,Confirmed,Influenza - Avian,H7N9 LPAI,,,,,,,,,1,0
175688,WHO,25.307408,49.505081,Asia,Saudi Arabia,Eastern Province,Al Hassa,Centroid Locality,,02/05/2013,Confirmed,MERS-CoV ,,,,,,,,,,7,7
175687,OIE,41.07,22.85,Europe,Greece,Kentriki Makedonia,Koromilia ,Unknown,17/04/2013,06/05/2013,Confirmed,Rabies,,"wild, red fox",,1,1,,,,,,
175684,OIE,32.317493,35.187219,Asia,West Bank,Jenin,Silat al Dhr ,Unknown,15/04/2013,30/04/2013,Confirmed,Lumpy skin disease,,"domestic, cattle",150,11,1,0,0,,,,
175683,OIE,32.455588,35.262173,Asia,West Bank,Jenin,Burqin ,Unknown,15/04/2013,30/04/2013,Confirmed,Lumpy skin disease,,"domestic, cattle",4,2,1,0,0,,,,
175682,OIE,32.41534,35.232993,Asia,West Bank,Jenin,Judeida ,Unknown,15/04/2013,30/04/2013,Confirmed,Lumpy skin disease,,"domestic, cattle",2,2,0,0,0,,,,
175681,OIE,32.403422,35.207342,Asia,West Bank,Jenin,Arraba ,Unknown,15/04/2013,30/04/2013,Confirmed,Lumpy skin disease,,"domestic, cattle",6,1,0,0,0,,,,
175680,OIE,32.317493,35.187219,Asia,West Bank,Jenin,Silat al Dhr,Unknown,15/04/2013,30/04/2013,Confirmed,Lumpy skin disease,,"domestic, cattle",28,9,4,0,0,,,,
175679,OIE,32.317493,35.187219,Asia,West Bank,Jenin,Silat al Dhr,Unknown,15/04/2013,30/04/2013,Confirmed,Lumpy skin disease,,"domestic, cattle",30,2,2,0,0,,,,
175678,OIE,32.41534,35.232993,Asia,West Bank,Jenin,Judeida,Unknown,15/04/2013,30/04/2013,Confirmed,Lumpy skin disease,,"domestic, cattle",1,1,0,0,0,,,,
175677,OIE,32.18173,35.090868,Asia,West Bank,Qalqiliya,Kafer Laqif ,Unknown,15/04/2013,30/04/2013,Confirmed,Lumpy skin disease,,"domestic, cattle",2,1,0,0,0,,,,
175676,OIE,32.348894,35.271729,Asia,West Bank,Jenin,Meithalun  ,Unknown,15/04/2013,30/04/2013,Confirmed,Lumpy skin disease,,"domestic, cattle",1,1,0,0,0,,,,
175675,OIE,-3.5029321,141.68344275,Oceania,Papua New Guinea,West Sepik,Wutung ,Unknown,06/03/2013,03/05/2013,Confirmed,Newcastle disease,,"domestic, unspecified bird",167,17,17,0,0,,,,
175674,OIE,32.403422,35.207342,Asia,West Bank,Jenin,Arraba ,Unknown,15/04/2013,30/04/2013,Confirmed,Lumpy skin disease,,"domestic, cattle",6,1,0,0,0,,,,
175673,OIE,32.317493,35.187219,Asia,West Bank,Jenin,Silat al Dhr,Unknown,15/04/2013,30/04/2013,Confirmed,Lumpy skin disease,,"domestic, cattle",150,11,1,0,0,,,,
175672,OIE,32.430414,35.345412,Asia,West Bank,Jenin,Umm,Unknown,15/04/2013,30/04/2013,Confirmed,Lumpy skin disease,,"domestic, cattle",20,2,0,0,0,,,,
175671,OIE,32.327341,35.294267,Asia,West Bank,Jenin,Siris,Unknown,15/04/2013,30/04/2013,Confirmed,Lumpy skin disease,,"domestic, cattle",1,1,0,0,0,,,,
175670,OIE,32.41534,35.232993,Asia,West Bank,Jenin,Judeida,Unknown,15/04/2013,30/04/2013,Confirmed,Lumpy skin disease,,"domestic, cattle",1,1,0,0,0,,,,
175669,OIE,32.18173,35.090868,Asia,West Bank,Qalqiliya,Kafer Laqif,Unknown,15/04/2013,30/04/2013,Confirmed,Lumpy skin disease,,"domestic, cattle",2,1,0,0,0,,,,
175668,OIE,32.41534,35.232993,Asia,West Bank,Jenin,Judeida,Unknown,15/04/2013,30/04/2013,Confirmed,Lumpy skin disease,,"domestic, cattle",2,1,0,0,0,,,,
175667,OIE,32.317493,35.187219,Asia,West Bank,Jenin,Silat al Dhr ,Unknown,15/04/2013,30/04/2013,Confirmed,Lumpy skin disease,,"domestic, cattle",41,4,0,0,0,,,,
175666,OIE,32.348894,35.271729,Asia,West Bank,Jenin,Meithalun ,Unknown,15/04/2013,30/04/2013,Confirmed,Lumpy skin disease,,"domestic, cattle",1,1,0,0,0,,,,
175665,OIE,32.41534,35.232993,Asia,West Bank,Jenin,Judeida ,Unknown,15/04/2013,30/04/2013,Confirmed,Lumpy skin disease,,"domestic, cattle",2,2,0,0,0,,,,
175664,OIE,32.403422,35.207342,Asia,West Bank,Jenin,Arraba ,Unknown,15/04/2013,30/04/2013,Confirmed,Lumpy skin disease,,"domestic, cattle",3,1,0,0,0,,,,
175663,OIE,32.485282,35.280382,Asia,West Bank,Jenin,Kafer Dan ,Unknown,15/04/2013,30/04/2013,Confirmed,Lumpy skin disease,,"domestic, cattle",1,1,0,0,0,,,,
175662,OIE,31.439142,35.102286,Asia,West Bank,Al Khalil (Hebron),Al Baraka ,Unknown,14/04/2013,30/04/2013,Confirmed,Lumpy skin disease,,"domestic, cattle",300,4,0,0,0,,,,
175661,OIE,31.531798,35.100292,Asia,West Bank,Al Khalil (Hebron),Hebron ,Unknown,11/04/2013,30/04/2013,Confirmed,Lumpy skin disease,,"domestic, cattle",250,3,0,0,0,,,,
175660,OIE,31.444641,35.102286,Asia,West Bank,Al Khalil (Hebron),Yatta ,Unknown,10/04/2013,30/04/2013,Confirmed,Lumpy skin disease,,"domestic, cattle",70,2,0,0,0,,,,
175659,OIE,27.49,83.5167,Asia,Nepal,Western,Pokharvindi 2,Unknown,21/04/2013,27/04/2013,Confirmed,Influenza - Avian,H5N1 HPAI,"domestic, chicken",250,50,50,200,0,,,,
175658,OIE,27.5872,85.3147,Asia,Nepal,Central,Chapagaun 2 ,Unknown,23/04/2013,27/04/2013,Confirmed,Influenza - Avian,H5N1 HPAI,"domestic, chicken, domestic, duck, domestic, unspecified bird",20,7,7,13,0,,,,
175657,OIE,27.4951,83.5367,Asia,Nepal,Western,Pokharvindi 7 ,Unknown,19/04/2013,26/04/2013,Confirmed,Influenza - Avian,H5N1 HPAI,"domestic, chicken",500,163,163,337,0,,,,
175654,OIE,32.317493,35.187219,Asia,West Bank,Jenin,Silat al Dhr,Unknown,04/04/2013,30/04/2013,Confirmed,Lumpy skin disease,,"domestic, cattle",150,10,0,0,0,,,,
175653,OIE,32.209696,35.333813,Asia,West Bank,Nablus,Salem,Unknown,02/04/2013,30/04/2013,Confirmed,Lumpy skin disease,,"domestic, cattle",8,1,0,0,0,,,,
175652,OIE,32.209696,35.333813,Asia,West Bank,Nablus,Salem,Unknown,02/04/2013,30/04/2013,Confirmed,Lumpy skin disease,,"domestic, cattle",2,2,1,0,0,,,,
175651,OIE,31.506522,35.027501,Asia,West Bank,Al Khalil (Hebron),Edhna,Unknown,31/03/2013,30/04/2013,Confirmed,Lumpy skin disease,,"domestic, cattle",80,1,0,0,0,,,,
175650,OIE,32.209696,35.333813,Asia,West Bank,Nablus,Salem,Unknown,25/03/2013,30/04/2013,Confirmed,Lumpy skin disease,,"domestic, cattle",8,2,1,0,0,,,,
175649,OIE,32.209696,35.333813,Asia,West Bank,Nablus,Salem,Unknown,25/03/2013,30/04/2013,Confirmed,Lumpy skin disease,,"domestic, cattle",1,1,1,0,0,,,,
175648,OIE,32.152569,35.045495,Asia,West Bank,Qalqiliya,Kafer Thulth,Unknown,21/03/2013,30/04/2013,Confirmed,Lumpy skin disease,,"domestic, cattle",2,1,0,0,0,,,,
175647,OIE,32.199562,35.21406,Asia,West Bank,Nablus,TAL,Unknown,19/03/2013,30/04/2013,Confirmed,Lumpy skin disease,,"domestic, cattle",80,54,13,0,0,,,,
175646,OIE,32.199562,35.21406,Asia,West Bank,Nablus,Kafer Thulth,Unknown,19/03/2013,30/04/2013,Confirmed,Lumpy skin disease,,"domestic, cattle",7,3,2,0,0,,,,
175645,OIE,32.19022,35.293291,Asia,West Bank,Nablus,Rujeib,Unknown,18/03/2013,30/04/2013,Confirmed,Lumpy skin disease,,"domestic, cattle",16,8,5,0,0,,,,
175644,OIE,32.18772,34.975135,Asia,West Bank,Qalqiliya,Wad Qana,Unknown,17/03/2013,30/04/2013,Confirmed,Lumpy skin disease,,"domestic, cattle",17,8,0,0,0,,,,
175643,OIE,32.442991,35.203557,Asia,West Bank,Jenin,Kufeirat,Unknown,15/03/2013,30/04/2013,Confirmed,Lumpy skin disease,,"domestic, cattle",22,6,6,0,0,,,,
175642,OIE,32.19022,35.293291,Asia,West Bank,Nablus,Rujeb,Unknown,12/03/2013,30/04/2013,Confirmed,Lumpy skin disease,,"domestic, cattle",6,4,1,0,0,,,,
175641,OIE,32.19022,35.19022,Asia,West Bank,Nablus,Rujeb,Unknown,11/03/2013,30/04/2013,Confirmed,Lumpy skin disease,,"domestic, cattle",15,6,2,0,0,,,,
175640,OIE,32.19022,35.293291,Asia,West Bank,Nablus,Rujeb,Unknown,11/03/2013,30/04/2013,Confirmed,Lumpy skin disease,,"domestic, cattle",20,9,5,0,0,,,,
175639,National authorities,-13.453093,-73.650422,Americas,Peru,Apurímac,Chincheros,Centroid Locality,,30/04/2013,Confirmed,Rabies,,"domestic, cattle",9,1,1,,,,,,
175638,National authorities,-13.297989,-75.961255,Americas,Peru,Ica,Chincha,Centroid Admin2,,30/04/2013,Confirmed,Classical swine fever,,"domestic, swine",4,3,0,,,,,,
175636,National authorities,30.021,31.175,Africa,Egypt,Giza,Kafr tohormos,Centroid Locality,23/04/2013,24/04/2013,Confirmed,Influenza - Avian,H5N1 HPAI,"domestic, duck, domestic, goose, domestic, turkey, domestic, unspecified bird",,20,,20,,,,,
175635,National authorities,30.621,32.559,Africa,Egypt,Ismailia,Ismailia Deseret rood,Centroid Locality,18/04/2013,19/04/2013,Confirmed,Influenza - Avian,H5N1 HPAI,"domestic, chicken",,9050,,9050,,,,,
175634,OIE,32.4762447667,34.9712437192,Asia,Israel,Haifa,PARDES HANNA- KARKUR,Unknown,18/04/2013,28/04/2013,Confirmed,Newcastle disease,,"domestic, unspecified bird",24500,500,200,24300,,,,,
175633,OIE,50.865,80.9036,Asia,Kazakhstan,Vostochno-kazachstanskaya,Makanchi,Unknown,19/04/2013,29/04/2013,Confirmed,Newcastle disease,,"domestic, unspecified bird",,31,31,48,,,,,
175632,National authorities,-5.107079,-78.425647,Americas,Peru,Amazonas,Aramango,Centroid Admin2,,13/10/2006,Confirmed,Rabies,,"domestic, cattle",,1,,,,,,,
175631,National authorities,-13.978086,-73.499684,Americas,Peru,Apurímac,Andarapa,Centroid Admin2,,13/10/2006,Confirmed,Rabies,,"domestic, cattle",,1,,,,,,,
175630,National authorities,-13.978086,-73.499684,Americas,Peru,Apurímac,Talavera,Centroid Admin2,,13/10/2006,Confirmed,Rabies,,"domestic, cattle",,1,,,,,,,
175629,National authorities,-13.978086,-73.499684,Americas,Peru,Apurímac,Kishuara,Centroid Admin2,,13/10/2006,Confirmed,Rabies,,"domestic, cattle",,1,,,,,,,
175628,National authorities,-2.29087,-74.125694,Americas,Peru,Loreto,Equitos,Centroid Admin2,,13/10/2006,Confirmed,Rabies,,"domestic, cattle",,1,,,,,,,
175627,National authorities,-13.374975,-73.712657,Americas,Peru,Apurímac,HUACCANA,Unknown,,23/04/2013,Confirmed,Rabies,,"domestic, cattle",11,1,1,,,,,,
175626,National authorities,-13.063093,-73.938791,Americas,Peru,Ayacucho,Patibamba,Unknown,,23/04/2013,Confirmed,Rabies,,"domestic, cattle",2,,1,,,,,,
175625,National authorities,-13.50566,-73.242914,Americas,Peru,Apurímac,Pacalla,Unknown,,23/04/2013,Confirmed,Rabies,,"domestic, cattle",23,,1,,,,,,
175624,National authorities,-13.534007,-73.738424,Americas,Peru,Apurímac,Cayara,Unknown,,23/04/2013,Confirmed,Rabies,,"domestic, swine",5,,1,,,,,,
175623,National authorities,-13.489653,-72.570836,Americas,Peru,Cusco,Cc. Rampac Puntaja,Unknown,,23/04/2013,Confirmed,Rabies,,"domestic, cattle",26,,1,,,,,,
175621,National authorities,-11.917406,-77.119343,Americas,Peru,Callao,VENTANILLA,Unknown,,18/04/2013,Confirmed,Classical swine fever,,"domestic, swine",150,2,0,,,,,,
175620,National authorities,30.8661111,120.0963889,Asia,China,Zhejiang Sheng,Huzhou,Centroid Locality,17/04/2013,26/04/2013,Confirmed,Influenza - Avian,H7N9 LPAI,,,,,,,,,1,0
175619,National authorities,34.9341667,117.4108333,Asia,China,Shandong Sheng,Zaozhuang Shi,Centroid Locality,27/04/2013,28/04/2013,Confirmed,Influenza - Avian,H7N9 LPAI,,,,,,,,,1,0
175618,National authorities,25.725,119.3794444,Asia,China,Fujian Sheng,Fuqing,Centroid Locality,17/04/2013,28/04/2013,Confirmed,Influenza - Avian,H7N9 LPAI,,,,,,,,,1,0
175617,National authorities,30.2552778,120.1688889,Asia,China,Zhejiang Sheng,Hangzhou,Centroid Locality,18/04/2013,27/04/2013,Confirmed,Influenza - Avian,H7N9 LPAI,,,,,,,,,1,0
175616,National authorities,27.303952,115.482428,Asia,China,Jiangxi Sheng,Nanchang,Centroid Locality,23/04/2013,27/04/2013,Confirmed,Influenza - Avian,H7N9 LPAI,,,,,,,,,1,0
175615,National authorities,28.6833333,115.8833333,Asia,China,Jiangxi Sheng,Nanchang,Centroid Locality,21/04/2013,27/04/2013,Confirmed,Influenza - Avian,H7N9 LPAI,,,,,,,,,1,0
175614,National authorities,27.8333333,114.4,Asia,China,Jiangxi Sheng,Yichun,Centroid Locality,15/04/2013,27/04/2013,Confirmed,Influenza - Avian,H7N9 LPAI,,,,,,,,,1,0
175613,National authorities,27.2441667,111.4738889,Asia,China,Hunan Sheng,Shaoyang,Centroid Locality,14/04/2013,27/04/2013,Confirmed,Influenza - Avian,H7N9 LPAI,,,,,,,,,1,0
175612,National authorities,28.6833333,115.8833333,Asia,China,Jiangxi Sheng,Nanchang,Centroid Locality,19/04/2013,26/04/2013,Confirmed,Influenza - Avian,H7N9 LPAI,,,,,,,,,1,0
175611,National authorities,32.6138889,119.5480556,Asia,China,Jiangsu Sheng,"Binhu District, Wuxi",Centroid Locality,06/04/2013,26/04/2013,Confirmed,Influenza - Avian,H7N9 LPAI,,,,,,,,,1,0
175610,National authorities,34.2669444,117.1916667,Asia,China,Jiangsu Sheng,Xuzhou,Centroid Locality,19/04/2013,26/04/2013,Confirmed,Influenza - Avian,H7N9 LPAI,,,,,,,,,1,0
175609,National authorities,32.0616667,118.7777778,Asia,China,Jiangsu Sheng,Nanjing,Centroid Locality,17/04/2013,26/04/2013,Confirmed,Influenza - Avian,H7N9 LPAI,,,,,,,,,1,0
175608,National authorities,25.1072222,117.0225,Asia,China,Fujian Sheng,Longyan,Centroid Locality,18/04/2013,26/04/2013,Confirmed,Influenza - Avian,H7N9 LPAI,,,,,,,,,1,0
175607,International reference laboratory,-2.0103017554,34.7661903608,Africa,United Republic of Tanzania,Mara,Serengeti,Centroid Admin2,17/08/2012,26/04/2013,Confirmed,Foot and mouth disease,SAT2,"domestic, cattle",,,,,,,,,
175605,International reference laboratory,-2.0103017554,34.7661903608,Africa,United Republic of Tanzania,Mara,Serengeti,Centroid Admin2,18/01/2013,26/04/2013,Confirmed,Foot and mouth disease,A,"domestic, cattle",,,,,,,,,
175604,International reference laboratory,-2.0103017554,34.7661903608,Africa,United Republic of Tanzania,Mara,Serengeti,Centroid Admin2,18/01/2013,26/04/2013,Confirmed,Foot and mouth disease,A,"domestic, cattle",,,,,,,,,
175603,International reference laboratory,-2.0103017554,34.7661903608,Africa,United Republic of Tanzania,Mara,Serengeti,Centroid Admin2,18/01/2013,26/04/2013,Confirmed,Foot and mouth disease,A,"domestic, cattle",,,,,,,,,
175602,International reference laboratory,-2.0103017554,34.7661903608,Africa,United Republic of Tanzania,Mara,Serengeti,Centroid Admin2,16/10/2012,26/04/2013,Confirmed,Foot and mouth disease,A,"domestic, cattle",,,,,,,,,
175601,International reference laboratory,-2.0103017554,34.7661903608,Africa,United Republic of Tanzania,Mara,Serengeti,Centroid Admin2,05/10/2012,26/04/2013,Confirmed,Foot and mouth disease,A,"domestic, cattle",,,,,,,,,
175600,International reference laboratory,-2.0103017554,34.7661903608,Africa,United Republic of Tanzania,Mara,Serengeti,Centroid Admin2,05/10/2012,26/04/2013,Confirmed,Foot and mouth disease,A,"domestic, cattle",,,,,,,,,
175599,International reference laboratory,-2.0103017554,34.7661903608,Africa,United Republic of Tanzania,Mara,Serengeti,Centroid Admin2,03/10/2012,26/04/2013,Confirmed,Foot and mouth disease,A,"domestic, cattle",,,,,,,,,
175598,International reference laboratory,-2.0103017554,34.7661903608,Africa,United Republic of Tanzania,Mara,Serengeti,Centroid Admin2,03/10/2012,26/04/2013,Confirmed,Foot and mouth disease,A,"domestic, cattle",,,,,,,,,
175597,International reference laboratory,-2.0103017554,34.7661903608,Africa,United Republic of Tanzania,Mara,Serengeti,Centroid Admin2,18/08/2012,26/04/2013,Confirmed,Foot and mouth disease,A,"domestic, cattle",,,,,,,,,
175596,International reference laboratory,-2.0103017554,34.7661903608,Africa,United Republic of Tanzania,Mara,Serengeti,Centroid Admin2,18/08/2012,26/04/2013,Confirmed,Foot and mouth disease,A,"domestic, cattle",,,,,,,,,
175595,International reference laboratory,-2.0103017554,34.7661903608,Africa,United Republic of Tanzania,Mara,Serengeti,Centroid Admin2,18/08/2012,26/04/2013,Confirmed,Foot and mouth disease,A,"domestic, cattle",,,,,,,,,
175594,International reference laboratory,-2.0103017554,34.7661903608,Africa,United Republic of Tanzania,Mara,Serengeti,Centroid Admin2,18/08/2012,26/04/2013,Confirmed,Foot and mouth disease,A,"domestic, cattle",,,,,,,,,
175593,International reference laboratory,-2.0103017554,34.7661903608,Africa,United Republic of Tanzania,Mara,Serengeti,Centroid Admin2,15/08/2012,26/04/2013,Confirmed,Foot and mouth disease,A,"domestic, cattle",,,,,,,,,
175592,International reference laboratory,-2.0103017554,34.7661903608,Africa,United Republic of Tanzania,Mara,Serengeti,Centroid Admin2,14/08/2012,26/04/2013,Confirmed,Foot and mouth disease,A,"domestic, cattle",,,,,,,,,
175591,International reference laboratory,-2.0103017554,34.7661903608,Africa,United Republic of Tanzania,Mara,Serengeti,Centroid Admin2,28/06/2012,26/04/2013,Confirmed,Foot and mouth disease,A,"domestic, cattle",,,,,,,,,
175590,National authorities,58.899189,7.774223,Europe,Norway,Aust-agder,Aust-agder,Centroid Admin1,,25/04/2013,Confirmed,Schmallenberg,,"domestic, cattle",,,,,,,,,
175589,OIE,23.28,113.8,Asia,China,Guangdong Sheng," Fuli market",Unknown,20/05/2013,21/05/2013,Confirmed,Influenza - Avian,H7N9 LPAI,"domestic, chicken",,1,0,0,0,,,,
175587,OIE,52.593215,8.837865,Europe,Germany,Niedersachsen,Badbergen,Centroid Admin1,24/04/2013,26/04/2013,Confirmed,Influenza - Avian,H5N1 LPAI,"domestic, unspecified bird",19000,10,0,19000,0,,,,
175586,OIE,30.23,119.72,Asia,China,Zhejiang Sheng,Lin‘an,Unknown,04/04/2013,26/04/2013,Confirmed,Influenza - Avian,H7N9 LPAI,"domestic, unspecified bird",,3,0,,0,,,,
175585,OIE,49.316667,21.188889,Europe,Slovakia,Presov,Rokytov,Centroid Locality,17/04/2013,26/04/2013,Confirmed,Rabies,,"wild, red fox",,1,0,1,0,,,,
175584,National authorities,-6.846611,-76.737411,Americas,Peru,San Martín,San Andres,Unknown,,23/04/2013,Confirmed,Rabies,,"domestic, cattle",12,,1,,,,,,
175583,National authorities,-11.922542,-77.104197,Americas,Peru,Callao,Ventanilla,Unknown,,23/04/2013,Confirmed,Classical swine fever,,"domestic, swine",86,2,0,,,,,,
175582,National authorities,-6.145402,-79.660417,Americas,Peru,Lambayeque,Caserio Mirador,Unknown,,23/04/2013,Confirmed,Classical swine fever,,"domestic, swine",13,,7,,,,,,
175580,National authorities,10.55354,105.653695,Asia,Viet Nam,Dong Thap,Dong Thap,Centroid Admin1,,23/04/2013,Confirmed,Influenza - Avian,H5N1 HPAI,,,,,,,,,1,1
175579,National authorities,-13.548216,-73.35794,Americas,Peru,Apurímac,ANDARAPA,Unknown,,18/04/2013,Confirmed,Rabies,,"domestic, cattle",9,1,1,,,,,,
175578,National authorities,-13.539777,-73.731358,Americas,Peru,Apurímac,CHINCHEROS,Unknown,,18/04/2013,Confirmed,Rabies,,"domestic, cattle",4,1,1,,,,,,
175577,National authorities,-13.531571,-73.736875,Americas,Peru,Apurímac,CHINCHEROS,Unknown,,18/04/2013,Confirmed,Rabies,,"domestic, equidae",3,1,1,,,,,,
175576,National authorities,-13.531571,-73.736875,Americas,Peru,Apurímac,CHINCHEROS,Unknown,,18/04/2013,Confirmed,Rabies,,"domestic, swine",2,1,1,,,,,,
175575,National authorities,-13.522406,-73.700618,Americas,Peru,Apurímac,ANCO-HUALLO,Unknown,,18/04/2013,Confirmed,Rabies,,"domestic, swine",3,1,1,,,,,,
175574,National authorities,-5.929431,-76.989253,Americas,Peru,San Martín,MOYOBAMBA,Unknown,,18/04/2013,Confirmed,Rabies,,"domestic, cattle",6,1,1,,,,,,
175573,OIE,-13.55479,27.642798,Africa,Zambia,Copperbelt,Zambeef Farm,Centroid Admin2,26/10/2012,25/04/2013,Confirmed,Contagious bovine pleuropneumonia,,"domestic, cattle",500,8,3,493,0,,,,
175572,OIE,32.8474,13.4427,Africa,Libya,Tripoli (tarabulus),Tripoli,Unknown,24/03/2013,24/04/2013,Confirmed,Newcastle disease,,"domestic, chicken, domestic, chicken, domestic, chicken, wild, peacock, domestic, unspecified bird",120000,120000,40000,0,0,,,,
175571,National authorities,30.0016667,120.5811111,Asia,China,Zhejiang Sheng,Shaoxing,Centroid Locality,18/04/2013,25/04/2013,Confirmed,Influenza - Avian,H7N9 LPAI,,,,,,,,,1,0
175570,National authorities,30.8661111,120.0963889,Asia,China,Zhejiang Sheng,Huzhou,Centroid Admin1,17/04/2013,25/04/2013,Confirmed,Influenza - Avian,H7N9 LPAI,,,,,,,,,1,0
175569,National authorities,28.6833333,115.8833333,Asia,China,Jiangxi Sheng,Nanchang,Centroid Admin1,19/04/2013,25/04/2013,Confirmed,Influenza - Avian,H7N9 LPAI,,,,,,,,,1,0
175568,National authorities,34.7577778,113.6486111,Asia,China,Henan Sheng,Zhengzhou,Centroid Admin1,17/04/2013,25/04/2013,Confirmed,Influenza - Avian,H7N9 LPAI,,,,,,,,,1,0
175567,National authorities,25.0391667,121.525,Asia,Taiwan (Province of China),Taiwan Sheng,Taipei,Centroid Admin1,12/04/2013,24/04/2013,Confirmed,Influenza - Avian,H7N9 LPAI,,,,,,,,,1,0
175566,National authorities,32.678634,119.003648,Asia,China,Anhui Sheng,"Tianchang, Chuzhou City",Exact,14/04/2013,23/04/2013,Confirmed,Influenza - Avian,H7N9 LPAI,,,,,,,,,1,0
175565,National authorities,30.2552778,120.1688889,Asia,China,Zhejiang Sheng,Hangzhou,Exact,15/04/2013,23/04/2013,Confirmed,Influenza - Avian,H7N9 LPAI,,,,,,,,,1,0
175564,National authorities,30.276775,120.1688889,Asia,China,Zhejiang Sheng,Hangzhou,Centroid Locality,15/04/2013,23/04/2013,Confirmed,Influenza - Avian,H7N9 LPAI,,,,,,,,,1,0
175563,OIE,27.6703,84.3644,Asia,Nepal,Central,Mangalpur 7 ,Unknown,18/04/2013,23/04/2013,Confirmed,Influenza - Avian,H5N1 HPAI,"domestic, unspecified bird",4000,775,775,3225,0,,,,
175562,OIE,27.679,84.3954,Asia,Nepal,Central,Mangalpur 5,Unknown,19/04/2013,23/04/2013,Confirmed,Influenza - Avian,H5N1 HPAI,"domestic, unspecified bird",3500,275,275,3225,0,,,,
175559,National authorities,10.713615,106.125123,Asia,Viet Nam,Long An,Long An,Centroid Admin1,,25/04/2013,Confirmed,Influenza - Avian,H5N1 HPAI,,,,,,,,,1,
175558,National authorities,30.231,31.063,Africa,Egypt,Menoufia,Shoshy,Centroid Locality,16/04/2013,17/04/2013,Confirmed,Influenza - Avian,H5N1 HPAI,"domestic, chicken",,2000,,2000,,,,,
175557,National authorities,30.17,31.002,Africa,Egypt,Giza,Embaba,Centroid Locality,16/04/2013,17/04/2013,Confirmed,Influenza - Avian,H5N1 HPAI,"domestic, duck, domestic, goose, domestic, unspecified bird",,20,,20,,,,,
175556,National authorities,30.849,29.877,Africa,Egypt,Alexandria,Halab,Centroid Locality,16/04/2013,17/04/2013,Confirmed,Influenza - Avian,H5N1 HPAI,"domestic, duck, domestic, goose, domestic, turkey, domestic, unspecified bird",,18,,18,,,,,
175555,National authorities,-12.12055,-75.16734,Americas,Peru,Junín,SAPALLANGA,Unknown,,18/04/2013,Confirmed,Classical swine fever,,"domestic, swine",14,1,1,,,,,,
175554,National authorities,-12.10073,-75.19047,Americas,Peru,Junín,CHILCA,Unknown,,18/04/2013,Confirmed,Classical swine fever,,"domestic, swine",13,1,1,,,,,,
175553,National authorities,-13.025192,-73.904234,Americas,Peru,Ayacucho,SAN MIGUEL,Unknown,,18/04/2013,Confirmed,Rabies,,"domestic, cattle",3,1,1,,,,,,
175550,OIE,-23.4064444,-47.044972,Americas,Brazil,Sao Paulo,Araçariguama  ,Unknown,13/03/2013,18/04/2013,Confirmed,Glanders,,"domestic, horse",9,1,0,0,0,,,,
175549,OIE,-19.023,-41.986,Americas,Brazil,Minas Gerais,Engenheiro Caldas,Unknown,09/03/2012,18/04/2013,Confirmed,Glanders,,"domestic, horse",4,1,0,1,0,,,,
175548,OIE,32.974818,119.563243,Asia,China,Jiangsu Sheng,Haian,Centroid Admin1,22/04/2013,22/04/2013,Confirmed,Influenza - Avian,H7N9 LPAI,"domestic, pigeon",340,1,0,340,0,,,,
175547,OIE,34.41,114.19,Asia,China,Henan Sheng,Xiaotai agricultural products market,Unknown,04/04/2013,24/04/2013,Confirmed,Influenza - Avian,H7N9 LPAI,"domestic, unspecified bird",,1,0,0,0,,,,
175546,OIE,29.14,120.04,Asia,China,Zhejiang Sheng,Chi’an market,Unknown,04/04/2013,24/04/2013,Confirmed,Influenza - Avian,H7N9 LPAI,"domestic, unspecified bird",,1,0,2,0,,,,
175545,OIE,33.78,114.52,Asia,China,Henan Sheng,Jianshe road agricultural products market,Unknown,04/04/2013,24/04/2013,Confirmed,Influenza - Avian,H7N9 LPAI,"domestic, unspecified bird",,1,0,0,0,,,,
175544,OIE,21.479039,-101.7444,Americas,Mexico,Jalisco,Lagos de Moreno ,Unknown,04/04/2013,17/04/2013,Confirmed,Influenza - Avian,H7N3 HPAI,"domestic, unspecified bird",156282,,0,0,0,,,,
175543,OIE,20.763087,-102.8666,Americas,Mexico,Jalisco,Acatic,Unknown,26/03/2013,17/04/2013,Confirmed,Influenza - Avian,H7N3 HPAI,"domestic, unspecified bird",3700,,0,0,0,,,,
175542,OIE,20.763087,-102.8666,Americas,Mexico,Jalisco,Acatic,Unknown,25/03/2013,17/04/2013,Confirmed,Influenza - Avian,H7N3 HPAI,"domestic, unspecified bird",94500,,0,0,0,,,,
175541,OIE,20.7171806,-100.75333,Americas,Mexico,Guanajuato,Comonfort 1,Unknown,23/03/2013,17/04/2013,Confirmed,Influenza - Avian,H7N3 HPAI,"domestic, unspecified bird",23760,,0,0,0,,,,
175540,OIE,20.7171806,-100.75222,Americas,Mexico,Guanajuato,Comonfort 2  ,Unknown,23/03/2013,17/04/2013,Confirmed,Influenza - Avian,H7N3 HPAI,"domestic, unspecified bird",25269,,0,0,0,,,,
175539,OIE,20.10599,-103.4111,Americas,Mexico,Jalisco,Teocuitatlan de Corona ,Unknown,14/03/2013,17/04/2013,Confirmed,Influenza - Avian,H7N3 HPAI,"domestic, unspecified bird",20500,8000,0,0,0,,,,
175538,OIE,20.844269,-101.7333,Americas,Mexico,Guanajuato,Lagos de Moreno  ,Unknown,14/03/2013,17/04/2013,Confirmed,Influenza - Avian,H7N3 HPAI,"domestic, unspecified bird",10000,500,500,0,0,,,,
175537,OIE,20.844269,-102.74444,Americas,Mexico,Jalisco,Tepatitlán de Morelos  ,Unknown,13/03/2013,17/04/2013,Confirmed,Influenza - Avian,H7N3 HPAI,"domestic, unspecified bird",2800,,0,0,0,,,,
175536,OIE,21.099614,-100.42222,Americas,Mexico,Guanajuato,San Luis de la Paz ,Unknown,06/03/2013,17/04/2013,Confirmed,Influenza - Avian,H7N3 HPAI,"domestic, unspecified bird",118114,,0,0,0,,,,
175535,OIE,21.099614,-100.42222,Americas,Mexico,Guanajuato,San José Iturbide,Unknown,05/03/2013,17/04/2013,Confirmed,Influenza - Avian,H7N3 HPAI,"domestic, unspecified bird",209167,,0,0,0,,,,
175534,OIE,19.3302,-98.11111,Americas,Mexico,Tlaxcala,Ixtacuixtla de Mariano Matamoros,Unknown,04/03/2013,17/04/2013,Confirmed,Influenza - Avian,H7N3 HPAI,"domestic, unspecified bird",34,5,2,32,0,,,,
175533,OIE,29.27,88.88,Asia,China,Xizang Zizhiqu,Kare Village,Unknown,12/04/2013,22/04/2013,Confirmed,Foot and mouth disease,A,"domestic, cattle, domestic, goat/sheep ",156,32,0,156,0,,,,
175532,OIE,52.646744,8.039423,Europe,Germany,Niedersachsen,Badbergen,Unknown,18/04/2013,19/04/2013,Confirmed,Influenza - Avian,H5N1 LPAI,"domestic, turkey",7920,10,0,7920,0,,,,
175531,OIE,52.671558,7.796398,Europe,Germany,Niedersachsen,Menslage,Unknown,18/04/2013,19/04/2013,Confirmed,Influenza - Avian,H5N1 LPAI,"domestic, turkey",17150,10,0,17150,0,,,,
175529,National authorities,40.18987,116.39589,Asia,China,Beijing Shi,Beijing City,Centroid Admin1,,14/04/2013,Confirmed,Influenza - Avian,H7N9 LPAI,,,,,,,,,1,0
175528,National authorities,34.8647222,117.5541667,Asia,China,Shandong Sheng,Zaozhuang,Centroid Admin1,15/04/2013,22/04/2013,Confirmed,Influenza - Avian,H7N9 LPAI,,,,,,,,,1,0
175527,National authorities,30.8661111,120.0963889,Asia,China,Zhejiang Sheng,Huzhou,Centroid Admin1,14/04/2013,22/04/2013,Confirmed,Influenza - Avian,H7N9 LPAI,,,,,,,,,1,0
175526,National authorities,30.2552778,120.1688889,Asia,China,Zhejiang Sheng,Hangzhou,Centroid Locality,16/04/2013,22/04/2013,Confirmed,Influenza - Avian,H7N9 LPAI,,,,,,,,,1,0
175525,National authorities,31.7833333,119.9666667,Asia,China,Jiangsu Sheng,Changzhou,Centroid Admin1,13/04/2013,21/04/2013,Confirmed,Influenza - Avian,H7N9 LPAI,,,,,,,,,1,0
175524,National authorities,30.2552778,120.1688889,Asia,China,Zhejiang Sheng,Hangzhou,Centroid Admin1,13/04/2013,21/04/2013,Confirmed,Influenza - Avian,H7N9 LPAI,,,,,,,,,1,1
175523,National authorities,30.2552778,120.1688889,Asia,China,Zhejiang Sheng,Hangzhou,Centroid Admin1,16/04/2013,21/04/2013,Confirmed,Influenza - Avian,H7N9 LPAI,,,,,,,,,1,0
175522,National authorities,30.8661111,120.0963889,Asia,China,Zhejiang Sheng,Huzhou,Centroid Admin1,12/04/2013,21/04/2013,Confirmed,Influenza - Avian,H7N9 LPAI,,,,,,,,,1,0
175521,National authorities,30.7655556,120.7483333,Asia,China,Zhejiang Sheng,Jiaxing,Centroid Admin1,08/04/2013,21/04/2013,Confirmed,Influenza - Avian,H7N9 LPAI,,,,,,,,,1,1
175520,National authorities,30.2552778,120.1688889,Asia,China,Zhejiang Sheng,Hangzhou,Centroid Admin1,12/04/2013,21/04/2013,Confirmed,Influenza - Avian,H7N9 LPAI,,,,,,,,,1,0
175519,National authorities,31.19047,121.41822,Asia,China,Shanghai Shi,Shangai City,Centroid Admin1,13/04/2013,20/04/2013,Confirmed,Influenza - Avian,H7N9 LPAI,,,,,,,,,1,0
175518,National authorities,30.2552778,120.1688889,Asia,China,Zhejiang Sheng,Hangzhou,Centroid Admin1,30/03/2013,20/04/2013,Confirmed,Influenza - Avian,H7N9 LPAI,,,,,,,,,1,0
175517,National authorities,30.2552778,120.1688889,Asia,China,Zhejiang Sheng,Hangzhou,Centroid Admin1,14/04/2013,20/04/2013,Confirmed,Influenza - Avian,H7N9 LPAI,,,,,,,,,1,0
175516,National authorities,30.2552778,120.1688889,Asia,China,Zhejiang Sheng,Hangzhou,Centroid Admin1,11/04/2013,20/04/2013,Confirmed,Influenza - Avian,H7N9 LPAI,,,,,,,,,1,1
175515,National authorities,32.0616667,118.7777778,Asia,China,Jiangsu Sheng,Nanjing,Centroid Admin1,07/04/2013,20/04/2013,Confirmed,Influenza - Avian,H7N9 LPAI,,,,,,,,,1,1
175514,National authorities,30.8661111,120.0963889,Asia,China,Zhejiang Sheng,Huzhou,Centroid Admin1,10/04/2013,19/04/2013,Confirmed,Influenza - Avian,H7N9 LPAI,,,,,,,,,1,0
175513,National authorities,30.2552778,120.1688889,Asia,China,Zhejiang Sheng,Hangzhou,Centroid Admin1,11/04/2013,19/04/2013,Confirmed,Influenza - Avian,H7N9 LPAI,,,,,,,,,1,0
175512,National authorities,30.2552778,120.1688889,Asia,China,Zhejiang Sheng,Hangzhou,Centroid Admin1,12/04/2013,19/04/2013,Confirmed,Influenza - Avian,H7N9 LPAI,,,,,,,,,1,0
175511,National authorities,32.0616667,118.7777778,Asia,China,Jiangsu Sheng,Nanjing,Centroid Admin1,09/04/2013,19/04/2013,Confirmed,Influenza - Avian,H7N9 LPAI,,,,,,,,,1,1
175510,National authorities,30.2552778,120.1688889,Asia,China,Zhejiang Sheng,Hangzhou,Centroid Admin1,11/04/2013,18/04/2013,Confirmed,Influenza - Avian,H7N9 LPAI,,,,,,,,,1,1
175509,National authorities,30.7655556,120.7483333,Asia,China,Zhejiang Sheng,Jiaxing,Centroid Admin1,13/04/2013,18/04/2013,Confirmed,Influenza - Avian,H7N9 LPAI,,,,,,,,,1,0
175508,National authorities,31.19047,121.41822,Asia,China,Shanghai Shi,Shangai City,Centroid Admin1,09/04/2013,18/04/2013,Confirmed,Influenza - Avian,H7N9 LPAI,,,,,,,,,1,0
175507,National authorities,32.0616667,118.7777778,Asia,China,Jiangsu Sheng,Nanjing,Centroid Admin1,,18/04/2013,Confirmed,Influenza - Avian,H7N9 LPAI,,,,,,,,,1,1
175506,National authorities,34.7577778,113.6486111,Asia,China,Henan Sheng,Zhengzhou,Centroid Admin1,,18/04/2013,Confirmed,Influenza - Avian,H7N9 LPAI,,,,,,,,,1,0
175505,National authorities,30.8661111,120.0963889,Asia,China,Zhejiang Sheng,Huzhou,Centroid Admin1,14/04/2013,17/04/2013,Confirmed,Influenza - Avian,H7N9 LPAI,,,,,,,,,1,0
175504,National authorities,30.2552778,120.1688889,Asia,China,Zhejiang Sheng,Hangzhou,Centroid Admin1,13/04/2013,17/04/2013,Confirmed,Influenza - Avian,H7N9 LPAI,,,,,,,,,1,0
175503,National authorities,30.2552778,120.1688889,Asia,China,Zhejiang Sheng,Hangzhou,Centroid Admin1,08/04/2013,17/04/2013,Confirmed,Influenza - Avian,H7N9 LPAI,,,,,,,,,1,0
175502,National authorities,30.2552778,120.1688889,Asia,China,Zhejiang Sheng,Hangzhou,Centroid Admin1,11/04/2013,17/04/2013,Confirmed,Influenza - Avian,H7N9 LPAI,,,,,,,,,1,0
175501,National authorities,31.19047,121.41822,Asia,China,Shanghai Shi,Shangai City,Centroid Admin1,12/04/2013,17/04/2013,Confirmed,Influenza - Avian,H7N9 LPAI,,,,,,,,,1,0
175500,National authorities,31.19047,121.41822,Asia,China,Shanghai Shi,Shangai City,Centroid Admin1,10/04/2013,16/04/2013,Confirmed,Influenza - Avian,H7N9 LPAI,,,,,,,,,1,0
175498,National authorities,30.2552778,120.1688889,Asia,China,Zhejiang Sheng,Hangzhou,Centroid Admin1,10/04/2013,16/04/2013,Confirmed,Influenza - Avian,H7N9 LPAI,,,,,,,,,1,0
175497,National authorities,30.2552778,120.1688889,Asia,China,Zhejiang Sheng,Hangzhou,Centroid Admin1,10/04/2013,16/04/2013,Confirmed,Influenza - Avian,H7N9 LPAI,,,,,,,,,1,0
175496,National authorities,30.2552778,120.1688889,Asia,China,Zhejiang Sheng,Hangzhou,Centroid Admin1,11/04/2013,16/04/2013,Confirmed,Influenza - Avian,H7N9 LPAI,,,,,,,,,1,0
175495,National authorities,30.2552778,120.1688889,Asia,China,Zhejiang Sheng,Hangzhou,Centroid Admin1,10/04/2013,16/04/2013,Confirmed,Influenza - Avian,H7N9 LPAI,,,,,,,,,1,0
175494,National authorities,30.2552778,120.1688889,Asia,China,Zhejiang Sheng,Hangzhou,Centroid Admin1,12/04/2013,16/04/2013,Confirmed,Influenza - Avian,H7N9 LPAI,,,,,,,,,1,0
175493,National authorities,31.3113889,120.6180556,Asia,China,Jiangsu Sheng,Suzhou,Centroid Admin1,,16/04/2013,Confirmed,Influenza - Avian,H7N9 LPAI,,,,,,,,,1,0
175492,National authorities,31.3844444,120.9513889,Asia,China,Jiangsu Sheng,Kunshan,Centroid Admin1,,16/04/2013,Confirmed,Influenza - Avian,H7N9 LPAI,,,,,,,,,1,0
175491,National authorities,32.0616667,118.7777778,Asia,China,Jiangsu Sheng,Nanjing,Exact,,16/04/2013,Confirmed,Influenza - Avian,H7N9 LPAI,,,,,,,,,1,0
175490,National authorities,32.6939474,118.9663891,Asia,China,Anhui Sheng,Tianchang,Centroid Admin1,10/04/2013,15/04/2013,Confirmed,Influenza - Avian,H7N9 LPAI,,,,,,,,,1,0
175489,National authorities,30.8661111,120.0963889,Asia,China,Zhejiang Sheng,Huzhou,Centroid Admin1,03/04/2013,15/04/2013,Confirmed,Influenza - Avian,H7N9 LPAI,,,,,,,,,1,0
175488,National authorities,31.3844444,120.9513889,Asia,China,Jiangsu Sheng,Kunshan,Centroid Admin1,06/04/2013,15/04/2013,Confirmed,Influenza - Avian,H7N9 LPAI,,,,,,,,,1,1
175487,National authorities,31.19047,121.41822,Asia,China,Shanghai Shi,Shangai City,Centroid Admin1,05/04/2013,14/04/2013,Confirmed,Influenza - Avian,H7N9 LPAI,,,,,,,,,1,0
175486,National authorities,31.19047,121.41822,Asia,China,Shanghai Shi,Shangai City,Centroid Admin1,08/04/2013,14/04/2013,Confirmed,Influenza - Avian,H7N9 LPAI,,,,,,,,,1,0
175485,National authorities,31.19047,121.41822,Asia,China,Shanghai Shi,Shangai City,Centroid Admin1,05/04/2013,14/04/2013,Confirmed,Influenza - Avian,H7N9 LPAI,,,,,,,,,1,0
175484,National authorities,33.3855556,120.1252778,Asia,China,Jiangsu Sheng,Yancheng,Centroid Admin1,,14/04/2013,Confirmed,Influenza - Avian,H7N9 LPAI,,,,,,,,,1,0
175483,National authorities,32.0616667,118.7777778,Asia,China,Jiangsu Sheng,Nanjing,Centroid Admin1,,14/04/2013,Confirmed,Influenza - Avian,H7N9 LPAI,,,,,,,,,1,0
175482,National authorities,30.2552778,120.1688889,Asia,China,Zhejiang Sheng,Hangzhou,Centroid Admin1,09/04/2013,14/04/2013,Confirmed,Influenza - Avian,H7N9 LPAI,,,,,,,,,1,0
175481,National authorities,32.0616667,118.7777778,Asia,China,Jiangsu Sheng,Nanjing,Centroid Admin1,09/04/2013,14/04/2013,Confirmed,Influenza - Avian,H7N9 LPAI,,,,,,,,,1,0
175480,National authorities,30.8661111,120.0963889,Asia,China,Zhejiang Sheng,Huzhou,Centroid Admin1,29/03/2013,14/04/2013,Confirmed,Influenza - Avian,H7N9 LPAI,,,,,,,,,1,1
175479,National authorities,30.8661111,120.0963889,Asia,China,Zhejiang Sheng,Huzhou,Centroid Admin1,06/03/2013,14/04/2013,Confirmed,Influenza - Avian,H7N9 LPAI,,,,,,,,,1,0
175478,National authorities,33.6333333,114.6333333,Asia,China,Henan Sheng,Zhoukou,Centroid Admin1,10/04/2013,14/04/2013,Confirmed,Influenza - Avian,H7N9 LPAI,,,,,,,,,1,0
175477,National authorities,34.7911111,114.3483333,Asia,China,Henan Sheng,Kaifeng,Centroid Admin1,06/04/2013,14/04/2013,Confirmed,Influenza - Avian,H7N9 LPAI,,,,,,,,,1,0
175476,National authorities,30.2552778,120.1688889,Asia,China,Zhejiang Sheng,Hangzhou,Centroid Admin1,06/04/2013,13/04/2013,Confirmed,Influenza - Avian,H7N9 LPAI,,,,,,,,,1,0
175475,National authorities,30.2552778,120.1688889,Asia,China,Zhejiang Sheng,Hangzhou,Centroid Admin1,03/04/2013,13/04/2013,Confirmed,Influenza - Avian,H7N9 LPAI,,,,,,,,,1,0
175474,National authorities,31.19047,121.41822,Asia,China,Shanghai Shi,Shangai City,Centroid Admin1,01/04/2013,13/04/2013,Confirmed,Influenza - Avian,H7N9 LPAI,,,,,,,,,1,0
175473,National authorities,31.6441667,120.7380556,Asia,China,Jiangsu Sheng,Changshu,Centroid Admin1,01/04/2013,13/04/2013,Confirmed,Influenza - Avian,H7N9 LPAI,,,,,,,,,1,0
175472,National authorities,32.0616667,118.7777778,Asia,China,Jiangsu Sheng,Nanjing,Centroid Admin1,05/04/2013,13/04/2013,Confirmed,Influenza - Avian,H7N9 LPAI,,,,,,,,,1,1
175471,National authorities,40.18987,116.39589,Asia,China,Beijing Shi,Beijing City,Centroid Admin1,11/04/2013,13/04/2013,Confirmed,Influenza - Avian,H7N9 LPAI,,,,,,,,,1,0
175470,National authorities,30.8661111,120.0963889,Asia,China,Zhejiang Sheng,Huzhou,Centroid Admin1,06/04/2013,12/04/2013,Confirmed,Influenza - Avian,H7N9 LPAI,,,,,,,,,1,0
175469,National authorities,30.2552778,120.1688889,Asia,China,Zhejiang Sheng,Hangzhou,Centroid Admin1,06/04/2013,12/04/2013,Confirmed,Influenza - Avian,H7N9 LPAI,,,,,,,,,1,0
175468,National authorities,30.2552778,120.1688889,Asia,China,Zhejiang Sheng,Hangzhou,Centroid Admin1,08/04/2013,12/04/2013,Confirmed,Influenza - Avian,H7N9 LPAI,,,,,,,,,1,0
175467,National authorities,31.19047,121.41822,Asia,China,Shanghai Shi,Shangai City,Centroid Admin1,03/04/2013,12/04/2013,Confirmed,Influenza - Avian,H7N9 LPAI,,,,,,,,,1,0
175466,National authorities,31.19047,121.41822,Asia,China,Shanghai Shi,Shangai City,Centroid Admin1,03/04/2013,12/04/2013,Confirmed,Influenza - Avian,H7N9 LPAI,,,,,,,,,1,0
175465,National authorities,31.19047,121.41822,Asia,China,Shanghai Shi,Shangai City,Centroid Admin1,04/04/2013,11/04/2013,Confirmed,Influenza - Avian,H7N9 LPAI,,,,,,,,,1,0
175464,National authorities,31.19047,121.41822,Asia,China,Shanghai Shi,Shangai City,Centroid Admin1,02/04/2013,11/04/2013,Confirmed,Influenza - Avian,H7N9 LPAI,,,,,,,,,1,0
175463,National authorities,31.19047,121.41822,Asia,China,Shanghai Shi,Shangai City,Centroid Admin1,31/03/2013,11/04/2013,Confirmed,Influenza - Avian,H7N9 LPAI,,,,,,,,,1,1
175462,National authorities,33.6361111,116.9788889,Asia,China,Anhui Sheng,Suzhou,Centroid Admin1,03/04/2013,11/04/2013,Confirmed,Influenza - Avian,H7N9 LPAI,,,,,,,,,1,0
175461,National authorities,32.3972222,119.4358333,Asia,China,Jiangsu Sheng,Yangzhou,Centroid Admin1,31/03/2013,11/04/2013,Confirmed,Influenza - Avian,H7N9 LPAI,,,,,,,,,1,0
175460,National authorities,31.19047,121.41822,Asia,China,Shanghai Shi,Shangai City,Centroid Admin1,04/04/2013,10/04/2013,Confirmed,Influenza - Avian,H7N9 LPAI,,,,,,,,,1,0
175459,National authorities,31.19047,121.41822,Asia,China,Shanghai Shi,Shangai City,Centroid Admin1,02/04/2013,10/04/2013,Confirmed,Influenza - Avian,H7N9 LPAI,,,,,,,,,1,0
175458,National authorities,31.5772222,120.2938889,Asia,China,Jiangsu Sheng,Wuxi,Centroid Admin1,02/04/2013,10/04/2013,Confirmed,Influenza - Avian,H7N9 LPAI,,,,,,,,,1,0
175457,National authorities,31.5772222,120.2938889,Asia,China,Jiangsu Sheng,Wuxi,Centroid Admin1,29/03/2013,10/04/2013,Confirmed,Influenza - Avian,H7N9 LPAI,,,,,,,,,1,0
175456,National authorities,30.2552778,120.1688889,Asia,China,Zhejiang Sheng,Hangzhou,Centroid Admin1,03/04/2013,10/04/2013,Confirmed,Influenza - Avian,H7N9 LPAI,,,,,,,,,1,0
175455,National authorities,30.2552778,120.1688889,Asia,China,Zhejiang Sheng,Hangzhou,Centroid Admin1,29/03/2013,09/04/2013,Confirmed,Influenza - Avian,H7N9 LPAI,,,,,,,,,1,1
175454,National authorities,30.8661111,120.0963889,Asia,China,Zhejiang Sheng,Huzhou,Centroid Admin1,13/03/2013,09/04/2013,Confirmed,Influenza - Avian,H7N9 LPAI,,,,,,,,,1,0
175453,National authorities,31.19047,121.41822,Asia,China,Shanghai Shi,Shangai City,Centroid Admin1,03/04/2013,09/04/2013,Confirmed,Influenza - Avian,H7N9 LPAI,,,,,,,,,1,0
175452,National authorities,31.19047,121.41822,Asia,China,Shanghai Shi,Shangai City,Centroid Admin1,01/04/2013,09/04/2013,Confirmed,Influenza - Avian,H7N9 LPAI,,,,,,,,,1,0
175451,National authorities,32.2091667,119.4341667,Asia,China,Jiangsu Sheng,Zhenjiang,Centroid Admin1,30/03/2013,08/04/2013,Confirmed,Influenza - Avian,H7N9 LPAI,,,,,,,,,1,1
175450,National authorities,32.0616667,118.7777778,Asia,China,Jiangsu Sheng,Nanjing,Centroid Admin1,28/03/2013,08/04/2013,Confirmed,Influenza - Avian,H7N9 LPAI,,,,,,,,,1,0
175449,National authorities,31.19047,121.41822,Asia,China,Shanghai Shi,Shangai City,Centroid Admin1,,08/04/2013,Confirmed,Influenza - Avian,H7N9 LPAI,,,,,,,,,1,1
175448,National authorities,33.8772222,115.7702778,Asia,China,Anhui Sheng,Bozhou,Centroid Admin1,28/03/2013,07/04/2013,Confirmed,Influenza - Avian,H7N9 LPAI,,,,,,,,,1,0
175447,National authorities,31.2333333,121.4666667,Asia,China,Shanghai Shi,Shanghai Shi,Centroid Admin1,29/03/2013,07/04/2013,Confirmed,Influenza - Avian,H7N9 LPAI,,,,,,,,,1,0
175446,National authorities,31.2333333,121.4666667,Asia,China,Shanghai Shi,Shanghai Shi,Centroid Admin1,25/03/2013,07/04/2013,Confirmed,Influenza - Avian,H7N9 LPAI,,,,,,,,,1,0
175445,National authorities,31.19047,121.41822,Asia,China,Shanghai Shi,Shangai City,Centroid Admin1,29/03/2013,05/04/2013,Confirmed,Influenza - Avian,H7N9 LPAI,,,,,,,,,1,0
175444,National authorities,31.19047,121.41822,Asia,China,Shanghai Shi,Shangai City,Centroid Admin1,28/03/2013,05/04/2013,Confirmed,Influenza - Avian,H7N9 LPAI,,,,,,,,,1,1
175443,National authorities,31.2333333,121.4666667,Asia,China,Shanghai Shi,Shanghai Shi,Centroid Admin1,27/03/2013,04/04/2013,Confirmed,Influenza - Avian,H7N9 LPAI,,,,,,,,,1,1
175442,National authorities,31.2333333,121.4666667,Asia,China,Shanghai Shi,Shanghai Shi,Centroid Admin1,31/03/2013,04/04/2013,Confirmed,Influenza - Avian,H7N9 LPAI,,,,,,,,,1,0
175441,National authorities,31.2333333,121.4666667,Asia,China,Shanghai Shi,Shanghai Shi,Centroid Admin1,24/03/2013,04/04/2013,Confirmed,Influenza - Avian,H7N9 LPAI,,,,,,,,,1,1
175440,National authorities,30.8661111,120.0963889,Asia,China,Zhejiang Sheng,Huzhou,Exact,29/03/2013,04/04/2013,Confirmed,Influenza - Avian,H7N9 LPAI,,,,,,,,,1,1
175438,OIE,28.65,80.758,Asia,Nepal,Far Western,Gadariya ,Unknown,11/04/2013,17/04/2013,Confirmed,Influenza - Avian,H5N1 HPAI,"domestic, chicken",1500,259,259,1241,0,,,,
175437,FAO Field Officer,31.048825,31.528706,Africa,Egypt,Dakahlia,Al Daqahliyah (dakahlia),Centroid Admin1,30/03/2013,17/04/2013,Confirmed,Influenza - Avian,H5N1 HPAI,,,,,,,,,1,1
175436,OIE,56.115709,27.77632,Europe,Latvia,Kraslavas,Svarinu parish ,Unknown,01/03/2013,11/03/2013,Confirmed,Classical swine fever,,"wild, wild boar",,1,0,1,0,,,,
175435,OIE,56.041332,27.687451,Europe,Latvia,Kraslavas,Asunes parish ,Unknown,01/03/2013,11/03/2013,Confirmed,Classical swine fever,,"wild, wild boar",,1,0,1,0,,,,
175434,OIE,56.234417,27.742681,Europe,Latvia,Ludzas,Rundenu parish ,Unknown,04/03/2013,11/03/2013,Confirmed,Classical swine fever,,"wild, wild boar",,2,0,2,0,,,,
175433,OIE,56.034558,27.764382,Europe,Latvia,Kraslavas,Kepovas parish 3 ,Unknown,19/02/2013,11/03/2013,Confirmed,Classical swine fever,,"wild, wild boar",,1,0,1,0,,,,
175432,OIE,56.095413,27.912064,Europe,Latvia,Kraslavas,Berzinu parish ,Unknown,01/03/2013,11/03/2013,Confirmed,Classical swine fever,,"wild, wild boar",,1,0,1,0,,,,
175431,OIE,56.652432,27.98394,Europe,Latvia,Ludzas,Lidumnieku parish ,Unknown,27/02/2013,11/03/2013,Confirmed,Classical swine fever,,"wild, wild boar",,1,0,1,0,,,,
175430,OIE,56.107091,27.673852,Europe,Latvia,Kraslavas,Ezernieku parish ,Unknown,26/02/2013,11/03/2013,Confirmed,Classical swine fever,,"wild, wild boar",,1,0,1,0,,,,
175429,OIE,56.14632,27.923033,Europe,Latvia,Kraslavas,Berzinu parish ,Unknown,26/02/2013,11/03/2013,Confirmed,Classical swine fever,,"wild, wild boar",,1,0,1,0,,,,
175427,OIE,39.66,21.77,Europe,Greece,Thessalia,Platanos ,Unknown,04/04/2013,15/04/2013,Confirmed,Rabies,,"wild, wild fox",,1,1,0,0,,,,
175426,OIE,41.07,23.6,Europe,Greece,Kentriki Makedonia,Parochthio ,Unknown,22/03/2013,15/04/2013,Confirmed,Rabies,,"wild, wild fox",,1,1,0,0,,,,
175425,OIE,39.71,21.71,Europe,Greece,Thessalia,Helimodi ,Unknown,20/03/2013,15/04/2013,Confirmed,Rabies,,"wild, wild fox",,1,1,0,0,,,,
175424,OIE,30.84,120.1,Asia,China,Zhejiang Sheng,Daoxiang live birdmarket,Unknown,16/04/2013,16/04/2013,Confirmed,Influenza - Avian,H7N9 LPAI,"domestic, chicken",,3,0,,0,,,,
175423,OIE,32.01,118.79,Asia,China,Jiangsu Sheng,Qinhuai ,Unknown,16/04/2013,16/04/2013,Confirmed,Influenza - Avian,H7N9 LPAI,"domestic, pigeon",,1,0,,0,,,,
175422,OIE,30.89,120.08,Asia,China,Zhejiang Sheng,Zhebei live bird market ,Unknown,16/04/2013,16/04/2013,Confirmed,Influenza - Avian,H7N9 LPAI,"domestic, chicken",,1,0,,0,,,,
175421,OIE,37.07,80.18,Asia,China,Xinjiang Uygur Zizhiqu,Hailipaiquke Village,Unknown,08/04/2013,16/04/2013,Confirmed,Foot and mouth disease,A,"domestic, cattle",12,12,0,12,0,,,,
175420,National authorities,-13.176969,-74.047066,Americas,Peru,Ayacucho,ACOS VINCHOS,Unknown,,10/04/2013,Confirmed,Rabies,,"domestic, cattle",3,1,1,,,,,,
175416,OIE,-33.58164,22.30326,Africa,South Africa,Western Cape,LPAI_2012_015,Unknown,15/03/2013,15/04/2013,Confirmed,Influenza - Avian,H7N1 LPAI,"domestic, ostrich",3719,1674,0,0,0,,,,
175415,OIE,-33.58598,22.29989,Africa,South Africa,Western Cape,LPAI_2012_016,Unknown,28/02/2013,15/04/2013,Confirmed,Influenza - Avian,H7N1 LPAI,"domestic, ostrich",2815,395,0,0,0,,,,
175414,OIE,-32.21083333,25.78806,Africa,South Africa,Eastern Cape,LPAI_2012_009,Unknown,30/11/2012,15/04/2013,Confirmed,Influenza - Avian,H7N1 LPAI,"domestic, ostrich",30,26,0,0,0,,,,
175413,OIE,-32.84,21.97136,Africa,South Africa,Western Cape,LPAI_2012_010,Unknown,22/08/2012,15/04/2013,Confirmed,Influenza - Avian,H7N1 LPAI,"domestic, ostrich",1210,786,0,0,1210,,,,
175412,OIE,-33.48803,22.59692,Africa,South Africa,Western Cape,LPAI_2012_012,Unknown,22/08/2012,15/04/2013,Confirmed,Influenza - Avian,H7N1 LPAI,"domestic, ostrich",290,54,0,0,0,,,,
175411,OIE,-33.37239,23.86272,Africa,South Africa,Eastern Cape,LPAI_2012_008,Unknown,19/07/2012,15/04/2013,Confirmed,Influenza - Avian,H7N1 LPAI,"domestic, ostrich",174,7,0,0,0,,,,
175410,OIE,-33.19575,22.05961,Africa,South Africa,Western Cape,LPAI_2012_011,Unknown,04/06/2012,15/04/2013,Confirmed,Influenza - Avian,H7N1 LPAI,"domestic, ostrich",1015,347,0,0,985,,,,
175409,OIE,-34.17161,21.54875,Africa,South Africa,Western Cape,LPAI_2012_014,Unknown,16/04/2012,15/04/2013,Confirmed,Influenza - Avian,H7N1 LPAI,"domestic, ostrich",647,53,0,0,0,,,,
175408,OIE,-33.83056,22.51917,Africa,South Africa,Western Cape,LPAI_2012_013,Unknown,24/02/2012,15/04/2013,Confirmed,Influenza - Avian,H7N1 LPAI,"domestic, ostrich",1402,26,0,0,0,,,,
175407,OIE,-34.23811,21.89575,Africa,South Africa,Western Cape,LPAI_2012_H5N2_006,Unknown,17/10/2012,15/04/2013,Confirmed,Influenza - Avian,H5N2 LPAI,"domestic, ostrich",1012,466,0,0,0,,,,
175406,OIE,-34.30721,20.79046,Africa,South Africa,Western Cape,LPAI_2012_H5N2_005,Unknown,02/10/2012,15/04/2013,Confirmed,Influenza - Avian,H5N2 LPAI,"domestic, ostrich",868,87,0,0,757,,,,
175405,OIE,-34.10786,21.51975,Africa,South Africa,Western Cape,LPAI_2012_H5N2_007,Unknown,28/09/2012,15/04/2013,Confirmed,Influenza - Avian,H5N2 LPAI,"domestic, ostrich",835,56,0,0,0,,,,
175404,OIE,-34.21596,20.77272,Africa,South Africa,Western Cape,LPAI_2012_H5N2_009,Unknown,04/09/2012,15/04/2013,Confirmed,Influenza - Avian,H5N2 LPAI,"domestic, ostrich",1108,52,0,0,0,,,,
175403,OIE,-33.30639,22.47667,Africa,South Africa,Western Cape,LPAI_2012_H5N2_004,Unknown,28/08/2012,15/04/2013,Confirmed,Influenza - Avian,H5N2 LPAI,"domestic, ostrich",2384,360,0,0,0,,,,
175402,OIE,-34.283333,20.8333,Africa,South Africa,Western Cape,LPAI_2012_H5N2_008,Unknown,04/07/2012,15/04/2013,Confirmed,Influenza - Avian,H5N2 LPAI,"domestic, ostrich",290,67,0,0,0,,,,
175401,OIE,-33.53213,22.81528,Africa,South Africa,Western Cape,LPAI_2012_H5N2_003 ,Unknown,28/06/2012,15/04/2013,Confirmed,Influenza - Avian,H5N2 LPAI,"domestic, ostrich",622,385,0,0,622,,,,
175400,OIE,-34.2879,20.7121,Africa,South Africa,Western Cape,AI_WCP2011_53,Unknown,03/07/2012,15/04/2013,Confirmed,Influenza - Avian,H5N2 HPAI,"domestic, ostrich",1229,286,0,0,0,,,,
175399,OIE,-34.16269,20.94089,Africa,South Africa,Western Cape,AI_WCP2011_55  ,Unknown,01/06/2012,15/04/2013,Confirmed,Influenza - Avian,H5N2 HPAI,"domestic, ostrich",387,142,0,0,387,,,,
175398,OIE,56.032926,27.762821,Europe,Latvia,Kraslavas,Kepovas parish 1,Unknown,19/02/2013,11/03/2013,Confirmed,Classical swine fever,,"wild, wild boar",,6,0,6,0,,,,
175397,OIE,55.997763,27.737767,Europe,Latvia,Kraslavas,Kepovas parish 2,Unknown,19/02/2013,11/03/2013,Confirmed,Classical swine fever,,"wild, wild boar",,1,0,1,0,,,,
175396,OIE,55.988765,27.800134,Europe,Latvia,Kraslavas,Kepovas parish 4  ,Unknown,19/02/2013,11/03/2013,Confirmed,Classical swine fever,,"wild, wild boar",,1,0,1,0,,,,
175395,OIE,56.23482,28.165946,Europe,Latvia,Ludzas,Pasienes parish 1  ,Unknown,14/02/2013,11/03/2013,Confirmed,Classical swine fever,,"wild, wild boar",,2,0,2,0,,,,
175394,OIE,56.23484,28.165946,Europe,Latvia,Ludzas,Pasienes parish  ,Unknown,14/02/2013,11/03/2013,Confirmed,Classical swine fever,,"wild, wild boar",,2,0,2,0,,,,
175393,OIE,56.134999,27.79789,Europe,Latvia,Kraslavas,Svarinu parish ,Unknown,14/02/2013,11/03/2013,Confirmed,Classical swine fever,,"wild, wild boar",,1,0,1,0,,,,
175392,OIE,56.073788,27.504264,Europe,Latvia,Kraslavas,Dagdas parish  ,Unknown,14/02/2013,11/03/2013,Confirmed,Classical swine fever,,"wild, wild boar",,1,0,1,0,,,,
175391,OIE,56.091986,27.900019,Europe,Latvia,Kraslavas,Berzinu parish ,Unknown,12/02/2013,11/03/2013,Confirmed,Classical swine fever,,"wild, wild boar",,1,0,1,0,,,,
175390,OIE,56.133081,27.862577,Europe,Latvia,Kraslavas,Skaunes parish  ,Unknown,12/02/2013,11/03/2013,Confirmed,Classical swine fever,,"wild, wild boar",,1,0,1,0,,,,
175389,OIE,56.107091,27.673852,Europe,Latvia,Kraslavas,Ezernieku parish  ,Unknown,10/02/2013,11/03/2013,Confirmed,Classical swine fever,,"wild, wild boar",,3,0,3,0,,,,
175388,FAO Field Officer,11.601536,108.973523,Asia,Viet Nam,Ninh Thuan,Phan Rang City ,Centroid Admin2,,15/04/2013,Confirmed,Influenza - Avian,H5N1 HPAI,"wild, swallow",,,,,,,,,
175387,OIE,56.18575,27.816839,Europe,Latvia,Kraslavas,Kepovas parish 1,Unknown,09/02/2013,11/03/2013,Confirmed,Classical swine fever,,"wild, wild boar",,1,0,1,0,,,,
175386,OIE,56.032926,27.762821,Europe,Latvia,Kraslavas,Kepovas parish 2 ,Unknown,09/02/2013,11/03/2013,Confirmed,Classical swine fever,,"wild, wild boar",,1,0,1,0,,,,
175385,OIE,56.111424,27.771234,Europe,Latvia,Kraslavas,Svarinu parish 2 ,Unknown,04/02/2013,11/03/2013,Confirmed,Classical swine fever,,"wild, wild boar",,2,0,2,0,,,,
175384,OIE,56.055781,27.540313,Europe,Latvia,Kraslavas,Dagdas parish  ,Unknown,04/02/2013,11/03/2013,Confirmed,Classical swine fever,,"wild, wild boar",,1,0,1,0,,,,
175383,OIE,56.082344,27.650774,Europe,Latvia,Kraslavas,Svarinu parish 4,Unknown,04/02/2013,11/03/2013,Confirmed,Classical swine fever,,"wild, wild boar",,1,0,1,0,,,,
175382,OIE,56.082344,27.650774,Europe,Latvia,Kraslavas,Svarinu parish 3 ,Unknown,04/02/2013,11/03/2013,Confirmed,Classical swine fever,,"wild, wild boar",,1,0,1,0,,,,
175381,OIE,56.044526,27.650496,Europe,Latvia,Kraslavas,Svarinu parish 1 ,Unknown,04/02/2013,11/03/2013,Confirmed,Classical swine fever,,"wild, wild boar",,1,0,1,0,,,,
175380,OIE,56.234417,27.742681,Europe,Latvia,Ludzas,Rundenu parish  ,Unknown,29/01/2013,11/03/2013,Confirmed,Classical swine fever,,"wild, wild boar",,1,0,1,0,,,,
175379,OIE,56.018187,27.180194,Europe,Latvia,Kraslavas,Kombulu parish  ,Unknown,29/01/2013,11/03/2013,Confirmed,Classical swine fever,,"wild, wild boar",,1,0,1,0,,,,
175378,OIE,56.095893,27.729535,Europe,Latvia,Kraslavas,Svarinu parish  ,Unknown,29/01/2013,11/03/2013,Confirmed,Classical swine fever,,"wild, wild boar",,1,0,1,0,,,,
175377,OIE,56.095576,27.688581,Europe,Latvia,Kraslavas,Svarinu parish  ,Unknown,29/01/2013,11/03/2013,Confirmed,Classical swine fever,,"wild, wild boar",,2,0,2,0,,,,
175376,OIE,56.095893,27.729535,Europe,Latvia,Kraslavas,Svarinu parish  ,Unknown,29/01/2013,11/03/2013,Confirmed,Classical swine fever,,"wild, wild boar",,4,0,4,0,,,,
175375,OIE,56.065601,27.563363,Europe,Latvia,Kraslavas,Dagdas parish  ,Unknown,29/01/2013,11/03/2013,Confirmed,Classical swine fever,,"wild, wild boar",,1,0,1,0,,,,
175374,OIE,56.18188,28.050485,Europe,Latvia,Kraslavas,Skaunes parish  ,Unknown,25/01/2013,11/03/2013,Confirmed,Classical swine fever,,"wild, wild boar",,2,0,2,0,,,,
175373,OIE,56.11928,27.781542,Europe,Latvia,Kraslavas,Svarinu parish  ,Unknown,22/01/2013,11/03/2013,Confirmed,Classical swine fever,,"wild, wild boar",,1,0,1,0,,,,
175372,OIE,56.130424,27.716715,Europe,Latvia,Kraslavas,Svarinu parish  ,Unknown,22/01/2013,11/03/2013,Confirmed,Classical swine fever,,"wild, wild boar",,4,0,4,0,,,,
175371,OIE,56.1244,27.612683,Europe,Latvia,Kraslavas,Dagdas parish  ,Unknown,21/01/2013,11/03/2013,Confirmed,Classical swine fever,,"wild, wild boar",,1,0,1,0,,,,
175370,OIE,56.036212,27.669975,Europe,Latvia,Kraslavas," Asunes parish  ",Unknown,18/01/2013,11/03/2013,Confirmed,Classical swine fever,,"wild, wild boar",,1,0,1,0,,,,
175369,OIE,56.18188,28.050485,Europe,Latvia,Kraslavas,Skaunes parish  ,Unknown,16/01/2013,11/03/2013,Confirmed,Classical swine fever,,"wild, wild boar",,2,0,2,0,,,,
175368,OIE,56.379946,27.805644,Europe,Latvia,Ludzas,Pildas parish  ,Unknown,16/01/2013,11/03/2013,Confirmed,Classical swine fever,,"wild, wild boar",,1,0,1,0,,,,
175367,OIE,56.134999,27.79789,Europe,Latvia,Kraslavas,Berzinu parish  ,Unknown,10/01/2013,11/03/2013,Confirmed,Classical swine fever,,"wild, wild boar",,2,0,2,0,,,,
175366,OIE,56.251619,28.141231,Europe,Latvia,Ludzas,Pasienes parish 2,Unknown,09/01/2013,11/03/2013,Confirmed,Classical swine fever,,"wild, wild boar",,1,0,1,0,,,,
175365,OIE,56.23482,28.165946,Europe,Latvia,Ludzas,Pasienes parish 1,Unknown,09/01/2013,11/03/2013,Confirmed,Classical swine fever,,"wild, wild boar",,1,0,1,0,,,,
175364,OIE,56.123501,27.805864,Europe,Latvia,Kraslavas,Svarinu parish  ,Unknown,08/01/2013,11/03/2013,Confirmed,Classical swine fever,,"wild, wild boar",,1,0,1,0,,,,
175363,OIE,56.22135,27.98183,Europe,Latvia,Ludzas,Istras parish  ,Unknown,08/01/2013,11/03/2013,Confirmed,Classical swine fever,,"wild, wild boar",,1,0,1,0,,,,
175362,OIE,56.016442,27.502789,Europe,Latvia,Kraslavas,Asunes parish  ,Unknown,08/01/2013,11/03/2013,Confirmed,Classical swine fever,,"wild, wild boar",,1,0,1,0,,,,
175361,OIE,56.016442,27.502789,Europe,Latvia,Kraslavas,Asunes parish  ,Unknown,08/01/2013,11/03/2013,Confirmed,Classical swine fever,,"wild, wild boar",,3,0,3,0,,,,
175360,OIE,55.815678,26.782244,Europe,Latvia,Daugavpils,Vecsalienas parish  ,Unknown,04/01/2013,11/03/2013,Confirmed,Classical swine fever,,"wild, wild boar",,1,0,1,0,,,,
175359,OIE,55.81903,26.873702,Europe,Latvia,Daugavpils,Salienas parish  ,Unknown,04/01/2013,11/03/2013,Confirmed,Classical swine fever,,"wild, wild boar",,1,0,1,0,,,,
175358,OIE,56.065794,27.564488,Europe,Latvia,Kraslavas,Dagdas parish  ,Unknown,02/01/2013,11/03/2013,Confirmed,Classical swine fever,,"wild, wild boar",,1,0,1,0,,,,
175357,OIE,40.99,22.71,Europe,Greece,Kentriki Makedonia,Horygi ,Unknown,07/03/2013,08/04/2013,Confirmed,Rabies,,"wild, red fox",,1,1,0,0,,,,
175356,OIE,41.0,22.66,Europe,Greece,Kentriki Makedonia,Vafeiohori ,Unknown,01/03/2013,08/04/2013,Confirmed,Rabies,,"wild, red fox",,1,1,0,0,,,,
175355,OIE,10.219673,1.105917,Africa,Benin,Atakora,koudogou,Centroid Admin2,09/04/2013,10/04/2013,Confirmed,Anthrax,,"domestic, cattle",4,1,1,0,0,,,,
175351,OIE,27.6648,84.4385,Asia,Nepal,Central,Bharatpur N P 8 ,Unknown,25/03/2013,11/04/2013,Confirmed,Influenza - Avian,H5N1 HPAI,"domestic, unspecified bird",4000,1800,1800,2200,0,,,,
175350,OIE,27.6841,84.3012,Asia,Nepal,Western,Mukundapur 7  ,Unknown,14/03/2013,11/04/2013,Confirmed,Influenza - Avian,H5N1 HPAI,"domestic, unspecified bird",1600,1600,1600,0,0,,,,
175349,OIE,26.5574,88.0624,Asia,Nepal,Eastern,Bhadrapur N P 10  ,Unknown,04/03/2013,11/04/2013,Confirmed,Influenza - Avian,H5N1 HPAI,"domestic, unspecified bird",111,30,30,81,0,,,,
175348,National authorities,-13.003619,-73.797212,Americas,Peru,Ayacucho,Anco,Centroid Admin2,,03/10/2006,Confirmed,Rabies,,"domestic, unspecified mammal",,1,,,,,,,
175347,National authorities,-4.451626,-81.066673,Americas,Peru,Piura,San Martín,Centroid Admin2,,03/10/2006,Confirmed,Classical swine fever,,"domestic, swine",,1,,,,,,,
175346,National authorities,-4.451626,-81.066673,Americas,Peru,Piura,Pueblo Nuevo,Centroid Admin2,,03/10/2006,Confirmed,Classical swine fever,,"domestic, swine",,21,,,,,,,
175345,National authorities,-6.829259,-79.574403,Americas,Peru,Lambayeque,José Leonardo Ortiz,Centroid Admin2,,27/09/2006,Confirmed,Classical swine fever,,"domestic, swine",,1,,,,,,,
175344,National authorities,-10.86443,-70.945856,Americas,Peru,Madre de Dios,Iberia,Centroid Admin2,,27/09/2006,Confirmed,Rabies,,"domestic, unspecified mammal",,6,,,,,,,
175343,National authorities,-12.197809,-69.586029,Americas,Peru,Madre de Dios," Las Piedras",Centroid Admin2,,27/09/2006,Confirmed,Rabies,,"domestic, unspecified mammal",,1,,,,,,,
175341,OIE,27.357,87.669,Asia,Nepal,Eastern,Fungling 3 ,Unknown,22/02/2013,06/04/2013,Confirmed,Influenza - Avian,H5N1 HPAI,"domestic, chicken",663,31,31,632,0,,,,
175340,OIE,30.89,120.08,Asia,China,Zhejiang Sheng,Zhebei live bird market  ,Unknown,10/04/2013,10/04/2013,Confirmed,Influenza - Avian,H7N9 LPAI,"domestic, unspecified bird",,2,0,,0,,,,
175339,OIE,31.82,117.22,Asia,China,Anhui Sheng,Huishangcheng live birdmarket,Unknown,10/04/2013,10/04/2013,Confirmed,Influenza - Avian,H7N9 LPAI,"domestic, unspecified bird",,1,0,,0,,,,
175338,OIE,33.03,119.65,Asia,China,Jiangsu Sheng,Beihai live bird market ,Unknown,10/04/2013,10/04/2013,Confirmed,Influenza - Avian,H7N9 LPAI,"domestic, unspecified bird",,2,0,,0,,,,
175337,OIE,32.78,119.46,Asia,China,Jiangsu Sheng,Yinqing live bird market  ,Unknown,10/04/2013,10/04/2013,Confirmed,Influenza - Avian,H7N9 LPAI,"domestic, unspecified bird",,8,0,,0,,,,
175336,OIE,31.66,120.74,Asia,China,Jiangsu Sheng,Xinzaocun live birdmarket ,Unknown,10/04/2013,10/04/2013,Confirmed,Influenza - Avian,H7N9 LPAI,"domestic, unspecified bird",,1,0,,0,,,,
175335,OIE,26.4487,88.0623,Asia,Nepal,Eastern,Prithivinagar 5  ,Unknown,04/03/2013,06/04/2013,Confirmed,Influenza - Avian,H5N1 HPAI,"domestic, unspecified bird",350,198,198,152,0,,,,
175334,OIE,26.5015,87.807,Asia,Nepal,Eastern,Kumarkhod 6,Unknown,12/02/2013,06/04/2013,Confirmed,Influenza - Avian,H5N1 HPAI,"domestic, unspecified bird",60,34,34,26,0,,,,
175333,OIE,26.5703,88.0971,Asia,Nepal,Eastern,Chandragadi 4 ,Unknown,24/02/2013,06/04/2013,Confirmed,Influenza - Avian,H5N1 HPAI,"domestic, unspecified bird",102,33,33,69,0,,,,
175332,National authorities,26.7211,88.1703,Asia,Nepal,Eastern,Bahundagi 1 ,Unknown,27/03/2013,06/04/2013,Confirmed,Influenza - Avian,H5N1 HPAI,"domestic, unspecified bird",4000,250,250,3750,0,,,,
175331,National authorities,26.6484,88.1523,Asia,Nepal,Eastern,Mechinagar-10,Unknown,30/03/2013,06/04/2013,Confirmed,Influenza - Avian,H5N1 HPAI,"domestic, chicken",15,6,6,0,0,,,,
175328,National authorities,32.05,118.766667,Asia,China,Jiangsu Sheng,Nanjing City,Centroid Locality,21/03/2013,05/04/2013,Confirmed,Influenza - Avian,H7N9 LPAI,,,,,,,,,1,
175327,National authorities,32.05,118.766667,Asia,China,Jiangsu Sheng,Nanjing City,Centroid Locality,20/03/2013,05/04/2013,Confirmed,Influenza - Avian,H7N9 LPAI,,,,,,,,,1,
175325,International reference laboratory,33.651496,72.958195,Asia,Pakistan,Islamabad,Islamabad,Centroid Admin2,05/11/2012,26/02/2013,Confirmed,Foot and mouth disease,A,"domestic, cattle",,,,,,,,,
175324,International reference laboratory,32.718046,74.037876,Asia,Pakistan,Punjab,Gujrat,Centroid Admin2,29/09/2012,26/02/2013,Confirmed,Foot and mouth disease,A,"domestic, cattle",,,,,,,,,
175323,International reference laboratory,28.483296,70.460541,Asia,Pakistan,Punjab,Rahim Yar Khan,Centroid Admin2,06/04/2012,26/02/2013,Confirmed,Foot and mouth disease,A,"domestic, cattle",,,,,,,,,
175321,OIE,40.99,22.71,Europe,Greece,Kentriki Makedonia,Horygi ,Unknown,07/03/2013,08/04/2013,Confirmed,Rabies,,"wild, red fox",,1,1,0,0,,,,
175320,OIE,41.0,22.66,Europe,Greece,Kentriki Makedonia,Vafeiohori,Unknown,01/03/2013,08/04/2013,Confirmed,Rabies,,"wild, red fox",,1,1,0,0,,,,
175319,OIE,32.5053021182,35.1478058654,Asia,Israel,Haifa,ME AMMI  ,Unknown,28/03/2013,07/04/2013,Confirmed,Newcastle disease,,"domestic, turkey",340000,3000,700,33300,0,,,,
175317,OIE,31.104125,121.357343,Asia,China,Shanghai Shi,Jingchuan market ,Unknown,05/04/2013,05/04/2013,Confirmed,Influenza - Avian,H7N9 LPAI,"domestic, chicken",,1,0,0,0,,,,
175316,OIE,31.098395,121.370231,Asia,China,Shanghai Shi,Fengzhuang market,Unknown,05/04/2013,05/04/2013,Confirmed,Influenza - Avian,H7N9 LPAI,"domestic, chicken, domestic, pigeon, domestic, unspecified bird",,8,0,0,0,,,,
175315,OIE,31.0,121.0,Asia,China,Shanghai Shi,Huhuai agriculturalproducts wholesalemarket ,Unknown,04/04/2013,04/04/2013,Confirmed,Influenza - Avian,H7N9 LPAI,"domestic, pigeon",,1,0,0,0,,,,
175314,OIE,43.11,44.44,Europe,Russian Federation,Severnaya Osetiya-alaniya Rep.,Village Nart  ,Unknown,23/03/2013,04/04/2013,Confirmed,African swine fever,,"domestic, swine",3,3,3,0,0,,,,
175313,OIE,43.11,44.25,Europe,Russian Federation,Severnaya Osetiya-alaniya Rep.,"Village Romanovo, Alagirsky raion",Unknown,18/03/2013,04/04/2013,Confirmed,African swine fever,,"domestic, swine",160,46,46,114,0,,,,
175312,OIE,50.3661,119.0763,Europe,Russian Federation,Chitinskaya Oblast,Village Priargunsk  ,Unknown,28/03/2013,04/04/2013,Confirmed,Foot and mouth disease,A,"domestic, cattle, domestic, goat/sheep , domestic, swine",2505,19,0,0,0,,,,
175311,OIE,50.0086,118.9297,Europe,Russian Federation,Chitinskaya Oblast,Village Duroi  ,Unknown,28/03/2013,04/04/2013,Confirmed,Foot and mouth disease,A,"domestic, cattle, domestic, goat/sheep ",12052,380,0,0,0,,,,
175310,OIE,50.913,119.4887,Europe,Russian Federation,Chitinskaya Oblast,Village Srednyaya -Borsya ,Unknown,25/03/2013,04/04/2013,Confirmed,Foot and mouth disease,A,"domestic, cattle, domestic, swine, domestic, goat/sheep ",2160,283,0,0,0,,,,
175309,National authorities,18.435325,105.720489,Asia,Viet Nam,Ha Tinh,Vuong Loc commune ,Centroid Admin2,,22/03/2013,Confirmed,Foot and mouth disease,,"domestic, cattle, domestic, swine",,,,,,,,,
175308,National authorities,18.530159,105.706459,Asia,Viet Nam,Ha Tinh,Ha Tinh (Dau ien Cmmune),Centroid Locality,,22/03/2013,Confirmed,Foot and mouth disease,,"domestic, cattle, domestic, swine",,,,,,,,,
175307,National authorities,-10.0701,-78.1342,Americas,Peru,Ancash," EL ARENAL",Unknown,,26/03/2013,Confirmed,Classical swine fever,,"domestic, swine",27,4,1,,,,,,
175306,National authorities,-13.007001,-73.964939,Americas,Peru,Ayacucho,SAN MIGUEL,Unknown,,26/03/2013,Confirmed,Rabies,,"domestic, cattle, domestic, equidae, domestic, swine, domestic, sheep",10,1,1,,,,,,
175305,National authorities,-13.88552,-72.90947,Americas,Peru,Apurímac,CIRCA,Unknown,,26/03/2013,Confirmed,Rabies,,"domestic, cattle",20,1,1,,,,,,
175304,National authorities,-6.06943,-76.917906,Americas,Peru,San Martín,MOYOBAMBA,Unknown,,26/03/2013,Confirmed,Rabies,,"domestic, cattle",21,2,2,,,,,,
175303,National authorities,-9.292018,-76.000257,Americas,Peru,Huánuco,RUPA-RUPA,Unknown,,26/03/2013,Confirmed,Rabies,,"domestic, cattle",1,1,1,,,,,,
175301,National authorities,31.19047,121.41822,Asia,China,Shanghai Shi,Shangai City,Centroid Locality,03/04/2013,04/04/2013,Confirmed,Influenza - Avian,H7N9 LPAI,,,,,,,,,1,1
175300,National authorities,29.83333,31.25,Africa,Egypt,Giza,Elshinbab,Centroid Locality,25/03/2013,26/03/2013,Confirmed,Influenza - Avian,H5N1 HPAI,"domestic, chicken",,30,,30,,,,,
175299,National authorities,30.126333,32.481525,Africa,Egypt,Suez,Elganayen,Centroid Locality,20/03/2013,21/03/2013,Confirmed,Influenza - Avian,H5N1 HPAI,"domestic, chicken",,70,,70,,,,,
175298,FAO Field Officer,27.683333,84.433333,Asia,Nepal,Central,Chitwan (Milan Poultry Farm at Gauriganj),Centroid Locality,,04/04/2013,Confirmed,Influenza - Avian,H5N1 HPAI,"domestic, chicken",,,,,,,,,
175297,National authorities,37.533756,138.925213,Asia,Japan,Niigata,Niigata,Centroid Locality,15/03/2013,30/03/2013,Denied,Influenza - Avian,H5N1 HPAI,"wild, whooper swan",,,1,,,,,,
175295,National authorities,30.274089,120.15507,Asia,China,Zhejiang Sheng,Hangzhou City,Centroid Locality,25/03/2013,03/04/2013,Confirmed,Influenza - Avian,H7N9 LPAI,,,,,,,,,1,
175294,National authorities,-5.148191,-78.993367,Americas,Peru,Cajamarca,SAN IGNACIO,Unknown,,26/03/2013,Confirmed,Rabies,,"domestic, cattle",5,1,1,,,,,,
175293,National authorities,-13.25099,-74.2327,Americas,Peru,Ayacucho,CHIARA,Unknown,,26/03/2013,Confirmed,Classical swine fever,,"domestic, swine",87,2,1,,,,,,
175292,National authorities,30.2552778,120.1688889,Asia,China,Zhejiang Sheng,Hangzhou,Centroid Locality,07/03/2013,03/04/2013,Confirmed,Influenza - Avian,H7N9 LPAI,,,,,,,,,1,1
175291,National authorities,-10.173356,-76.721702,Americas,Peru,Huánuco,RIPAN,Centroid Admin2,,26/03/2013,Confirmed,Classical swine fever,,"domestic, swine",3,2,1,,,,,,
175289,National authorities,-12.10028,-76.86192,Americas,Peru,Lima,CIENEGUILLA,Unknown,,26/03/2013,Confirmed,Newcastle disease,,"domestic, unspecified bird",247,7,3,,,,,,
175285,National authorities,31.5772222,120.2938889,Asia,China,Jiangsu Sheng,Wuxi,Centroid Locality,21/03/2013,02/04/2013,Confirmed,Influenza - Avian,H7N9 LPAI,,,,,,,,,1,
175284,National authorities,31.52596879,120.4877493,Asia,China,Jiangsu Sheng,Suzhou,Centroid Locality,20/03/2013,02/04/2013,Confirmed,Influenza - Avian,H7N9 LPAI,,,,,,,,,1,1
175283,National authorities,32.974818,119.563243,Asia,China,Jiangsu Sheng,Jiangning District,Centroid Admin1,19/03/2013,02/04/2013,Confirmed,Influenza - Avian,H7N9 LPAI,,,,,,,,,1,
175282,International reference laboratory,31.276996,72.382027,Asia,Pakistan,Punjab,Jhang,Centroid Admin2,20/06/2012,02/04/2013,Confirmed,Foot and mouth disease,A,"domestic, cattle",,,,,,,,,
175279,National authorities,-13.003619,-73.797212,Americas,Peru,Ayacucho," San Miguel",Centroid Admin2,,20/09/2006,Confirmed,Rabies,,"domestic, unspecified mammal",,1,,,,,,,
175278,National authorities,-13.003619,-73.797212,Americas,Peru,Ayacucho," San Miguel",Centroid Admin2,,20/09/2006,Confirmed,Rabies,,"domestic, unspecified mammal",,1,,,,,,,
175276,National authorities,32.286945,118.298056,Asia,China,Anhui Sheng,Langya District,Centroid Admin1,09/03/2013,31/03/2013,Confirmed,Influenza - Avian,H7N9 LPAI,,,,,,,,,1,1
175275,National authorities,31.083334,121.416667,Asia,China,Shanghai Shi,Minhang District,Centroid Locality,19/02/2013,02/04/2013,Confirmed,Influenza - Avian,H7N9 LPAI,,,,,,,,,1,1
175274,National authorities,-13.003619,-73.797212,Americas,Peru,Ayacucho," San Miguel",Centroid Admin2,,20/09/2006,Confirmed,Rabies,,"domestic, unspecified mammal",,1,,,,,,,
175273,National authorities,-8.811325,-75.470029,Americas,Peru,Ucayali,Padre Abad,Centroid Admin2,,20/09/2006,Confirmed,Rabies,,"domestic, unspecified mammal",,1,,,,,,,
175272,National authorities,-8.811325,-75.470029,Americas,Peru,Ucayali,Padre Abad,Centroid Admin2,,20/09/2006,Confirmed,Rabies,,"domestic, unspecified mammal",,1,,,,,,,
175259,OIE,46.5908,6.7408,Europe,Switzerland,Vaud,Corcelles-le-Jorat  ,Unknown,21/03/2013,26/03/2013,Confirmed,Bovine tuberculosis,,"domestic, cattle",84,1,0,1,0,,,,
175257,National authorities,-13.003619,-73.797212,Americas,Peru,Ayacucho,San Miguel,Centroid Admin2,,20/09/2006,Confirmed,Rabies,,"domestic, goat",,1,,,,,,,
175256,National authorities,-13.978086,-73.499684,Americas,Peru,Apurímac,Pacobamba,Centroid Admin2,,20/09/2006,Confirmed,Rabies,,"domestic, cattle",,2,,,,,,,
175255,National authorities,-13.978086,-73.499684,Americas,Peru,Apurímac,Andarapa,Centroid Admin2,,06/09/2006,Confirmed,Rabies,,"domestic, unspecified mammal",,1,,,,,,,
175254,National authorities,-8.811325,-75.470029,Americas,Peru,Ucayali,Padre Abad,Centroid Admin2,,13/09/2006,Confirmed,Rabies,,"domestic, unspecified mammal",,1,,,,,,,
175253,National authorities,-13.003619,-73.797212,Americas,Peru,Ayacucho,San Miguel,Centroid Admin2,,13/09/2006,Confirmed,Rabies,,"domestic, unspecified mammal",,1,,,,,,,
175252,National authorities,-9.572601,-77.640362,Americas,Peru,Ancash,Independencia,Centroid Admin2,,13/09/2006,Confirmed,Classical swine fever,,"domestic, swine",,6,,,,,,,
175248,OIE,-21.571544,27.975556,Africa,Botswana,Central,Matopi  ,Unknown,17/12/2012,28/03/2013,Confirmed,Foot and mouth disease,SAT2,"domestic, goat",558,4,0,0,0,,,,
175247,National authorities,-12.045653,-76.884371,Americas,Peru,Lima,Villa el Salvador,Centroid Admin2,,06/09/2006,Confirmed,Classical swine fever,,"domestic, swine",,5,,,,,,,
175246,National authorities,-13.453093,-73.650422,Americas,Peru,Apurímac,Ocobamba,Centroid Admin2,,06/09/2006,Confirmed,Rabies,,"domestic, unspecified mammal",,1,,,,,,,
175245,National authorities,-13.003619,-73.797212,Americas,Peru,Ayacucho,San Miguel,Centroid Admin2,,31/08/2006,Confirmed,Rabies,,"domestic, unspecified mammal",,1,,,,,,,
175237,OIE,25.5738999,89.2766879,Asia,Bangladesh,Rangpur,Index poultry privat Limited,Unknown,27/02/2013,26/03/2013,Confirmed,Influenza - Avian,H5N1 HPAI,"domestic, unspecified bird",12394,3420,3420,8974,0,,,,
175235,National authorities,31.09139,30.9869,Africa,Egypt,Kafr El-Shikh,Elkharita,Centroid Admin2,13/03/2013,14/03/2013,Confirmed,Influenza - Avian,H5N1 HPAI,"domestic, duck",,25,15,25,,,,,
175232,National authorities,31.091,30.987,Africa,Egypt,Kafr El-Shikh,Eltyfa,Centroid Locality,20/03/2013,21/03/2013,Confirmed,Influenza - Avian,H5N1 HPAI,"domestic, duck",,17,11,17,,,,,
175226,National authorities,-5.820478,-77.49983,Americas,Peru,San Martín,Yorongo,Centroid Admin2,,22/08/2006,Confirmed,Classical swine fever,,"domestic, swine",,3,,,,,,,
175225,National authorities,-8.811325,-75.470029,Americas,Peru,Ucayali,Padre Abad,Centroid Admin2,,22/08/2006,Confirmed,Rabies,,"domestic, unspecified mammal",,1,,,,,,,
175224,National authorities,-6.319603,-78.135062,Americas,Peru,Amazonas,Ocalli,Centroid Admin2,,22/08/2006,Confirmed,Rabies,,"domestic, unspecified mammal",,2,,,,,,,
175220,National authorities,-13.003619,-73.797212,Americas,Peru,Ayacucho,San Miguel,Centroid Admin2,,16/08/2006,Confirmed,Rabies,,"domestic, cattle",,1,,,,,,,
175219,National authorities,-6.319603,-78.135062,Americas,Peru,Amazonas,Ocalli,Centroid Admin2,,16/08/2006,Confirmed,Rabies,,"domestic, cattle",,2,,,,,,,
175218,National authorities,-5.093198,-78.989622,Americas,Peru,Cajamarca,Namballe,Centroid Admin2,,16/08/2006,Confirmed,Rabies,,"domestic, cattle",,1,,,,,,,
175212,National authorities,-10.86443,-70.945856,Americas,Peru,Madre de Dios," Iñapari",Centroid Admin2,,09/08/2006,Confirmed,Rabies,,"domestic, cattle",,1,,,,,,,
175211,National authorities,-13.003619,-73.797212,Americas,Peru,Ayacucho,San Miguel,Centroid Admin2,,09/08/2006,Confirmed,Rabies,,"domestic, cattle",,1,,,,,,,
175210,National authorities,-13.003619,-73.797212,Americas,Peru,Ayacucho,San Miguel,Centroid Admin2,,09/08/2006,Confirmed,Rabies,,"domestic, cattle",,1,,,,,,,
175209,OIE,-21.571944,27.975556,Africa,Botswana,Central,Matopi  ,Unknown,17/12/2012,25/03/2013,Confirmed,Foot and mouth disease,SAT2,"wild, impata, wild, greater kudu",,11,0,0,0,,,,
175208,OIE,55.861773,27.449721,Europe,Latvia,Kraslavas,Indras parish  ,Unknown,20/03/2013,25/03/2013,Confirmed,Classical swine fever,,"wild, wild boar",,1,0,1,0,,,,
175207,OIE,56.029711,27.64773,Europe,Latvia,Kraslavas,Asunes parish,Unknown,13/03/2013,25/03/2013,Confirmed,Classical swine fever,,"wild, wild boar",,1,0,1,0,,,,
175206,OIE,56.144401,27.479824,Europe,Latvia,Kraslavas,Andzelu parish  ,Unknown,12/03/2013,25/03/2013,Confirmed,Classical swine fever,,"wild, wild boar",,2,0,2,0,,,,
175205,OIE,56.062717,27.877716,Europe,Latvia,Kraslavas," Berzinu Parish  ",Unknown,12/03/2013,25/03/2013,Confirmed,Classical swine fever,,"wild, wild boar",,1,0,1,0,,,,
175204,OIE,56.186829,27.984003,Europe,Latvia,Kraslavas,Skaunes parish  ,Unknown,08/03/2013,25/03/2013,Confirmed,Classical swine fever,,"wild, wild boar",,6,0,6,0,,,,
175203,OIE,32.6901572446,35.1946050863,Asia,Israel,Northern,NAHALAL ,Unknown,16/03/2013,24/03/2013,Confirmed,Newcastle disease,,"domestic, unspecified bird",10680,,30,10650,0,,,,
175201,OIE,20.9158,-100.75238,Americas,Mexico,Guanajuato,San Miguel de Allende  ,Unknown,28/02/2013,23/03/2013,Confirmed,Influenza - Avian,H7N3 HPAI,"domestic, unspecified bird",70,6,2,0,0,,,,
175200,OIE,21.198203,-102.123555,Americas,Mexico,Jalisco,Unión de San Antonio  ,Unknown,27/02/2013,23/03/2013,Confirmed,Influenza - Avian,H7N3 HPAI,"domestic, unspecified bird",11,6,0,0,0,,,,
175199,OIE,20.7171806,-100.754428,Americas,Mexico,Guanajuato,Comonfort ,Unknown,27/02/2013,23/03/2013,Confirmed,Influenza - Avian,H7N3 HPAI,"domestic, unspecified bird",22900,,0,0,0,,,,
175198,OIE,20.9158,-100.74238,Americas,Mexico,Guanajuato,San Miguel de Allende  ,Unknown,26/02/2013,23/03/2013,Confirmed,Influenza - Avian,H7N3 HPAI,"domestic, unspecified bird",42719,9464,944,0,0,,,,
175197,OIE,20.6435083,-100.99579,Americas,Mexico,Guanajuato," Juventino Rosas  ",Unknown,25/02/2013,23/03/2013,Confirmed,Influenza - Avian,H7N3 HPAI,"domestic, unspecified bird",43,3,3,0,0,,,,
175196,OIE,21.15775,-100.94314,Americas,Mexico,Guanajuato,Dolores Hidalgo  ,Unknown,25/02/2013,23/03/2013,Confirmed,Influenza - Avian,H7N3 HPAI,"domestic, unspecified bird",7452,2100,1405,0,0,,,,
175195,OIE,20.844269,-102.74666,Americas,Mexico,Jalisco,Tepatitlán de Morelos ,Unknown,25/02/2013,23/03/2013,Confirmed,Influenza - Avian,H7N3 HPAI,"domestic, unspecified bird",10,3,2,0,0,,,,
175194,OIE,21.15775,-100.94314,Americas,Mexico,Guanajuato,Dolores Hidalgo  ,Unknown,25/02/2013,23/03/2013,Confirmed,Influenza - Avian,H7N3 HPAI,"domestic, unspecified bird",34317,16699,329,0,0,,,,
175193,OIE,21.479039,-101.7666,Americas,Mexico,Jalisco,Lagos de Moreno ,Unknown,20/02/2013,23/03/2013,Confirmed,Influenza - Avian,H7N3 HPAI,"domestic, quail",2000,100,100,0,0,,,,
175192,OIE,21.3164222,-102.133555,Americas,Mexico,Jalisco,Encarnación de Díaz  ,Unknown,20/02/2013,23/03/2013,Confirmed,Influenza - Avian,H7N3 HPAI,"domestic, unspecified bird",374699,39644,7100,0,0,,,,
175191,OIE,21.479039,-101.7555,Americas,Mexico,Jalisco,Lagos de Moreno ,Unknown,19/02/2013,23/03/2013,Confirmed,Influenza - Avian,H7N3 HPAI,"domestic, unspecified bird",1752391,396200,388499,0,0,,,,
175190,OIE,21.15775,-100.94414,Americas,Mexico,Guanajuato,Dolores Hidalgo ,Unknown,15/02/2013,23/03/2013,Confirmed,Influenza - Avian,H7N3 HPAI,"domestic, unspecified bird",38739,6081,5125,0,0,,,,
175189,OIE,20.844269,-102.74555,Americas,Mexico,Jalisco,Tepatitán de Morelos  ,Unknown,12/02/2013,23/03/2013,Confirmed,Influenza - Avian,H7N3 HPAI,"domestic, unspecified bird",178029,3000,3000,0,0,,,,
175188,OIE,10.2977,1.0406,Africa,Benin,Atakora,TABOTA  ,Unknown,20/03/2013,22/03/2013,Confirmed,Anthrax,,"domestic, cattle",67,2,2,0,0,,,,
175187,National authorities,-13.003619,-73.797212,Americas,Peru,Ayacucho,San Miguel,Centroid Admin2,,09/08/2006,Confirmed,Rabies,,"domestic, cattle",,1,,,,,,,
175186,National authorities,-13.978086,-73.499684,Americas,Peru,Apurímac,Talavera,Centroid Admin2,,09/08/2006,Confirmed,Rabies,,"domestic, cattle",,1,,,,,,,
175185,National authorities,-13.003619,-73.797212,Americas,Peru,Ayacucho,Anco,Centroid Admin2,,02/08/2006,Confirmed,Rabies,,"domestic, cattle",,2,,,,,,,
175184,National authorities,-12.197809,-69.586029,Americas,Peru,Madre de Dios,Las Piedras,Centroid Admin2,,02/08/2006,Confirmed,Rabies,,"domestic, cattle",,1,,,,,,,
175183,National authorities,-12.197809,-69.586029,Americas,Peru,Madre de Dios,Las Piedras,Centroid Admin2,,25/07/2006,Confirmed,Rabies,,"domestic, cattle",,1,,,,,,,
175182,OIE,51.688054,8.443133,Europe,Germany,Nordrhein-Westfalen,Lippstadt  ,Unknown,05/03/2013,22/03/2013,Confirmed,Influenza - Avian,LPAI,"domestic, unspecified bird",22,1,1,21,0,,,,
175181,National authorities,-13.978086,-73.499684,Americas,Peru,Apurímac,Kishuara,Centroid Admin2,,25/07/2006,Confirmed,Rabies,,"domestic, cattle",,1,,,,,,,
175180,National authorities,-13.978086,-73.499684,Americas,Peru,Apurímac,Kishuara,Centroid Admin2,,25/07/2006,Confirmed,Rabies,,"domestic, cattle",,1,,,,,,,
175179,National authorities,-13.978086,-73.499684,Americas,Peru,Apurímac,Huancarama,Centroid Admin2,,25/07/2006,Confirmed,Rabies,,"domestic, cattle",,1,,,,,,,
175176,National authorities,-13.003619,-73.797212,Americas,Peru,Ayacucho,Anco,Centroid Admin2,,19/07/2006,Confirmed,Rabies,,"domestic, cattle",,1,,,,,,,
175175,National authorities,-6.829259,-79.574403,Americas,Peru,Lambayeque,Monsefu,Centroid Admin2,,19/07/2006,Confirmed,Anthrax,,"domestic, cattle",,1,,,,,,,
175172,OIE,52.28,5.43,Europe,Netherlands,Flevoland,Zeewolde  ,Unknown,15/03/2013,20/03/2013,Confirmed,Influenza - Avian,H7N3 LPAI,"domestic, unspecified bird",23500,60,0,23440,0,,,,
175171,OIE,32.4716493725,35.4807598529,Asia,Israel,Northern,SHELUHOT  ,Unknown,11/03/2013,19/03/2013,Confirmed,Lumpy skin disease,,"domestic, cattle",184,1,,,,,,,
175170,OIE,32.4716493725,35.4807598529,Asia,Israel,Northern,SHELUHOT  ,Unknown,10/03/2013,19/03/2013,Confirmed,Lumpy skin disease,,"domestic, cattle",320,1,0,1,0,,,,
175169,OIE,32.5683341404,35.3617958411,Asia,Israel,Northern,KEFAR YEHEZQEL  ,Unknown,11/03/2013,19/03/2013,Confirmed,Lumpy skin disease,,"domestic, cattle",184,1,,,,,,,
175168,OIE,32.749478361,35.4218637858,Asia,Israel,Northern,SEDE ILAN ,Unknown,07/03/2013,19/03/2013,Confirmed,Lumpy skin disease,,"domestic, cattle",40,1,0,1,0,,,,
175167,OIE,32.638526338,35.448236385,Asia,Israel,Northern,GAZIT  ,Unknown,07/03/2013,19/03/2013,Confirmed,Lumpy skin disease,,"domestic, cattle",237,15,2,,,,,,
175166,OIE,32.83736,35.386941,Asia,Israel,Northern,RAMOT,Centroid Admin1,06/03/2013,19/03/2013,Confirmed,Lumpy skin disease,,"domestic, cattle",65,2,0,2,0,,,,
175165,OIE,32.6557194118,35.4141756482,Asia,Israel,Northern,EN DOR  ,Unknown,06/03/2013,19/03/2013,Confirmed,Lumpy skin disease,,"domestic, cattle",586,60,0,4,0,,,,
175164,OIE,32.6385263388,35.4482363851,Asia,Israel,Northern,GAZIT  ,Unknown,03/03/2013,19/03/2013,Confirmed,Lumpy skin disease,,"domestic, cattle",297,30,0,2,0,,,,
175163,OIE,32.5898962896,35.4150873376,Asia,Israel,Northern,RAMAT ZEVI,Unknown,28/02/2013,19/03/2013,Confirmed,Lumpy skin disease,,"domestic, cattle",58,1,0,1,0,,,,
175162,OIE,32.6448868336,35.4216104545,Asia,Israel,Northern,KAFAR MISR ,Unknown,27/02/2013,19/03/2013,Confirmed,Lumpy skin disease,,"domestic, cattle",100,5,0,0,0,,,,
175161,OIE,32.644886833,35.421610454,Asia,Israel,Northern,KAFAR MISR ,Unknown,21/02/2013,19/03/2013,Confirmed,Lumpy skin disease,,"domestic, cattle",190,6,,,,,,,
175160,OIE,32.83736,35.386941,Asia,Israel,Northern,KANAF,Centroid Admin1,20/02/2013,19/03/2013,Confirmed,Lumpy skin disease,,"domestic, cattle",32,7,0,7,0,,,,
175159,OIE,32.8659473953,35.2928752878,Asia,Israel,Northern,SAKHNIN  ,Unknown,10/02/2013,19/03/2013,Confirmed,Lumpy skin disease,,"domestic, cattle",200,1,0,0,0,,,,
175158,OIE,32.804662488,35.1700368407,Asia,Israel,Northern,SHEFAR’AM  ,Unknown,10/02/2013,19/03/2013,Confirmed,Lumpy skin disease,,"domestic, cattle",230,1,0,0,0,,,,
175149,National authorities,31.278,30.52,Africa,Egypt,Behera,Salam,Centroid Locality,08/03/2013,09/03/2013,Confirmed,Influenza - Avian,H5N1 HPAI,"domestic, chicken, domestic, duck, domestic, unspecified bird",,25,,25,,,,,
175148,National authorities,25.55,29.267,Africa,Egypt,New Valley,Elbashandy,Centroid Locality,07/03/2013,08/03/2013,Confirmed,Influenza - Avian,H5N1 HPAI,"domestic, chicken, domestic, duck",,58,,,,,,,
175147,National authorities,30.725,31.35,Africa,Egypt,Dakahlia,Ulilah,Centroid Locality,07/03/2013,10/03/2013,Confirmed,Influenza - Avian,H5N1 HPAI,"domestic, chicken, domestic, duck",,351,,,,,,,
175146,National authorities,30.958,30.883,Africa,Egypt,Gharbia,Kom elnagar,Centroid Locality,06/03/2013,07/03/2013,Confirmed,Influenza - Avian,H5N1 HPAI,"domestic, chicken, domestic, duck",,17,,,,,,,
175145,National authorities,28.786,30.891,Africa,Egypt,Beni Suef,Elqadaby,Centroid Locality,06/03/2013,07/03/2013,Confirmed,Influenza - Avian,H5N1 HPAI,"domestic, chicken, domestic, duck",,14,,,,,,,
175142,National authorities,-8.243947,-76.563693,Americas,Peru,San Martín,Tocache,Centroid Admin2,,05/07/2006,Confirmed,Rabies,,"domestic, cattle",,1,,,,,,,
175141,National authorities,-13.259708,-74.288481,Americas,Peru,Ayacucho,Ocros,Centroid Admin2,,05/07/2006,Confirmed,Rabies,,"domestic, cattle",,1,,,,,,,
175140,National authorities,-13.259708,-74.288481,Americas,Peru,Ayacucho,Ocros,Centroid Admin2,,05/07/2006,Confirmed,Rabies,,"domestic, equidae",,1,,,,,,,
175139,National authorities,-13.259708,-74.288481,Americas,Peru,Ayacucho,Ocros,Centroid Admin2,,05/07/2006,Confirmed,Rabies,,"domestic, cattle",,1,,,,,,,
175138,National authorities,-6.829259,-79.574403,Americas,Peru,Lambayeque,Monsefú,Centroid Admin2,,05/07/2006,Confirmed,Anthrax,,"domestic, cattle",,1,,,,,,,
175135,OIE,49.378,21.2698,Europe,Slovakia,Presov,Stebník  ,Unknown,13/03/2013,19/03/2013,Confirmed,Rabies,,"wild, red fox",,1,1,0,0,,,,
175134,National authorities,-5.107079,-78.425647,Americas,Peru,Amazonas,Aramango,Centroid Admin2,,21/06/2006,Confirmed,Rabies,,"domestic, cattle",,3,,,,,,,
175133,National authorities,-12.045653,-76.884371,Americas,Peru,Lima,Santa Maria,Centroid Admin2,,21/06/2006,Confirmed,Classical swine fever,,"domestic, swine",,1,,,,,,,
175132,National authorities,-11.026849,-77.140283,Americas,Peru,Lima,Santa Maria,Centroid Admin2,,21/06/2006,Confirmed,Classical swine fever,,"domestic, swine",,8,,,,,,,
175130,National authorities,-12.197809,-69.586029,Americas,Peru,Madre de Dios,Las Piedras,Centroid Admin2,,14/06/2006,Confirmed,Rabies,,"domestic, cattle",,1,,,,,,,
175129,National authorities,-13.978086,-73.499684,Americas,Peru,Apurímac,Huancarama,Centroid Admin2,,14/06/2006,Confirmed,Rabies,,"domestic, cattle",,1,,,,,,,
175127,OIE,50.28,118.98,Europe,Russian Federation,Chitinskaya Oblast,Molodezhny  ,Unknown,08/03/2013,18/03/2013,Confirmed,Foot and mouth disease,A,"domestic, cattle, domestic, swine",4298,176,0,0,0,,,,
175125,OIE,36.62,101.76,Asia,China,Qinghai Sheng,Chengbei district,Unknown,15/03/2013,18/03/2013,Confirmed,Foot and mouth disease,A,"domestic, cattle",63,2,0,63,0,,,,
175124,National authorities,-13.259708,-74.288481,Americas,Peru,Ayacucho,Ocros,Centroid Admin2,,14/06/2006,Confirmed,Rabies,,"domestic, cattle",,1,,,,,,,
175117,National authorities,-13.776519,-72.919419,Americas,Peru,Apurímac,Abancay,Centroid Admin2,,07/06/2006,Confirmed,Rabies,,"domestic, cattle",,1,,,,,,,
175116,National authorities,-13.776519,-72.919419,Americas,Peru,Apurímac,Abancay,Centroid Admin2,,07/06/2006,Confirmed,Rabies,,"domestic, cattle",,1,,,,,,,
175115,National authorities,-12.197809,-69.586029,Americas,Peru,Madre de Dios,Las Piedras,Centroid Admin2,,07/06/2006,Confirmed,Rabies,,"domestic, cattle",,1,,,,,,,
175114,National authorities,-12.197809,-69.586029,Americas,Peru,Madre de Dios,Las Piedras,Centroid Admin2,,07/06/2006,Confirmed,Rabies,,"domestic, cattle",,1,,,,,,,
175105,National authorities,-13.259708,-74.288481,Americas,Peru,Ayacucho,Ocros,Centroid Admin2,,31/05/2006,Confirmed,Rabies,,"domestic, cattle",,1,,,,,,,
175104,National authorities,-13.259708,-74.288481,Americas,Peru,Ayacucho,Ocros,Centroid Admin2,,31/05/2006,Confirmed,Rabies,,"domestic, cattle",,1,,,,,,,
175102,National authorities,-12.197809,-69.586029,Americas,Peru,Madre de Dios,Las Piedras,Centroid Admin2,,24/05/2006,Confirmed,Rabies,,"domestic, cattle",,1,,,,,,,
175101,National authorities,-13.776519,-72.919419,Americas,Peru,Apurímac,Abancay,Centroid Admin2,,24/05/2006,Confirmed,Rabies,,"domestic, cattle",,1,,,,,,,
175099,National authorities,-13.003619,-73.797212,Americas,Peru,Ayacucho,Anco,Centroid Admin2,,24/05/2006,Confirmed,Rabies,,"domestic, cattle",,1,,,,,,,
175095,National authorities,-13.776519,-72.919419,Americas,Peru,Apurímac,Abancay,Centroid Admin2,,16/05/2006,Confirmed,Rabies,,"domestic, cattle",,1,,,,,,,
175094,National authorities,-13.776519,-72.919419,Americas,Peru,Apurímac,Abancay,Centroid Admin2,,16/05/2006,Confirmed,Rabies,,"domestic, cattle",,1,,,,,,,
175093,National authorities,-13.776519,-72.919419,Americas,Peru,Apurímac,Abancay,Centroid Admin2,,16/05/2006,Confirmed,Rabies,,"domestic, cattle",,1,,,,,,,
175091,National authorities,-13.003619,-73.797212,Americas,Peru,Ayacucho,CHUNGUI,Centroid Admin2,,12/03/2013,Confirmed,Rabies,,"domestic, cattle",,1,,,,,,,
175090,National authorities,-13.42958,-76.126697,Americas,Peru,Ica,CHINCHA ALTA,Unknown,,12/03/2013,Confirmed,Classical swine fever,,"domestic, swine",,1,,,,,,,
175089,National authorities,-13.084358,-73.899797,Americas,Peru,Ayacucho,SAN MIGUEL,Unknown,,12/03/2013,Confirmed,Rabies,,"domestic, horse",,1,,,,,,,
175088,National authorities,-13.024243,-73.983397,Americas,Peru,Ayacucho,SAN MIGUEL,Unknown,,12/03/2013,Confirmed,Rabies,,"domestic, cattle",,1,,,,,,,
175087,National authorities,-14.005774,-72.916887,Americas,Peru,Apurímac,CHACOCHE,Unknown,,12/03/2013,Confirmed,Rabies,,"domestic, cattle",,1,,,,,,,
175086,National authorities,-14.005774,-72.916887,Americas,Peru,Apurímac,CIRCA,Unknown,,13/03/2013,Confirmed,Rabies,,"domestic, cattle",,1,,,,,,,
175085,OIE,46.722,7.066,Europe,Switzerland,Fribourg,Farvagny  ,Unknown,04/03/2013,11/03/2013,Confirmed,Bovine tuberculosis,,"domestic, cattle",72,1,0,0,1,,,,
175084,National authorities,25.483,28.983,Africa,Egypt,New Valley,Mout,Centroid Locality,04/03/2013,05/03/2013,Confirmed,Influenza - Avian,H5N1 HPAI,"domestic, chicken, domestic, turkey, domestic, duck, domestic, unspecified bird",,36,,36,,,,,
175083,National authorities,25.533,29.067,Africa,Egypt,New Valley,Asmant,Centroid Locality,04/03/2013,05/03/2013,Confirmed,Influenza - Avian,H5N1 HPAI,"domestic, chicken, domestic, duck, domestic, goose, domestic, unspecified bird",,21,,21,,,,,
175081,EC,44.539755,10.936332,Europe,Italy,Emilia-romagna,Modena,Centroid Admin2,,11/03/2013,Confirmed,Influenza - Avian,H5 LPAI,"domestic, guinea fowl, domestic, pheasant, domestic, goose, domestic, duck, domestic, turkey, domestic, parrot",,,,,,,,,
175080,FAO Field Officer,30.47328,30.974925,Africa,Egypt,Menoufia,Bagoor,Centroid Admin1,03/03/2013,12/03/2013,Confirmed,Influenza - Avian,H5N1 HPAI,,,,,,,,,1,
175078,National authorities,26.106237,87.956625,Asia,India,West Bengal,Kishanganj ,Centroid Locality,,14/03/2013,Confirmed,Influenza - Avian,H5N1 HPAI,"domestic, chicken",,,,300,,,,,
175077,National authorities,26.023787,86.869328,Asia,India,Bihar,Shankerpur (Jirwa panchayat),Centroid Locality,,14/03/2013,Confirmed,Influenza - Avian,H5N1 HPAI,"domestic, chicken",,,800,,,,,,
175076,National authorities,26.023787,86.869328,Asia,India,Bihar,Shankerpur (Madheli panchayat),Centroid Locality,,14/03/2013,Confirmed,Influenza - Avian,H5N1 HPAI,"domestic, chicken",,,800,,,,,,
175074,OIE,52.17,6.56,Europe,Netherlands,Gelderland,Lochem ,Unknown,11/03/2013,13/03/2013,Confirmed,Influenza - Avian,H7N7 LPAI,"domestic, unspecified bird",80152,200,0,80152,0,,,,
175072,National authorities,-13.870303,-73.020979,Americas,Peru,Apurímac,CHACOCHE,Unknown,,13/03/2013,Confirmed,Rabies,,"domestic, cattle",,2,,,,,,,
175071,National authorities,-13.905818,-73.070589,Americas,Peru,Apurímac,TINTAY,Unknown,,13/03/2013,Confirmed,Rabies,,"domestic, cattle",,1,,,,,,,
175070,National authorities,-13.914705,-73.0301,Americas,Peru,Apurímac,CHACOCHE,Unknown,,13/03/2013,Confirmed,Rabies,,"domestic, cattle",,2,,,,,,,
175069,National authorities,-13.566497,-73.449314,Americas,Peru,Apurímac,TALAVERA,Centroid Locality,,13/03/2013,Confirmed,Rabies,,"domestic, cattle",,1,,,,,,,
175068,National authorities,-9.6302,-75.01567,Americas,Peru,Huánuco,YUYAPICHIS,Centroid Locality,,13/03/2013,Confirmed,Rabies,,"domestic, cattle",,1,,,,,,,
