Id,source,latitude,longitude,region,country,admin1,localityName,localityQuality,observationDate,reportingDate,status,disease,serotypes,speciesDescription,sumAtRisk,sumCases,sumDeaths,sumDestroyed,sumSlaughtered,humansGenderDesc,humansAge,humansAffected,humansDeaths
129960,National authorities,27.44,75.47,Asia,India,Rajasthan,Neem ka Thana,Unknown,08/11/2008,13/01/2009,Confirmed,Influenza - Equine,H3N8,"domestic, horse",3,1,,,,,,,
129959,National authorities,27.12,74.37,Asia,India,Rajasthan,Mandore,Unknown,08/11/2008,13/01/2009,Confirmed,Influenza - Equine,H3N8,"domestic, horse",60,4,,,,,,,
129958,National authorities,27.09,74.51,Asia,India,Rajasthan,Kuchman,Unknown,08/11/2008,13/01/2009,Confirmed,Influenza - Equine,H3N8,"domestic, horse",21,2,,,,,,,
129957,National authorities,27.38,74.23,Asia,India,Rajasthan,Ladnu,Unknown,08/11/2008,13/01/2009,Confirmed,Influenza - Equine,H3N8,"domestic, horse",74,2,,,,,,,
129956,National authorities,27.24,74.34,Asia,India,Rajasthan,Didwana,Unknown,08/11/2008,13/01/2009,Confirmed,Influenza - Equine,H3N8,"domestic, horse",3,1,,,,,,,
129955,National authorities,27.02,74.43,Asia,India,Rajasthan,Makrana,Unknown,08/11/2008,13/01/2009,Confirmed,Influenza - Equine,H3N8,"domestic, horse",1,1,,,,,,,
129954,National authorities,27.12,73.43,Asia,India,Rajasthan,Rohinibi,Unknown,08/11/2008,13/01/2009,Confirmed,Influenza - Equine,H3N8,"domestic, horse",12,1,,,,,,,
129953,National authorities,26.53,74.45,Asia,India,Rajasthan,Parbatsar,Unknown,08/11/2008,13/01/2009,Confirmed,Influenza - Equine,H3N8,"domestic, horse",28,2,,,,,,,
129952,National authorities,26.53,74.19,Asia,India,Rajasthan,Degana,Unknown,08/11/2008,13/01/2009,Confirmed,Influenza - Equine,H3N8,"domestic, horse",41,3,,,,,,,
129951,National authorities,25.2,74.38,Asia,India,Rajasthan,Shahapura,Unknown,08/11/2008,13/01/2009,Confirmed,Influenza - Equine,H3N8,"domestic, horse",289,1,,,,,,,
129950,National authorities,26.26,74.38,Asia,India,Rajasthan,Peesangan,Unknown,08/11/2008,13/01/2009,Confirmed,Influenza - Equine,H3N8,"domestic, horse",11,1,,,,,,,
129949,National authorities,26.26,74.38,Asia,India,Rajasthan,Nagar Parishad,Unknown,08/11/2008,13/01/2009,Confirmed,Influenza - Equine,H3N8,"domestic, horse",593,8,,,,,,,
129946,National authorities,28.38,77.12,Asia,India,Haryana,Delhi,Unknown,26/09/2008,18/12/2008,Confirmed,Influenza - Equine,H3N8,"domestic, horse",1353,49,,,,,,,
129945,National authorities,22.32,88.2,Asia,India,West Bengal,Kolkata,Unknown,07/11/2008,18/12/2008,Confirmed,Influenza - Equine,H3N8,"domestic, horse",65,20,,,,,,,
129944,National authorities,18.3,73.52,Asia,India,Maharashtra,Pune,Unknown,26/10/2008,18/12/2008,Confirmed,Influenza - Equine,H3N8,"domestic, horse",2813,304,,,,,,,
129943,National authorities,18.47,73.21,Asia,India,Maharashtra,Matheran,Unknown,08/10/2008,18/12/2008,Confirmed,Influenza - Equine,H3N8,"domestic, horse",465,418,,,,,,,
129942,National authorities,34.09,74.79,Asia,Jammu and Kashmir,Administrative unit not available,Anantnag,Unknown,07/07/2008,27/11/2008,Confirmed,Influenza - Equine,H3N8,"domestic, horse",,12543,1,,,,,,
129941,National authorities,32.98,74.95,Asia,Jammu and Kashmir,Administrative unit not available,Katra,Unknown,20/06/2008,27/11/2008,Confirmed,Influenza - Equine,H3N8,"domestic, horse",10000,5424,15,,,,,,
129940,National authorities,43.3081,144.5953,Asia,Japan,Hokkaidoo,Sibetya town,Unknown,20/06/2008,12/08/2008,Confirmed,Influenza - Equine,H3N8,"domestic, horse",16,1,0,0,,,,,
129939,National authorities,43.1445,144.1473,Asia,Japan,Hokkaidoo,Akan Town,Unknown,01/07/2008,12/08/2008,Confirmed,Influenza - Equine,H3N8,"domestic, horse",16,1,0,0,,,,,
129937,National authorities,47.5929,134.4909,Asia,China,Heilongjiang Sheng,Village Kiinsk,Unknown,14/10/2008,22/12/2008,Confirmed,Sheep pox and goat pox,,"domestic, goats, domestic, sheep",113,17,13,0,,,,,
129933,National authorities,47.952778,114.716667,Asia,Mongolia,Dornod,Kherlen soum,Unknown,02/10/2008,11/10/2008,Confirmed,Sheep pox and goat pox,,"domestic, goats",709,94,6,6,,,,,
129932,National authorities,25.0475,121.129,Asia,Taiwan (Province of China),Taiwan Sheng,Yu-Wen Farm,Unknown,24/06/2008,08/07/2008,Confirmed,Sheep pox and goat pox,,"domestic, goats",68,68,16,52,,,,,
129931,National authorities,25.0302,121.0734,Asia,Taiwan (Province of China),Taiwan Sheng,Rom-Chang Farm,Unknown,24/06/2008,08/07/2008,Confirmed,Sheep pox and goat pox,,"domestic, goat/sheep ",142,114,19,123,,,,,
129930,National authorities,30.05162,31.10605,Africa,Egypt,Giza,KAFR ABU HEGAZI                  ,Unknown,13/01/2009,14/01/2009,Confirmed,Influenza - Avian,H5N1 HPAI,"domestic, chicken, domestic, duck",,,,,,,,1,
129925,National authorities,30.4531307,31.0431461,Africa,Egypt,Menoufia,Al Minufiyah (menoufia),Unknown,09/01/2009,11/01/2009,Confirmed,Influenza - Avian,H5N1 HPAI,"domestic, chicken, domestic, duck",,34,,,,,,,
129924,National authorities,-20.36,57.36,Africa,Mauritius,Black River,Richelieu Prison ,Unknown,01/04/2008,19/05/2008,Confirmed,Lumpy skin disease,,"domestic, cattle",69,16,2,14,,,,,
129923,National authorities,12.739,-8.412,Africa,Mali,Koulikoro,Diatoula,Unknown,10/08/2008,13/01/2009,Confirmed,Lumpy skin disease,,"domestic, cattle",58,11,1,0,,,,,
129922,National authorities,6.916675,35.488331,Africa,Ethiopia,SNNPR,Maeniti Goldia,Unknown,03/06/2008,19/09/2008,Confirmed,African horse sickness,2,"domestic, horse",1300,50,5,0,,,,,
129921,National authorities,7.104272,36.390881,Africa,Ethiopia,SNNPR,Tello,Unknown,25/05/2008,19/09/2008,Confirmed,African horse sickness,2,"domestic, horse",4560,300,250,0,,,,,
129918,National authorities,30.4158134,47.6561737,Asia,Iraq,Basrah,Basrah,Unknown,12/01/2009,12/01/2009,Confirmed,Foot and mouth disease,A,"domestic, cattle",,,,,,,,,
129916,FAO officer,51.00142,7.17126,Europe,Germany,Nordrhein-Westfalen,Rheinisch-Bergischer Kreis ,Unknown,27/12/2008,12/01/2009,Confirmed,Classical swine fever,,"wild, wild boar",,1,,,,,,,
129915,National authorities,6.889778,36.331222,Africa,Ethiopia,SNNPR,Cheta,Unknown,17/04/2008,19/09/2008,Confirmed,African horse sickness,2,"domestic, horse",2560,200,153,0,,,,,
129914,National authorities,7.395253,35.663433,Africa,Ethiopia,SNNPR,Bita Genet,Unknown,17/04/2008,19/09/2008,Confirmed,African horse sickness,2,"domestic, horse",3700,500,222,0,,,,,
129913,National authorities,7.595183,35.911614,Africa,Ethiopia,SNNPR,Gawata,Unknown,12/04/2008,19/09/2008,Confirmed,African horse sickness,2,"domestic, horse",3661,300,200,0,,,,,
129912,National authorities,8.018767,35.829531,Africa,Ethiopia,SNNPR,Saylem,Unknown,09/04/2008,19/09/2008,Confirmed,African horse sickness,2,"domestic, horse",4960,500,300,0,,,,,
129911,National authorities,7.758644,35.488389,Africa,Ethiopia,SNNPR,Adiyo (Manjwo),Unknown,09/04/2008,19/09/2008,Confirmed,African horse sickness,2,"domestic, horse",4000,250,215,0,,,,,
129910,National authorities,33.64,-4.8,Africa,Morocco,Fès - Boulemane,Hajjeine,Unknown,09/08/2008,13/09/2008,Confirmed,Peste des petits ruminants,,"domestic, sheep",12,4,0,,,,,,
129909,National authorities,33.64,-4.8,Africa,Morocco,Fès - Boulemane,Nouifat,Unknown,11/08/2008,13/09/2008,Confirmed,Peste des petits ruminants,,"domestic, sheep, domestic, goats",195,6,4,,,,,,
129908,National authorities,33.64,-4.8,Africa,Morocco,Fès - Boulemane,Ouled Amer Ghboula,Unknown,17/08/2008,13/09/2008,Confirmed,Peste des petits ruminants,,"domestic, sheep, domestic, goats",317,63,39,,,,,,
129907,National authorities,33.64,-4.8,Africa,Morocco,Fès - Boulemane,Ait Ichou,Unknown,16/08/2008,13/09/2008,Confirmed,Peste des petits ruminants,,"domestic, sheep",250,12,12,,,,,,
129906,National authorities,33.64,-4.8,Africa,Morocco,Fès - Boulemane,Larassen,Unknown,16/08/2008,13/09/2008,Confirmed,Peste des petits ruminants,,"domestic, sheep",125,34,4,,,,,,
129905,National authorities,33.74,-5.06,Africa,Morocco,Fès - Boulemane,Ait Abdou,Unknown,17/08/2008,13/09/2008,Confirmed,Peste des petits ruminants,,"domestic, sheep",25,1,0,,,,,,
129904,National authorities,34.87,-2.02,Africa,Morocco,Oriental,Skaina Bni Drar 2,Unknown,17/08/2008,13/09/2008,Confirmed,Peste des petits ruminants,,"domestic, sheep, domestic, goats",91,11,7,,,,,,
129903,National authorities,34.87,-2.02,Africa,Morocco,Oriental,Skaina Bni Drar 1,Unknown,17/08/2008,13/09/2008,Confirmed,Peste des petits ruminants,,"domestic, sheep, domestic, goats",25,8,5,,,,,,
129902,FAO Field Officer,32.4612961,35.7752571,Asia,Jordan,Irbid,Irbid,Unknown,07/01/2009,07/01/2009,Denied,Foot and mouth disease,,"domestic, cattle",,,,,,,,,
129901,FAO Field Officer,32.3932228,36.9933968,Asia,Jordan,Mafraq,Al Mafraq,Unknown,07/01/2009,07/01/2009,Denied,Foot and mouth disease,,"domestic, cattle",,,,,,,,,
129900,National authorities,-24.38,30.955583,Africa,South Africa,Limpopo,Happy Lands,Unknown,05/12/2008,22/12/2008,Confirmed,Foot and mouth disease,SAT2,"domestic, buffaloes",42,11,0,0,0,,,,
129899,National authorities,33.89,-5.58,Africa,Morocco,Meknès - Tafilalet,Rhamna,Unknown,09/08/2008,13/09/2008,Confirmed,Peste des petits ruminants,,"domestic, sheep, domestic, goats",89,4,0,,,,,,
129898,National authorities,33.17,-6.79,Africa,Morocco,Chaouia - Ouardigha,Ouled Ghtaiss,Unknown,19/08/2008,13/09/2008,Confirmed,Peste des petits ruminants,,"domestic, sheep, domestic, goats",395,101,50,,,,,,
129897,National authorities,33.08,-6.74,Africa,Morocco,Chaouia - Ouardigha,Ouled Bouacha,Unknown,11/08/2008,13/09/2008,Confirmed,Peste des petits ruminants,,"domestic, sheep, domestic, goats",71,26,12,,,,,,
129896,National authorities,32.68,-5.36,Africa,Morocco,Meknès - Tafilalet,Azerzou,Unknown,17/08/2008,13/09/2008,Confirmed,Peste des petits ruminants,,"domestic, sheep",270,7,2,,,,,,
129895,National authorities,33.15,-5.85,Africa,Morocco,Meknès - Tafilalet,Amhrouk 2,Unknown,17/08/2008,13/09/2008,Confirmed,Peste des petits ruminants,,"domestic, sheep",58,1,0,,,,,,
129894,National authorities,33.15,-5.85,Africa,Morocco,Meknès - Tafilalet,Amhrouk,Unknown,17/08/2008,13/09/2008,Confirmed,Peste des petits ruminants,,"domestic, sheep",92,7,7,,,,,,
129893,National authorities,34.3,-5.95,Africa,Morocco,Gharb - Chrarda - Béni Hssen,Ouled Zid El Gharbia,Unknown,11/08/2008,13/09/2008,Confirmed,Peste des petits ruminants,,"domestic, sheep",44,1,0,,,,,,
129892,National authorities,33.48,-5.18,Africa,Morocco,Meknès - Tafilalet,Ait Ali,Unknown,11/08/2008,13/09/2008,Confirmed,Peste des petits ruminants,,"domestic, sheep",382,85,50,,,,,,
129891,National authorities,31.65,-8.59,Africa,Morocco,Marrakech - Tensift - Al Haouz,Lkoudia,Unknown,10/08/2008,13/09/2008,Confirmed,Peste des petits ruminants,,"domestic, sheep",50,13,0,,,,,,
129890,National authorities,35.07,-4.32,Africa,Morocco,Taza - Al Hoceima - Taounate,Boukhachkhach,Unknown,08/08/2008,13/09/2008,Confirmed,Peste des petits ruminants,,"domestic, goats, domestic, sheep",75,23,15,,,,,,
129887,National authorities,28.1437874,30.3612823,Africa,Egypt,Menia,Al Minya (menia),Unknown,25/12/2008,25/12/2008,Confirmed,Influenza - Avian,H5N1 HPAI,"domestic, chicken, domestic, turkey, domestic, duck",,24,,,,,,,
129886,FAO Field Officer,15.6113224,107.8336182,Asia,Viet Nam,Quang Nam,Quang Nam,Unknown,06/01/2009,08/01/2009,Denied,Influenza - Avian,HPAI,"domestic, unspecified bird",,1000,,,,,,,
129885,National authorities,20.2630177,105.227562,Asia,Viet Nam,Thanh Hoa,Ba Thuoc,Unknown,27/12/2008,08/01/2009,Confirmed,Influenza - Avian,H5N1 HPAI,,,,,,,,,1,
129884,National authorities,40.2225304,116.4210815,Asia,China,Beijing Shi,Beijing Shi,Unknown,24/12/2008,07/01/2009,Confirmed,Influenza - Avian,H5N1 HPAI,,,,,,,,,1,1
129882,National authorities,26.5,88.12,Asia,India,Bihar,Rangli Rangliot,Unknown,02/01/2009,06/01/2009,Confirmed,Influenza - Avian,H5N1 HPAI,"domestic, unspecified bird",9757,210,130,9627,,,,,
129875,FAO Field Officer,26.73518,88.34655,Asia,India,West Bengal,Matigara village,Unknown,01/01/2009,05/01/2009,Confirmed,Influenza - Avian,H5N1 HPAI,"domestic, unspecified bird",30985,217,87,30898,,,,,
129871,National authorities,26.21,92.41,Asia,India,Assam,Barhampur,Unknown,18/12/2008,02/01/2009,Confirmed,Influenza - Avian,H5N1 HPAI,"domestic, unspecified bird",11753,22,22,11731,,,,,
129870,National authorities,26.2,91.15,Asia,India,Assam,Hajo,Unknown,17/12/2008,02/01/2009,Confirmed,Influenza - Avian,H5N1 HPAI,"domestic, unspecified bird",7030,75,75,6955,,,,,
129869,National authorities,26.2,91.15,Asia,India,Assam,Chayani Borduar,Unknown,17/12/2008,02/01/2009,Confirmed,Influenza - Avian,H5N1 HPAI,"domestic, unspecified bird",5880,137,137,5743,,,,,
129868,National authorities,26.28,90.33,Asia,India,Assam,Dhaligaon,Unknown,19/12/2008,02/01/2009,Confirmed,Influenza - Avian,H5N1 HPAI,"domestic, unspecified bird",2640,20,20,2620,,,,,
129867,National authorities,26.23,90.58,Asia,India,Assam,Tihu Barama,Unknown,19/12/2008,02/01/2009,Confirmed,Influenza - Avian,H5N1 HPAI,"domestic, unspecified bird",135,45,45,,,,,,
129866,National authorities,-21.3079,46.2313,Africa,Madagascar,Haute Matsiatra,Tsaramandroso,Unknown,29/11/2008,22/12/2008,Confirmed,Rift Valley fever,,"domestic, cattle",9,4,4,,,,,,
129865,National authorities,-21.3778,46.66,Africa,Madagascar,Haute Matsiatra,Imandry,Unknown,24/11/2008,22/12/2008,Confirmed,Rift Valley fever,,"domestic, cattle",8,3,3,,,,,,
129864,National authorities,-21.3667,46.55,Africa,Madagascar,Haute Matsiatra,Ambanimaso,Unknown,22/11/2008,22/12/2008,Confirmed,Rift Valley fever,,"domestic, cattle",9,4,3,,,,,,
129863,National authorities,-21.7167,46.9333,Africa,Madagascar,Haute Matsiatra,Nasandratrony,Unknown,16/11/2008,22/12/2008,Confirmed,Rift Valley fever,,"domestic, cattle",,2,1,,,,,,
129862,National authorities,-21.3833,46.1333,Africa,Madagascar,Haute Matsiatra,Antady,Unknown,16/11/2008,22/12/2008,Confirmed,Rift Valley fever,,"domestic, cattle",9,3,3,,,,,,
129861,National authorities,29.2861,30.81518,Africa,Egypt,Fayoum,ABGID,Unknown,31/12/2008,04/01/2009,Confirmed,Influenza - Avian,H5N1 HPAI,"domestic, chicken, domestic, duck, domestic, goose",,36,,,,,,,
129859,OIE,-21.39,46.25,Africa,Madagascar,Haute Matsiatra,Ambonifehidrano,Unknown,13/12/2008,26/12/2008,Confirmed,Rift Valley fever,,"domestic, cattle",2,1,1,,,,,,
129858,OIE,-21.75,46.92,Africa,Madagascar,Haute Matsiatra,Marodinta,Unknown,13/12/2008,26/12/2008,Confirmed,Rift Valley fever,,"domestic, cattle",1,1,1,,,,,,
129857,OIE,-21.35,46.81,Africa,Madagascar,Haute Matsiatra,Ampasina,Unknown,11/12/2008,26/12/2008,Confirmed,Rift Valley fever,,"domestic, cattle",3,2,2,,,,,,
129855,National authorities,55.6776812,12.5709343,Europe,Denmark,Koebenhavn,Copenhagen,Unknown,22/12/2008,22/12/2008,Denied,Influenza - Avian,H5N1 HPAI,"domestic, chicken",,40,,,,,,,
129850,FAO Field Officer,28.48972,30.80222,Africa,Egypt,Menia,hod elhagar,Unknown,27/11/2008,21/12/2008,Confirmed,Influenza - Avian,H5N1 HPAI,"domestic, chicken",,15,,,,,,,
129845,National authorities,19.2438259,104.8337708,Asia,Viet Nam,Nghe An,Nghe An,Unknown,16/12/2008,19/12/2008,Confirmed,Foot and mouth disease,,"domestic, cattle, domestic, buffaloes",,,,,,,,,
129844,National authorities,-8.76,115.16,Asia,Indonesia,Bali,Kedonganan,Unknown,26/11/2008,18/12/2008,Confirmed,Rabies,,"domestic, canine",2249,1,1,40,0,,,9,0
129843,National authorities,33.15,-5.85,Africa,Morocco,Meknès - Tafilalet,Ziar 3,Unknown,05/09/2008,30/09/2008,Confirmed,Peste des petits ruminants,,"domestic, sheep, domestic, goats",29,9,4,,,,,,
129842,National authorities,33.03,-6.03,Africa,Morocco,Meknès - Tafilalet,Ait Lahcen Ousaid Lagalda,Unknown,05/09/2008,30/09/2008,Confirmed,Peste des petits ruminants,,"domestic, sheep, domestic, goats",140,37,15,,,,,,
129841,National authorities,32.84,120.31,Asia,China,Jiangsu Sheng,"Xubei, Xunan",Unknown,09/12/2008,16/12/2008,Confirmed,Influenza - Avian,H5N1 HPAI,"domestic, chicken",160800,,,160800,,,,,
129840,National authorities,32.57,120.45,Asia,China,Jiangsu Sheng,"Lingdong, Xinghe, Xihu",Unknown,09/12/2008,16/12/2008,Confirmed,Influenza - Avian,H5N1 HPAI,"domestic, chicken",216198,,,216198,,,,,
129838,National authorities,26.2,91.15,Asia,India,Assam,"Kharghuli Jaipur, Ward No.37",Unknown,15/12/2008,16/12/2008,Confirmed,Influenza - Avian,H5N1 HPAI,"domestic, unspecified bird",1704,20,20,1684,,,,,
129837,National authorities,26.19,91.0,Asia,India,Assam,Sariha Sakla,Unknown,15/12/2008,16/12/2008,Confirmed,Influenza - Avian,H5N1 HPAI,"domestic, unspecified bird",3455,70,70,3385,,,,,
129836,National authorities,25.0,88.08,Asia,India,West Bengal,Narhatta (Malda),Unknown,14/12/2008,14/12/2008,Confirmed,Influenza - Avian,H5N1 HPAI,"domestic, unspecified bird",,,,,,,,,
129835,National authorities,25.033333,88.15,Asia,India,West Bengal,Maldah,Centroid Locality,14/12/2008,14/12/2008,Confirmed,Influenza - Avian,H5N1 HPAI,"domestic, unspecified bird",,,,,,,,,
129834,National authorities,11.4,104.88,Asia,Cambodia,Kandal,Kraing Chek village,Unknown,16/12/2008,25/12/2008,Confirmed,Influenza - Avian,H5N1 HPAI,"domestic, duck, domestic, unspecified bird",464,123,120,344,0,,,,
129832,National authorities,27.1971741,31.1905727,Africa,Egypt,Assiut,Asyiut,Unknown,13/12/2008,17/12/2008,Confirmed,Influenza - Avian,H5N1 HPAI,,,,,,,,,1,1
129828,National authorities,26.28,90.33,Asia,India,Assam,Kheluwapara Pt-II,Unknown,15/12/2008,16/12/2008,Confirmed,Influenza - Avian,H5N1 HPAI,"domestic, unspecified bird",23221,48,48,23173,,,,,
129825,National authorities,26.19646,91.1538,Asia,India,Assam,Bezera Village,Unknown,06/12/2008,11/12/2008,Confirmed,Influenza - Avian,H5N1 HPAI,"domestic, unspecified bird",2500,500,500,,,,,,
129823,National authorities,-8.71,115.18,Asia,Indonesia,Bali,Ungasan ,Unknown,27/11/2008,18/12/2008,Confirmed,Rabies,,"domestic, canine",1552,1,1,241,0,,,17,7
129820,National authorities,57.0338749,12.3487001,Europe,Sweden,Hallands Laen,Veddige,Unknown,29/11/2008,15/12/2008,Confirmed,Anthrax,,"domestic, cattle",86,13,13,13,,,,,
129818,National authorities,30.23,-9.56,Africa,Morocco,Souss - Massa - Draâ,Draid,Unknown,19/08/2008,19/09/2008,Confirmed,Peste des petits ruminants,,"domestic, sheep, domestic, goats",142,21,18,,,,,,
129817,National authorities,30.22,-9.36,Africa,Morocco,Souss - Massa - Draâ,Laarab Ait Oumalya,Unknown,19/08/2008,19/09/2008,Confirmed,Peste des petits ruminants,,"domestic, sheep, domestic, goats",96,35,12,,,,,,
129815,National authorities,32.67,-8.16,Africa,Morocco,Doukkala - Abda,Cheikh,Unknown,16/08/2008,19/09/2008,Confirmed,Peste des petits ruminants,,"domestic, sheep",125,11,7,,,,,,
129814,National authorities,34.44,-2.0,Africa,Morocco,Oriental,Guenfouda centre,Unknown,18/08/2008,19/09/2008,Confirmed,Peste des petits ruminants,,"domestic, sheep, domestic, goats",25,1,1,,,,,,
129813,National authorities,32.99,-6.85,Africa,Morocco,Chaouia - Ouardigha,Oulad Massoud,Unknown,19/08/2008,19/09/2008,Confirmed,Peste des petits ruminants,,"domestic, sheep",9,1,0,,,,,,
129812,National authorities,32.86,-6.95,Africa,Morocco,Chaouia - Ouardigha,Oulad Abdoune,Unknown,19/08/2008,19/09/2008,Confirmed,Peste des petits ruminants,,"domestic, sheep",220,2,0,,,,,,
129811,National authorities,34.59,-2.08,Africa,Morocco,Oriental,Hachlaf,Unknown,18/08/2008,19/09/2008,Confirmed,Peste des petits ruminants,,"domestic, sheep, domestic, goats",245,6,0,,,,,,
129810,National authorities,34.77,-2.13,Africa,Morocco,Oriental,Beni Mimoun,Unknown,18/08/2008,19/09/2008,Confirmed,Peste des petits ruminants,,"domestic, sheep, domestic, goats",145,1,0,,,,,,
129809,National authorities,32.58,-6.86,Africa,Morocco,Tadla - Azilal,Oulad Moussa,Unknown,08/08/2008,19/09/2008,Confirmed,Peste des petits ruminants,,"domestic, sheep, domestic, goats",251,12,6,,,,,,
129806,National authorities,33.45,-7.32,Africa,Morocco,Chaouia - Ouardigha,Laghouaouta,Unknown,15/08/2008,19/09/2008,Confirmed,Peste des petits ruminants,,"domestic, sheep",500,50,19,,,,,,
129805,National authorities,32.86,-4.06,Africa,Morocco,Fès - Boulemane,Atchana,Unknown,30/08/2008,19/09/2008,Confirmed,Peste des petits ruminants,,"domestic, sheep, domestic, goats",150,55,6,,,,,,
129804,National authorities,33.06,-4.01,Africa,Morocco,Fès - Boulemane,Tghazoute,Unknown,03/09/2008,19/09/2008,Confirmed,Peste des petits ruminants,,"domestic, sheep",73,5,0,,,,,,
129803,National authorities,31.36,-8.83,Africa,Morocco,Marrakech - Tensift - Al Haouz,Ouled Soula,Unknown,05/09/2008,19/09/2008,Confirmed,Peste des petits ruminants,,"domestic, sheep, domestic, goats",227,51,0,,,,,,
129802,National authorities,32.28,-7.86,Africa,Morocco,Marrakech - Tensift - Al Haouz,Mrabtine,Unknown,01/09/2008,19/09/2008,Confirmed,Peste des petits ruminants,,"domestic, sheep",200,41,36,,,,,,
129801,National authorities,32.37,-7.73,Africa,Morocco,Marrakech - Tensift - Al Haouz," Mtaguil Mesrane",Unknown,25/08/2008,19/09/2008,Confirmed,Peste des petits ruminants,,"domestic, sheep, domestic, goats",205,47,45,,,,,,
129800,National authorities,32.29,-8.09,Africa,Morocco,Marrakech - Tensift - Al Haouz,Lkrikir,Unknown,16/08/2008,19/09/2008,Confirmed,Peste des petits ruminants,,"domestic, sheep",140,40,25,,,,,,
129799,OIE,25.0,88.08,Asia,India,West Bengal,EnglishBazar,Unknown,13/12/2008,14/12/2008,Confirmed,Influenza - Avian,H5N1 HPAI,"domestic, unspecified bird",,,,,,,,,
129798,National authorities,11.4529591,105.0034409,Asia,Cambodia,Kandal,Kandal,Unknown,28/11/2008,12/12/2008,Confirmed,Influenza - Avian,H5N1 HPAI,,,,,,,,,1,
129796,National authorities,33.11,-5.3,Africa,Morocco,Meknès - Tafilalet,Bousseraf,Unknown,09/08/2008,19/09/2008,Confirmed,Peste des petits ruminants,,"domestic, sheep, domestic, goats",72,49,42,,,,,,
129795,National authorities,33.28,-5.64,Africa,Morocco,Meknès - Tafilalet,Ait Sidi Belkacem,Unknown,26/08/2008,19/09/2008,Confirmed,Peste des petits ruminants,,"domestic, sheep, domestic, goats",257,13,5,,,,,,
129794,National authorities,33.04,-5.61,Africa,Morocco,Meknès - Tafilalet,Taghat,Unknown,30/08/2008,19/09/2008,Confirmed,Peste des petits ruminants,,"domestic, sheep, domestic, goats",169,4,0,,,,,,
129793,National authorities,33.12,-6.12,Africa,Morocco,Meknès - Tafilalet,Ait Moussa,Unknown,30/08/2008,19/09/2008,Confirmed,Peste des petits ruminants,,"domestic, sheep",62,2,1,,,,,,
129792,National authorities,33.15,-5.85,Africa,Morocco,Meknès - Tafilalet,Ait Ikkou ou Ali,Unknown,29/08/2008,19/09/2008,Confirmed,Peste des petits ruminants,,"domestic, sheep",125,20,10,,,,,,
129791,National authorities,33.15,-5.85,Africa,Morocco,Meknès - Tafilalet,Ait Ahmed ou Ammou,Unknown,28/08/2008,19/09/2008,Confirmed,Peste des petits ruminants,,"domestic, sheep, domestic, goats",58,20,10,,,,,,
129790,National authorities,33.15,-5.85,Africa,Morocco,Meknès - Tafilalet,Amahrouq,Unknown,27/08/2008,19/09/2008,Confirmed,Peste des petits ruminants,,"domestic, sheep, domestic, goats",99,10,5,,,,,,
129789,National authorities,32.63,-5.27,Africa,Morocco,Meknès - Tafilalet,Ait Ouaaziz,Unknown,01/09/2008,19/09/2008,Confirmed,Peste des petits ruminants,,"domestic, sheep, domestic, goats",240,6,2,,,,,,
129788,National authorities,33.15,-5.85,Africa,Morocco,Meknès - Tafilalet,Ait Ahmed ou Ammou 2,Unknown,28/08/2008,19/09/2008,Confirmed,Peste des petits ruminants,,"domestic, sheep",53,30,15,,,,,,
129787,National authorities,33.15,-5.85,Africa,Morocco,Meknès - Tafilalet,Ait Ahmed ou Ammou,Unknown,01/09/2008,19/09/2008,Confirmed,Peste des petits ruminants,,"domestic, sheep, domestic, goats",80,4,2,,,,,,
129786,National authorities,32.63,-5.27,Africa,Morocco,Meknès - Tafilalet,Ait Wahi ou Haqqi,Unknown,02/09/2008,19/09/2008,Confirmed,Peste des petits ruminants,,"domestic, sheep, domestic, goats",306,7,1,,,,,,
129785,National authorities,32.41,-5.43,Africa,Morocco,Meknès - Tafilalet,Bouadil,Unknown,03/09/2008,19/09/2008,Confirmed,Peste des petits ruminants,,"domestic, sheep, domestic, goats",82,17,6,,,,,,
129784,National authorities,32.83,-5.15,Africa,Morocco,Meknès - Tafilalet,Ait Said ou Haddou,Unknown,04/09/2008,19/09/2008,Confirmed,Peste des petits ruminants,,"domestic, sheep, domestic, goats",128,16,5,,,,,,
129783,National authorities,33.15,-5.85,Africa,Morocco,Meknès - Tafilalet,Ait Mansour,Unknown,19/08/2008,19/09/2008,Confirmed,Peste des petits ruminants,,"domestic, sheep",125,18,7,,,,,,
129782,National authorities,33.15,-5.85,Africa,Morocco,Meknès - Tafilalet,El Bach,Unknown,18/08/2008,19/09/2008,Confirmed,Peste des petits ruminants,,"domestic, sheep, domestic, goats",168,42,21,,,,,,
129781,National authorities,33.15,-5.85,Africa,Morocco,Meknès - Tafilalet,Amahroq,Unknown,21/08/2008,19/09/2008,Confirmed,Peste des petits ruminants,,"domestic, sheep",130,7,7,,,,,,
129780,National authorities,33.04,-5.61,Africa,Morocco,Meknès - Tafilalet,Aviation,Unknown,31/08/2008,19/09/2008,Confirmed,Peste des petits ruminants,,"domestic, sheep",1120,10,1,,,,,,
129779,National authorities,32.51,-7.2,Africa,Morocco,Chaouia - Ouardigha,Melalia,Unknown,01/09/2008,19/09/2008,Confirmed,Peste des petits ruminants,,"domestic, goats",50,1,0,,,,,,
129778,National authorities,34.19,-5.58,Africa,Morocco,Gharb - Chrarda - Béni Hssen,Ouled Meriem,Unknown,08/09/2008,19/09/2008,Confirmed,Peste des petits ruminants,,"domestic, sheep",215,1,0,,,,,,
129777,National authorities,34.51,-2.46,Africa,Morocco,Oriental,Oulad Abdelhakim,Unknown,29/08/2008,19/09/2008,Confirmed,Peste des petits ruminants,,"domestic, sheep, domestic, goats",122,5,4,,,,,,
129776,National authorities,30.47,-8.54,Africa,Morocco,Souss - Massa - Draâ,Arazane,Unknown,25/08/2008,19/09/2008,Confirmed,Peste des petits ruminants,,"domestic, sheep",30,3,0,,,,,,
129775,National authorities,34.2,-3.29,Africa,Morocco,Taza - Al Hoceima - Taounate,Lahouissi,Unknown,07/09/2008,19/09/2008,Confirmed,Peste des petits ruminants,,"domestic, sheep, domestic, goats",215,13,1,,,,,,
129773,National authorities,16.0740356,120.0824585,Asia,Philippines,Region I (Ilocos region),Pangasinan,Unknown,10/07/2008,10/12/2008,Confirmed,Porcine reproductive and respiratory syndrome,,"domestic, swine",,,,,,,,,
129772,National authorities,14.9028425,120.9031372,Asia,Philippines,Region III (Central Luzon),Bulacan,Unknown,10/07/2008,10/12/2008,Confirmed,Porcine reproductive and respiratory syndrome,,"domestic, swine",,,,,,,,,
129771,National authorities,15.5105648,120.9021301,Asia,Philippines,Region III (Central Luzon),Nueva Ecija,Unknown,10/07/2008,10/12/2008,Confirmed,Porcine reproductive and respiratory syndrome,,"domestic, swine",,,,,,,,,
129767,OIE,-21.37,46.14,Africa,Madagascar,Haute Matsiatra,Antanifotsy,Unknown,10/12/2008,26/12/2008,Confirmed,Rift Valley fever,,"domestic, cattle",7,2,0,,,,,,
129765,FAO Field Officer,15.112958,103.6110229,Asia,Thailand,Surin,Surin,Unknown,02/12/2008,10/12/2008,Denied,Influenza - Avian,HPAI,"domestic, unspecified bird",,,,,,,,,
129763,National authorities,26.35,90.38,Asia,India,Assam,Nalibari,Unknown,05/12/2008,11/12/2008,Confirmed,Influenza - Avian,H5N1 HPAI,"domestic, unspecified bird",1500,399,399,,,,,,
129762,National authorities,27.28,95.54,Asia,India,Assam,"Ward No. 6, East Revenue Circle",Unknown,07/12/2008,11/12/2008,Confirmed,Influenza - Avian,H5N1 HPAI,"domestic, unspecified bird",120,120,120,,,,,,
129761,National authorities,26.1,91.8166667,Asia,India,Meghalaya,Khanapara,Unknown,05/12/2008,11/12/2008,Confirmed,Influenza - Avian,H5N1 HPAI,"domestic, unspecified bird",1231,112,112,,,,,,
129759,National authorities,32.21,-6.66,Africa,Morocco,Tadla - Azilal,Ait Ouaariane,Unknown,04/09/2008,30/09/2008,Confirmed,Peste des petits ruminants,,"domestic, sheep, domestic, goats",44,8,6,,,,,,
129758,National authorities,35.06,-2.36,Africa,Morocco,Oriental,Chnane,Unknown,15/09/2008,30/09/2008,Confirmed,Peste des petits ruminants,,"domestic, sheep, domestic, goats",170,8,2,,,,,,
129756,FAO Field Officer,25.10998,90.19008,Asia,Bangladesh,Dhaka,Nalitabari,Unknown,08/12/2008,09/12/2008,Denied,Influenza - Avian,HPAI,"domestic, unspecified bird",,,,,,,,,
129754,National authorities,33.09,-4.58,Africa,Morocco,Fès - Boulemane,Achlouj,Unknown,20/09/2008,30/09/2008,Confirmed,Peste des petits ruminants,,"domestic, sheep, domestic, goats",60,2,0,,,,,,
129753,National authorities,32.24,-7.95,Africa,Morocco,Marrakech - Tensift - Al Haouz,Jloud Barri,Unknown,07/09/2008,30/09/2008,Confirmed,Peste des petits ruminants,,"domestic, sheep",69,13,7,,,,,,
129752,National authorities,34.44,-2.0,Africa,Morocco,Oriental,Lkhoufiene,Unknown,02/09/2008,30/09/2008,Confirmed,Peste des petits ruminants,,"domestic, sheep",17,2,1,,,,,,
129750,National authorities,26.0,91.0,Asia,India,Assam,Katla,Unknown,30/11/2008,04/12/2008,Confirmed,Influenza - Avian,H5N1 HPAI,"domestic, unspecified bird",8406,75,75,8331,,,,,
129748,National authorities,26.5,90.39,Asia,India,Assam,Katajhar,Unknown,30/11/2008,04/12/2008,Confirmed,Influenza - Avian,H5N1 HPAI,"domestic, unspecified bird",10715,18,18,10697,,,,,
129730,National authorities,22.449,114.013,Asia,"Hong Kong, SAR",Administrative unit not available,Yuen Long,Unknown,08/12/2008,09/12/2008,Confirmed,Influenza - Avian,H5N1 HPAI,"domestic, chicken",67968,285,285,67683,0,,,,
129728,National authorities,34.84,-6.06,Africa,Morocco,Gharb - Chrarda - Béni Hssen,Ouled Nefkha,Unknown,08/09/2008,30/09/2008,Confirmed,Peste des petits ruminants,,"domestic, sheep",18,3,2,,,,,,
129727,National authorities,34.74,-6.21,Africa,Morocco,Gharb - Chrarda - Béni Hssen,Cooperative Lahmar,Unknown,07/09/2008,30/09/2008,Confirmed,Peste des petits ruminants,,"domestic, sheep",70,4,0,,,,,,
129726,National authorities,34.84,-6.06,Africa,Morocco,Gharb - Chrarda - Béni Hssen,Dachra,Unknown,08/09/2008,30/09/2008,Confirmed,Peste des petits ruminants,,"domestic, sheep, domestic, goats",230,5,4,,,,,,
129723,National authorities,33.72,-6.65,Africa,Morocco,Rabat - Salé - Zemmour - Zaer,Labzaiz Ouled Khalifa,Unknown,25/08/2008,30/09/2008,Confirmed,Peste des petits ruminants,,"domestic, sheep",303,47,3,,,,,,
129722,National authorities,33.66,-6.09,Africa,Morocco,Rabat - Salé - Zemmour - Zaer,Timksaouine,Unknown,09/09/2008,30/09/2008,Confirmed,Peste des petits ruminants,,"domestic, sheep, domestic, goats",260,12,2,,,,,,
129721,National authorities,33.15,-5.85,Africa,Morocco,Meknès - Tafilalet,Ziar 1,Unknown,05/09/2008,30/09/2008,Confirmed,Peste des petits ruminants,,"domestic, sheep, domestic, goats",24,7,4,,,,,,
129720,National authorities,33.15,-5.85,Africa,Morocco,Meknès - Tafilalet,Ziar 2,Unknown,05/09/2008,30/09/2008,Confirmed,Peste des petits ruminants,,"domestic, sheep",10,2,0,,,,,,
129719,National authorities,33.15,-5.85,Africa,Morocco,Meknès - Tafilalet,Ziar 4,Unknown,05/09/2008,30/09/2008,Confirmed,Peste des petits ruminants,,"domestic, sheep, domestic, goats",69,4,4,,,,,,
129718,National authorities,33.15,-5.85,Africa,Morocco,Meknès - Tafilalet,Ziar 5,Unknown,05/09/2008,30/09/2008,Confirmed,Peste des petits ruminants,,"domestic, sheep",41,4,2,,,,,,
129717,National authorities,35.12,-5.6,Africa,Morocco,Tanger - Tétouan,Kasba,Unknown,11/08/2008,30/09/2008,Confirmed,Peste des petits ruminants,,"domestic, goats",50,13,6,,,,,,
129716,National authorities,35.12,-5.6,Africa,Morocco,Tanger - Tétouan,Jbila ,Unknown,11/08/2008,30/09/2008,Confirmed,Peste des petits ruminants,,"domestic, goats",90,20,8,,,,,,
129715,National authorities,35.12,-5.6,Africa,Morocco,Tanger - Tétouan,Tarya,Unknown,05/09/2008,30/09/2008,Confirmed,Peste des petits ruminants,,"domestic, sheep, domestic, goats",71,33,14,,,,,,
129714,National authorities,-16.057,34.785,Africa,Malawi,Southern Region,Mnthumba crush,Unknown,25/10/2008,30/10/2008,Confirmed,Foot and mouth disease,SAT2,"domestic, cattle",3907,41,0,0,0,,,,
129713,National authorities,-16.057,34.785,Africa,Malawi,Southern Region,Mnthumba ,Unknown,11/11/2008,21/11/2008,Confirmed,Foot and mouth disease,SAT2,"domestic, cattle",3907,49,0,0,0,,,,
129708,National authorities,33.81,-5.52,Africa,Morocco,Meknès - Tafilalet,Ait Haddou ou Hammou,Unknown,26/08/2008,30/09/2008,Confirmed,Peste des petits ruminants,,"domestic, sheep",66,10,7,,,,,,
129707,National authorities,34.59,-2.08,Africa,Morocco,Oriental,Ouled dif,Unknown,05/09/2008,30/09/2008,Confirmed,Peste des petits ruminants,,"domestic, sheep, domestic, goats",405,1,0,,,,,,
129706,National authorities,34.69,-1.87,Africa,Morocco,Oriental,Joudra,Unknown,02/09/2008,30/09/2008,Confirmed,Peste des petits ruminants,,"domestic, sheep, domestic, goats",189,1,0,,,,,,
129705,National authorities,34.52,-2.13,Africa,Morocco,Oriental,Oulad Rahou Zkara,Unknown,05/09/2008,30/09/2008,Confirmed,Peste des petits ruminants,,"domestic, sheep, domestic, goats",386,17,13,,,,,,
129704,National authorities,34.59,-2.08,Africa,Morocco,Oriental,Haj Moussa,Unknown,05/09/2008,30/09/2008,Confirmed,Peste des petits ruminants,,"domestic, sheep",68,5,0,,,,,,
129703,National authorities,33.91,-4.79,Africa,Morocco,Fès - Boulemane,Ait Tanout,Unknown,10/09/2008,30/09/2008,Confirmed,Peste des petits ruminants,,"domestic, sheep",27,12,0,,,,,,
129702,National authorities,34.2,-3.29,Africa,Morocco,Taza - Al Hoceima - Taounate,Tafrata,Unknown,12/07/2008,30/09/2008,Confirmed,Peste des petits ruminants,,"domestic, sheep, domestic, goats",1050,16,11,,,,,,
129701,National authorities,34.91,-2.48,Africa,Morocco,Oriental,Kijou,Unknown,01/09/2008,14/10/2008,Confirmed,Peste des petits ruminants,,"domestic, sheep, domestic, goats",61,19,16,,,,,,
129700,National authorities,34.94,-2.15,Africa,Morocco,Oriental,Zouit El Harbi,Unknown,27/08/2008,14/10/2008,Confirmed,Peste des petits ruminants,,"domestic, sheep, domestic, goats",302,14,2,,,,,,
129697,National authorities,33.61,-7.5,Africa,Morocco,Grand Casablanca,Sidi Bernoussi,Unknown,10/09/2008,14/10/2008,Confirmed,Peste des petits ruminants,,"domestic, sheep",14,1,1,,,,,,
129696,National authorities,33.66,-5.29,Africa,Morocco,Meknès - Tafilalet,Ait Moussa,Unknown,23/07/2008,14/10/2008,Confirmed,Peste des petits ruminants,,"domestic, sheep, domestic, goats",53,53,2,,,,,,
129695,National authorities,34.9,-5.94,Africa,Morocco,Gharb - Chrarda - Béni Hssen,Lahrarich,Unknown,24/09/2008,14/10/2008,Confirmed,Peste des petits ruminants,,"domestic, sheep",59,3,2,,,,,,
129694,National authorities,33.71,-6.34,Africa,Morocco,Rabat - Salé - Zemmour - Zaer,Ait Azzouz Maarif,Unknown,27/09/2008,14/10/2008,Confirmed,Peste des petits ruminants,,"domestic, sheep, domestic, goats",66,9,3,,,,,,
129693,National authorities,32.65,-5.54,Africa,Morocco,Meknès - Tafilalet,Takarmout,Unknown,20/09/2008,14/10/2008,Confirmed,Peste des petits ruminants,,"domestic, sheep",62,4,0,,,,,,
129692,National authorities,33.09,-5.43,Africa,Morocco,Meknès - Tafilalet,Oulghes,Unknown,20/09/2008,14/10/2008,Confirmed,Peste des petits ruminants,,"domestic, sheep",25,7,1,,,,,,
129691,National authorities,33.97,-6.87,Africa,Morocco,Rabat - Salé - Zemmour - Zaer,Ain Khaloya,Unknown,01/10/2008,14/10/2008,Confirmed,Peste des petits ruminants,,"domestic, sheep",18,7,1,,,,,,
129690,National authorities,33.22,-7.48,Africa,Morocco,Chaouia - Ouardigha,Laamiriyine,Unknown,17/09/2008,14/10/2008,Confirmed,Peste des petits ruminants,,"domestic, sheep, domestic, goats",162,10,8,,,,,,
129688,National authorities,42.3595,142.3105,Asia,Japan,Hokkaidoo,Niikappu town,Unknown,21/04/2008,25/06/2008,Confirmed,Influenza - Equine,H3N8,"domestic, horse",22,2,0,0,0,,,,
129687,National authorities,42.8331,142.4952,Asia,Japan,Hokkaidoo,Shinnhidaka town,Unknown,16/04/2008,25/06/2008,Confirmed,Influenza - Equine,H3N8,"domestic, horse",25,5,0,0,0,,,,
129686,National authorities,42.9138,142.3614,Asia,Japan,Hokkaidoo,Hidaka town,Unknown,15/04/2008,25/06/2008,Confirmed,Influenza - Equine,H3N8,"domestic, horse",21,3,0,0,0,,,,
129685,National authorities,42.4976,142.6715,Asia,Japan,Hokkaidoo,Hiratori town,Unknown,15/04/2008,25/06/2008,Confirmed,Influenza - Equine,H3N8,"domestic, horse",59,9,0,0,0,,,,
129684,National authorities,42.1366,142.9263,Asia,Japan,Hokkaidoo,Urakawa town,Unknown,07/04/2008,25/06/2008,Confirmed,Influenza - Equine,H3N8,"domestic, horse",24,7,0,0,0,,,,
129683,National authorities,38.31,140.9068,Asia,Japan,Miyagi,Sendai city,Unknown,26/03/2008,25/06/2008,Confirmed,Influenza - Equine,H3N8,"domestic, horse",74,6,0,0,0,,,,
129682,National authorities,34.9676,137.0442,Asia,Japan,Aiti,Toyoake city,Unknown,17/03/2008,25/06/2008,Confirmed,Influenza - Equine,H3N8,"domestic, horse",21,14,0,0,0,,,,
129680,National authorities,34.6788,134.9419,Asia,Japan,Hyoogo,Akashi city,Unknown,12/03/2008,25/06/2008,Confirmed,Influenza - Equine,H3N8,"domestic, horse",51,3,0,0,0,,,,
129679,National authorities,35.9657,140.2995,Asia,Japan,Ibaraki,Ryugasaki city,Unknown,04/04/2008,25/06/2008,Confirmed,Influenza - Equine,H3N8,"domestic, horse",,46,0,0,0,,,,
129678,National authorities,35.6692,139.4726,Asia,Japan,Tookyoo,Futyu city,Unknown,20/02/2008,25/06/2008,Confirmed,Influenza - Equine,H3N8,"domestic, horse",23,18,0,0,0,,,,
129676,National authorities,-33.5537,150.911,Oceania,Australia,New South Wales,Cattai,Unknown,25/08/2007,28/08/2007,Confirmed,Influenza - Equine,,"domestic, horse",10,7,0,0,0,,,,
129675,National authorities,-31.0255,151.068,Oceania,Australia,New South Wales,Tamworth,Unknown,25/08/2007,28/08/2007,Confirmed,Influenza - Equine,,"domestic, horse",3,3,0,0,0,,,,
129674,National authorities,-33.2246,151.222,Oceania,Australia,New South Wales,Kulnura ,Unknown,25/08/2007,28/08/2007,Confirmed,Influenza - Equine,,"domestic, horse",3,3,0,0,0,,,,
129673,National authorities,-33.5626,150.838,Oceania,Australia,New South Wales,Wilberforce,Unknown,25/08/2007,28/08/2007,Confirmed,Influenza - Equine,,"domestic, horse",17,17,1,0,0,,,,
129672,National authorities,-33.898,151.235,Oceania,Australia,New South Wales,Centennial Park,Unknown,24/08/2007,25/08/2007,Confirmed,Influenza - Equine,,"domestic, horse",190,11,0,0,0,,,,
129669,National authorities,26.1,91.15,Asia,India,Assam,Sarpara,Unknown,30/11/2008,01/12/2008,Confirmed,Influenza - Avian,H5N1 HPAI,"domestic, unspecified bird",,,,,,,,,
129668,National authorities,26.2,91.15,Asia,India,Assam,Patgaon,Unknown,28/11/2008,01/12/2008,Confirmed,Influenza - Avian,H5N1 HPAI,"domestic, unspecified bird, domestic, unspecified bird",7884,682,682,7202,,,,,
129664,FAO Field Officer,26.2166667,105.7666667,Asia,China,Guizhou Sheng,Maguan,Unknown,06/09/2008,01/12/2008,Denied,Influenza - Avian,HPAI,"domestic, chicken",,800,800,,,,,,
129662,National authorities,42.5231,142.0811,Asia,Japan,Hokkaidoo,Hidaka town,Unknown,20/08/2007,18/09/2007,Confirmed,Influenza - Equine,,"domestic, horse",100,1,0,0,0,,,,
129661,National authorities,34.8916,136.264,Asia,Japan,Siga,Koka city,Unknown,20/08/2007,18/09/2007,Confirmed,Influenza - Equine,,"domestic, horse",6,2,0,0,0,,,,
129660,National authorities,42.2109,142.8783,Asia,Japan,Hokkaidoo,Urakawa town,Unknown,20/08/2007,18/09/2007,Confirmed,Influenza - Equine,,"domestic, horse",23,2,0,0,0,,,,
129659,National authorities,35.0551,136.1888,Asia,Japan,Siga,Koka city,Unknown,22/08/2007,18/09/2007,Confirmed,Influenza - Equine,,"domestic, horse",75,14,0,0,0,,,,
129658,National authorities,42.1659,142.8405,Asia,Japan,Hokkaidoo,Urakawa town,Unknown,29/08/2007,18/09/2007,Confirmed,Influenza - Equine,,"domestic, horse",45,2,0,0,0,,,,
129657,National authorities,42.5027,142.0841,Asia,Japan,Hokkaidoo,Hidaka town,Unknown,06/09/2007,18/09/2007,Confirmed,Influenza - Equine,,"domestic, horse",58,1,0,0,0,,,,
129656,National authorities,35.025,136.2632,Asia,Japan,Siga,Koka city,Unknown,15/08/2007,18/09/2007,Confirmed,Influenza - Equine,,"domestic, horse",167,3,0,0,0,,,,
129653,National authorities,34.8623,136.05,Asia,Japan,Siga,Koka city,Unknown,17/08/2007,18/09/2007,Confirmed,Influenza - Equine,,"domestic, horse",56,2,0,0,0,,,,
129652,National authorities,35.0398,135.9782,Asia,Japan,Siga,Ritto city,Unknown,14/08/2007,28/08/2007,Confirmed,Influenza - Equine,,"domestic, horse",1370,210,0,0,0,,,,
129651,National authorities,35.959,140.3287,Asia,Japan,Ibaraki,Miho village,Unknown,15/08/2007,28/08/2007,Confirmed,Influenza - Equine,,"domestic, horse",1546,243,0,0,0,,,,
129650,National authorities,14.1286,-15.0164,Africa,Senegal,Kaffrine,Missirah,Unknown,07/08/2007,05/12/2007,Confirmed,African horse sickness,2,"domestic, horse",50,15,15,0,0,,,,
129646,National authorities,34.62,-5.28,Africa,Morocco,Gharb - Chrarda - Béni Hssen,Tazrout,Unknown,08/09/2008,14/10/2008,Confirmed,Peste des petits ruminants,,"domestic, sheep",14,3,0,,,,,,
129645,National authorities,33.94,-4.36,Africa,Morocco,Taza - Al Hoceima - Taounate,Zrarda,Unknown,10/09/2008,28/11/2008,Confirmed,Peste des petits ruminants,,"domestic, sheep, domestic, goats",256,8,3,,,,,,
129643,National authorities,31.22,-9.1,Africa,Morocco,Marrakech - Tensift - Al Haouz,Tizzi,Unknown,10/09/2008,28/11/2008,Confirmed,Peste des petits ruminants,,"domestic, sheep",48,1,0,,,,,,
129642,National authorities,31.22,-9.1,Africa,Morocco,Marrakech - Tensift - Al Haouz,Tighisrite,Unknown,10/09/2008,28/11/2008,Confirmed,Peste des petits ruminants,,"domestic, sheep",70,18,6,,,,,,
129641,National authorities,33.06,-4.01,Africa,Morocco,Fès - Boulemane,Ferte,Unknown,05/10/2008,28/11/2008,Confirmed,Peste des petits ruminants,,"domestic, goats, domestic, sheep",239,48,27,,,,,,
129640,National authorities,34.09,-4.67,Africa,Morocco,Taza - Al Hoceima - Taounate,Moualda,Unknown,13/10/2008,28/11/2008,Confirmed,Peste des petits ruminants,,"domestic, goats, domestic, sheep",124,8,0,,,,,,
129639,National authorities,14.1066,-15.5102,Africa,Senegal,Kaffrine,Kaolack,Unknown,20/08/2007,05/12/2007,Confirmed,African horse sickness,2,"domestic, horse",100,100,100,0,0,,,,
129638,National authorities,14.0957,-14.7531,Africa,Senegal,Kaffrine,Saly Escale,Unknown,06/08/2007,05/12/2007,Confirmed,African horse sickness,2,"domestic, horse",200,20,15,0,0,,,,
129637,National authorities,15.4343,-14.8189,Africa,Senegal,Louga,Kadji,Unknown,06/08/2007,05/12/2007,Confirmed,African horse sickness,2,"domestic, horse",350,31,31,0,0,,,,
129636,National authorities,13.7116,-13.5791,Africa,Senegal,Tambacounda,Koumpentoum,Unknown,06/08/2007,05/12/2007,Confirmed,African horse sickness,2,"domestic, horse",78,3,3,0,0,,,,
129635,National authorities,13.6677,-12.7122,Africa,Senegal,Tambacounda,Koussanar,Unknown,06/08/2007,05/12/2007,Confirmed,African horse sickness,2,"domestic, horse",200,10,6,0,0,,,,
129634,National authorities,14.765,-17.3974,Africa,Senegal,Dakar,Mbao,Unknown,28/05/2007,12/09/2007,Confirmed,African horse sickness,,"domestic, horse",18,1,1,0,0,,,,
129633,National authorities,14.7869,-17.3096,Africa,Senegal,Dakar,Pikine,Unknown,21/05/2007,12/09/2007,Confirmed,African horse sickness,,"domestic, horse",47,7,7,0,0,,,,
129628,OIE,26.15,91.77,Asia,India,Assam,Assam,Unknown,21/11/2008,26/11/2008,Confirmed,Influenza - Avian,H5N1 HPAI,"domestic, unspecified bird",391,324,324,,,,,,
129625,OIE,7.900311,35.610056,Africa,Ethiopia,Oromia,Dido,Unknown,30/03/2008,19/09/2008,Confirmed,African horse sickness,,"domestic, horse",5000,500,250,0,0,,,,
129624,OIE,7.120747,35.663247,Africa,Ethiopia,SNNPR,South Benchi,Unknown,27/05/2008,19/09/2008,Confirmed,African horse sickness,,"domestic, horse",1200,60,6,0,0,,,,
129623,OIE,6.698028,35.739725,Africa,Ethiopia,SNNPR,Yeshie Benchi,Unknown,01/06/2008,19/09/2008,Confirmed,African horse sickness,,"domestic, horse",1200,75,5,0,0,,,,
129622,OIE,6.733333,36.239019,Africa,Ethiopia,SNNPR,Decha,Unknown,17/05/2008,19/09/2008,Confirmed,African horse sickness,,"domestic, horse",2650,50,40,0,0,,,,
129621,OIE,7.608094,36.083875,Africa,Ethiopia,Oromia,Bonga Zuria,Unknown,10/04/2008,19/09/2008,Confirmed,African horse sickness,,"domestic, horse",3000,265,50,0,0,,,,
129620,FAO Field Officer,19.2333333,101.7333333,Asia,Lao People's Democratic Republic,Xaignabouli,Sayaboury,Unknown,21/11/2008,21/11/2008,Confirmed,Influenza - Avian,H5N1 HPAI,"domestic, unspecified bird",,,,,,,,,
129619,FAO Field Officer,19.24038,101.71597,Asia,Lao People's Democratic Republic,Xaignabouli,Nalao,Unknown,21/11/2008,21/11/2008,Confirmed,Influenza - Avian,H5N1 HPAI,"domestic, unspecified bird",,,,,,,,,
129613,OIE,7.674653,35.728842,Africa,Ethiopia,SNNPR,Gesha,Unknown,15/05/2008,19/09/2008,Confirmed,African horse sickness,,"domestic, horse",3660,500,219,0,0,,,,
129612,OIE,7.441428,36.100542,Africa,Ethiopia,SNNPR,Gimbo,Unknown,19/04/2008,19/09/2008,Confirmed,African horse sickness,,"domestic, horse",1000,150,60,0,0,,,,
129610,OIE,23.3335,32.9514,Africa,Egypt,Aswan,Edfu,Unknown,06/08/2008,21/09/2008,Confirmed,Influenza - Equine,H3N8,"domestic, horse",515,174,,,,,,,
129609,OIE,25.5585,32.4736,Africa,Egypt,Luxor,Luxor,Unknown,10/08/2008,21/09/2008,Confirmed,Influenza - Equine,H3N8,"domestic, horse",200,11,,,,,,,
129608,OIE,26.1038,32.8308,Africa,Egypt,Qena,Qous,Unknown,10/08/2008,21/09/2008,Confirmed,Influenza - Equine,H3N8,"domestic, horse",100,10,,,,,,,
129607,OIE,29.9022,31.3443,Africa,Egypt,Cairo,Helwan,Unknown,02/08/2008,06/08/2008,Confirmed,Influenza - Equine,H3N8,"domestic, horse",425,360,0,0,0,,,,
129606,OIE,27.2139,31.1126,Africa,Egypt,Assiut,Asyiut,Unknown,30/07/2008,06/08/2008,Confirmed,Influenza - Equine,H3N8,"domestic, horse",18,5,0,0,0,,,,
129605,OIE,30.0807,31.3587,Africa,Egypt,Cairo,Heliopolis,Unknown,06/07/2008,31/07/2008,Confirmed,Influenza - Equine,,"domestic, horse",2200,50,0,0,0,,,,
129604,OIE,30.0084,31.0933,Africa,Egypt,Giza,Al Jizah,Unknown,14/07/2008,31/07/2008,Confirmed,Influenza - Equine,,"domestic, horse",80,7,0,0,0,,,,
129601,National authorities,21.797451,104.5899658,Asia,Viet Nam,Yen Bai,Yen Bai,Unknown,01/11/2008,21/11/2008,Confirmed,Foot and mouth disease,,"domestic, buffaloes, domestic, swine",,20,,,,,,,
129600,National authorities,20.99833,105.00263,Asia,Viet Nam,Hoa Binh,Than Luong,Unknown,01/11/2008,21/11/2008,Confirmed,Foot and mouth disease,,"domestic, cattle",,150,,,,,,,
129591,FAO Field Officer,44.2626667,43.983333,Europe,Russian Federation,Stavropolskiy Kray,"Gorkaya Balka village, farm 1",Unknown,15/10/2008,24/10/2008,Confirmed,African swine fever,,"domestic, swine",460,120,120,0,0,,,,
129583,National authorities,6.4231,3.5689,Africa,Nigeria,Lagos,Lagos polo club,Unknown,17/01/2007,25/09/2007,Confirmed,African horse sickness,,"domestic, horse",,42,42,0,0,,,,
129582,National authorities,-33.83,19.76,Africa,South Africa,Western Cape,Highlands,Unknown,28/04/2006,08/05/2006,Confirmed,African horse sickness,,"domestic, horse",316,1,1,0,0,,,,
129581,National authorities,-33.77,19.58,Africa,South Africa,Western Cape,Rondeheuwel,Unknown,27/03/2006,08/05/2006,Confirmed,African horse sickness,,"domestic, horse",10,2,0,0,0,,,,
129580,National authorities,-33.77,19.68,Africa,South Africa,Western Cape,Dageraad,Unknown,27/03/2006,08/05/2006,Confirmed,African horse sickness,,"domestic, horse",53,11,4,2,0,,,,
129579,National authorities,-27.221,31.735,Africa,Swaziland,Shiselweni,Mathanjeni,Unknown,22/12/2005,12/01/2006,Confirmed,African horse sickness,,"domestic, horse",3,1,1,0,0,,,,
129578,OIE,36.5246,103.0929,Asia,China,Gansu Sheng,Yongdeng,Unknown,09/01/2008,01/02/2008,Confirmed,Influenza - Equine,H3N8,"domestic, horse",1152,150,0,0,0,,,,
129577,OIE,36.5853,103.0712,Asia,China,Gansu Sheng,TianZhu,Unknown,03/01/2008,01/02/2008,Confirmed,Influenza - Equine,H3N8,"domestic, horse",2007,671,9,0,0,,,,
129576,OIE,49.2679,89.701,Asia,Mongolia,Bayan-O'lgii,Bugat,Unknown,29/10/2007,14/11/2007,Confirmed,Influenza - Equine,,"domestic, horse",4801,45,0,0,0,,,,
129575,OIE,49.0363,89.3107,Asia,Mongolia,Bayan-O'lgii,Ulaankhus,Unknown,29/10/2007,14/11/2007,Confirmed,Influenza - Equine,,"domestic, horse",7700,17,0,0,0,,,,
129574,OIE,48.8862,88.4742,Asia,Mongolia,Bayan-O'lgii,Tsengel,Unknown,29/10/2007,14/11/2007,Confirmed,Influenza - Equine,,"domestic, horse",8500,306,0,0,0,,,,
129573,OIE,47.3205,90.9514,Asia,Mongolia,Bayan-O'lgii,Bulgan,Unknown,29/10/2007,14/11/2007,Confirmed,Influenza - Equine,,"domestic, horse",7200,695,0,0,0,,,,
129572,OIE,45.5297,92.5921,Asia,Mongolia,Xovd,Altai,Unknown,26/10/2007,14/11/2007,Confirmed,Influenza - Equine,,"domestic, horse",24462,868,0,0,0,,,,
129571,OIE,45.7441,92.161,Asia,Mongolia,Xovd,Uench,Unknown,26/10/2007,14/11/2007,Confirmed,Influenza - Equine,,"domestic, horse",24462,2611,0,0,0,,,,
129570,OIE,45.5297,92.5921,Asia,Mongolia,Xovd,Altai,Unknown,26/10/2007,14/11/2007,Confirmed,Influenza - Equine,,"domestic, horse",24462,868,0,0,0,,,,
129565,OIE,21.0103,101.6875,Asia,Lao People's Democratic Republic,Louang-Namtha,Boten cao,Unknown,07/10/2008,13/11/2008,Confirmed,Foot and mouth disease,O,"domestic, buffaloes, domestic, cattle",127,112,0,0,0,,,,
129564,OIE,37.26,105.26,Asia,China,Ningxia Huizu Zizhiqu,Qiangganyu,Unknown,06/11/2008,12/11/2008,Confirmed,Foot and mouth disease,Asia 1,"domestic, sheep, domestic, swine, domestic, cattle",297,102,0,297,0,,,,
129547,OIE,15.2329,99.5929,Asia,Thailand,Uthai Thani,Village 6,Unknown,10/11/2008,12/11/2008,Confirmed,Influenza - Avian,H5N1 HPAI,"domestic, chicken",7,5,5,2,,,,,
129544,OIE,47.87,88.06,Asia,China,Xinjiang Uygur Zizhiqu,Altay,Unknown,09/10/2007,05/11/2008,Confirmed,Influenza - Equine,H3N8,"domestic, horse",130000,5515,0,0,0,,,,
129543,OIE,36.8,10.1,Africa,Tunisia,Manouba,Ksar Said,Unknown,30/05/2005,16/06/2005,Confirmed,Influenza - Equine,,"domestic, horse",13,4,0,0,0,,,,
129539,OIE,31.96,-8.13,Africa,Morocco,Marrakech - Tensift - Al Haouz,Lakhouimate,Unknown,22/09/2008,03/11/2008,Confirmed,Peste des petits ruminants,,"domestic, sheep",850,30,30,,,,,,
129538,OIE,32.92,-5.8,Africa,Morocco,Meknès - Tafilalet,Timkhdoudine,Unknown,01/10/2008,03/11/2008,Confirmed,Peste des petits ruminants,,"domestic, goats, domestic, sheep",23,2,0,,,,,,
129537,OIE,33.06,-4.01,Africa,Morocco,Fès - Boulemane,Ouled El Bakri,Unknown,22/10/2008,03/11/2008,Confirmed,Peste des petits ruminants,,"domestic, goats, domestic, sheep",423,70,18,,,,,,
129536,OIE,32.55,-6.69,Africa,Morocco,Tadla - Azilal,Kyass,Unknown,15/10/2008,03/11/2008,Confirmed,Peste des petits ruminants,,"domestic, goats, domestic, sheep",314,1,1,,,,,,
129535,OIE,32.58,-6.86,Africa,Morocco,Tadla - Azilal,Ouled Ghazouani,Unknown,10/10/2008,03/11/2008,Confirmed,Peste des petits ruminants,,"domestic, goats, domestic, sheep",170,4,3,,,,,,
129534,OIE,32.58,-6.86,Africa,Morocco,Tadla - Azilal,Oulad Ghazouani,Unknown,07/10/2008,03/11/2008,Confirmed,Peste des petits ruminants,,"domestic, goats, domestic, sheep",400,2,0,,,,,,
129533,OIE,32.58,-6.86,Africa,Morocco,Tadla - Azilal,Legdama,Unknown,05/10/2008,03/11/2008,Confirmed,Peste des petits ruminants,,"domestic, goats, domestic, sheep",220,14,6,,,,,,
129532,OIE,32.29,-6.49,Africa,Morocco,Tadla - Azilal,Oulad M'barek,Unknown,03/10/2008,03/11/2008,Confirmed,Peste des petits ruminants,,"domestic, goats, domestic, sheep",4,1,0,,,,,,
129531,OIE,32.58,-6.86,Africa,Morocco,Tadla - Azilal,Ouled Ghazouani,Unknown,02/10/2008,03/11/2008,Confirmed,Peste des petits ruminants,,"domestic, goats, domestic, sheep",120,1,0,,,,,,
129528,OIE,0.187,37.427,Africa,Kenya,Eastern,Ngare Ndare,Unknown,04/12/2006,06/06/2007,Confirmed,Rift Valley fever,,"domestic, goat/sheep ",,3,,,,,,,
129527,OIE,-3.349,39.908,Africa,Kenya,Coast,Kilifi,Unknown,04/12/2006,06/06/2007,Confirmed,Rift Valley fever,,"domestic, goat/sheep ",,39,,,,,,,
129526,OIE,-0.879,36.196,Africa,Kenya,Rift Valley,Marula,Unknown,04/12/2006,06/06/2007,Confirmed,Rift Valley fever,,"domestic, goat/sheep ",,2,,,,,,,
129525,OIE,-1.22,36.9,Africa,Kenya,Nairobi,Kasarani,Unknown,04/12/2006,06/06/2007,Confirmed,Rift Valley fever,,"domestic, goat/sheep ",,3,,,,,,,
129524,OIE,-1.591,36.935,Africa,Kenya,Rift Valley,Giathugu,Unknown,04/12/2006,06/06/2007,Confirmed,Rift Valley fever,,"domestic, goat/sheep ",,1,,,,,,,
129523,OIE,-0.67,37.179,Africa,Kenya,Central,"Njoguini, Rurii",Unknown,04/12/2006,06/06/2007,Confirmed,Rift Valley fever,,"domestic, goat/sheep ",,5,,,,,,,
129522,OIE,-0.476,37.667,Africa,Kenya,Eastern,Karurumo,Unknown,04/12/2006,06/06/2007,Confirmed,Rift Valley fever,,"domestic, goat/sheep ",,1,,,,,,,
129520,OIE,-0.204,34.343,Africa,Kenya,Nyanza,Karia,Unknown,04/12/2006,06/06/2007,Confirmed,Rift Valley fever,,"domestic, goat/sheep ",,3,,,,,,,
129519,OIE,0.293,38.084,Africa,Kenya,Eastern,Baibariu,Unknown,04/12/2006,06/06/2007,Confirmed,Rift Valley fever,,"domestic, goat/sheep ",,4,,,,,,,
129518,OIE,-1.238,37.317,Africa,Kenya,Eastern,Tara,Unknown,04/12/2006,06/06/2007,Confirmed,Rift Valley fever,,"domestic, goat/sheep ",,1,,,,,,,
129517,OIE,-2.185,40.383,Africa,Kenya,Coast,Lamu,Unknown,04/12/2006,06/06/2007,Confirmed,Rift Valley fever,,"domestic, goat/sheep ",,1,,,,,,,
129516,OIE,1.234,39.941,Africa,Kenya,North Eastern,Hola,Unknown,04/12/2006,06/06/2007,Confirmed,Rift Valley fever,,"domestic, goat/sheep ",,2,,,,,,,
129515,OIE,-1.634,40.566,Africa,Kenya,North Eastern,Masalani,Unknown,04/12/2006,06/06/2007,Confirmed,Rift Valley fever,,"domestic, goat/sheep ",,2,,,,,,,
129514,OIE,-21.19,16.31,Africa,Namibia,Erongo,Ozondjisse Farm,Unknown,01/10/2008,27/10/2008,Confirmed,African swine fever,,"domestic, swine",174,91,91,27,0,,,,
129513,OIE,-1.131,36.915,Africa,Kenya,Central,Ruiru,Unknown,04/12/2006,06/06/2007,Confirmed,Rift Valley fever,,"domestic, goat/sheep ",,4,,,,,,,
129512,OIE,-0.621,37.88,Africa,Kenya,Eastern,"Evurore, Karaba, Wachoro, Mutito",Unknown,04/12/2006,06/06/2007,Confirmed,Rift Valley fever,,"domestic, goat/sheep ",,6,,,,,,,
129511,OIE,-3.389,37.672,Africa,Kenya,Coast,"Mwatate Sisal, Lualenyi Ranch, Taveta",Unknown,04/12/2006,06/06/2007,Confirmed,Rift Valley fever,,"domestic, goat/sheep ",,16,,,,,,,
129510,OIE,-4.43,39.454,Africa,Kenya,Coast,"Diani, Konamusa ",Unknown,04/12/2006,06/06/2007,Confirmed,Rift Valley fever,,"domestic, goat/sheep ",,,,,,,,,
129509,OIE,-4.546,39.121,Africa,Kenya,Coast,"kinango, Musiu, Lunga Lunga, Kidzumbani ",Unknown,04/12/2006,06/06/2007,Confirmed,Rift Valley fever,,"domestic, goat/sheep ",,59,,,,,,,
129508,OIE,3.43,40.968,Africa,Kenya,North Eastern,"Dantu, kutulo, Gari, Didkuro",Unknown,04/12/2006,06/06/2007,Confirmed,Rift Valley fever,,"domestic, goat/sheep ",,24,,,,,,,
129507,OIE,3.33,39.46,Africa,Kenya,North Eastern,Adadi Jole,Unknown,04/12/2006,09/01/2007,Confirmed,Rift Valley fever,,"domestic, goat/sheep ",,18,,,,,,,
129504,OIE,17.1915,99.3339,Asia,Thailand,Sukhothai,Village No 5 (Thung Saliam),Unknown,27/10/2008,05/11/2008,Confirmed,Influenza - Avian,H5N1 HPAI,"domestic, chicken",17,5,,12,,,,,
129503,FAO Field Officer,19.24038,101.71597,Asia,Lao People's Democratic Republic,Xaignabouli,Nalao,Unknown,04/11/2008,05/11/2008,Confirmed,Influenza - Avian,H5N1 HPAI,"domestic, unspecified bird",,,,,,,,,
129498,National authorities,-21.045933,22.497433,Africa,Botswana,Ghanzi,Newlook Farm,Unknown,20/10/2008,28/10/2008,Confirmed,Foot and mouth disease,SAT2,"domestic, cattle, domestic, goats, domestic, sheep",1883,36,0,1583,0,,,,
129495,OIE,-16.497,34.865,Africa,Malawi,Southern Region,"Thobwa, Ngabu",Unknown,05/09/2008,13/10/2008,Confirmed,Foot and mouth disease,SAT2,"domestic, cattle",20000,44,0,0,0,,,,
129494,OIE,-16.5559,35.0661,Africa,Malawi,Southern Region,Kaombe Ranch,Unknown,05/09/2008,26/09/2008,Confirmed,Foot and mouth disease,SAT2,"domestic, cattle",2300,28,0,0,0,,,,
129493,FAO Field Officer,17.282774,99.8576584,Asia,Thailand,Sukhothai,Nong Wong Kwian,Unknown,30/10/2008,30/10/2008,Denied,Influenza - Avian,H5N1 HPAI,"domestic, chicken",100,,,,,,,,
129492,FAO Field Officer,19.25555,101.70555,Asia,Lao People's Democratic Republic,Xaignabouli,Donengeun,Unknown,27/10/2008,29/10/2008,Confirmed,Influenza - Avian,H5N1 HPAI,"domestic, chicken",100,,9,,,,,,
129490,National authorities,10.40183,-66.16473,Americas,Venezuela,Miranda,Maturin,Unknown,21/07/2008,10/09/2008,Confirmed,Foot and mouth disease,A,"domestic, cattle",,,,,,,,,
129489,National authorities,9.3504124,-68.5791321,Americas,Venezuela,Cojedes,Libertad de Cojedes,Unknown,01/07/2008,10/09/2008,Confirmed,Foot and mouth disease,A,"domestic, cattle",,,,,,,,,
129488,National authorities,6.8760295,-61.0975609,Americas,Venezuela,Bolivar,Sifontes,Unknown,02/06/2008,10/09/2008,Confirmed,Foot and mouth disease,A,"domestic, cattle",,,,,,,,,
129486,National authorities,8.4866695,-71.8928146,Americas,Venezuela,Tachira,Samuel Dario Maldonado,Unknown,26/05/2008,10/09/2008,Confirmed,Foot and mouth disease,A,"domestic, cattle",,,,,,,,,
129485,National authorities,8.6003418,-71.69104,Americas,Venezuela,Merida,PRESIDENT E PAEZ,Unknown,26/05/2008,10/09/2008,Confirmed,Foot and mouth disease,A,"domestic, cattle",,,,,,,,,
129484,National authorities,8.7949257,-71.4425507,Americas,Venezuela,Merida,Obispo Ramos De Lora,Unknown,26/05/2008,10/09/2008,Confirmed,Foot and mouth disease,O,"domestic, cattle",,,,,,,,,
129483,National authorities,7.8386111,-72.2261111,Americas,Venezuela,Tachira,Palmira,Unknown,12/05/2008,10/09/2008,Confirmed,Foot and mouth disease,O,"domestic, cattle",,,,,,,,,
129482,National authorities,8.5699654,-68.9546967,Americas,Venezuela,Portuguesa,Trinidad de la capilla,Unknown,28/04/2008,10/09/2008,Confirmed,Foot and mouth disease,A,"domestic, cattle",,,,,,,,,
129481,National authorities,8.4897642,-71.2543259,Americas,Venezuela,Merida,Campo Elias,Unknown,28/04/2008,10/09/2008,Confirmed,Foot and mouth disease,A,"domestic, cattle",,,,,,,,,
129480,National authorities,7.8701444,-72.1254501,Americas,Venezuela,Tachira,Capital,Unknown,31/03/2008,10/09/2008,Confirmed,Foot and mouth disease,O,"domestic, cattle",,,,,,,,,
129479,National authorities,9.75,-63.15,Americas,Venezuela,Monagas,Maturin,Unknown,31/03/2008,10/09/2008,Confirmed,Foot and mouth disease,A,"domestic, cattle",,,,,,,,,
129478,National authorities,9.75,-63.15,Americas,Venezuela,Monagas,Maturin,Unknown,24/03/2008,10/09/2008,Confirmed,Foot and mouth disease,A,"domestic, cattle",,,,,,,,,
129477,FAO Field Officer,3.76527,8.74749,Africa,Equatorial Guinea,Bioko Sur,Punta europa,Unknown,15/10/2008,29/10/2008,Denied,Influenza - Avian,H5N1 HPAI,"wild, unspecified bird, wild, crow",,,4,,,,,,
129406,National authorities,51.326276,12.452204,Europe,Germany,Sachsen,Leipzig - Stadtgut M?lkau,Unknown,09/10/2008,17/10/2008,Confirmed,Influenza - Avian,H5 LPAI,"domestic, unspecified bird",106,106,,106,,,,,
129405,National authorities,51.351383,12.36792,Europe,Germany,Sachsen,Zoo Leipzig,Unknown,02/10/2008,22/10/2008,Confirmed,Influenza - Avian,H5N3 LPAI,"domestic, unspecified bird, domestic, goose, domestic, duck",248,4,,4,,,,,
129403,National authorities,7.7798462,-72.1175156,Americas,Venezuela,Tachira,Cardenas,Unknown,11/02/2008,10/09/2008,Confirmed,Foot and mouth disease,A,"domestic, cattle",,,,,,,,,
129402,National authorities,8.4897642,-71.2543259,Americas,Venezuela,Merida,PRESIDENT E PAEZ,Unknown,11/02/2008,10/09/2008,Confirmed,Foot and mouth disease,A,"domestic, cattle",,,,,,,,,
129401,National authorities,10.6027778,-68.6652778,Americas,Venezuela,Yaracuy,Yumare,Unknown,18/02/2008,10/09/2008,Confirmed,Foot and mouth disease,A,"domestic, cattle",,,,,,,,,
129399,National authorities,10.63333,-71.40001,Americas,Venezuela,Zulia,El Carmelo,Unknown,01/02/2008,10/09/2008,Confirmed,Foot and mouth disease,O,"domestic, cattle",,,,,,,,,
129390,National authorities,8.830925,-68.3382187,Americas,Venezuela,Cojedes,Sucre,Unknown,28/01/2008,10/09/2008,Confirmed,Foot and mouth disease,A,"domestic, cattle",,,,,,,,,
129389,National authorities,8.6003418,-71.69104,Americas,Venezuela,Merida,PRESIDENT E PAEZ,Unknown,07/01/2008,10/09/2008,Confirmed,Foot and mouth disease,O,"domestic, cattle",,,,,,,,,
129388,National authorities,22.3302287,114.1594505,Asia,"Hong Kong, SAR",Administrative unit not available,Sham Shui Po,Unknown,15/10/2008,20/10/2008,Confirmed,Influenza - Avian,H5N1 HPAI,"wild, crow",,1,1,,,,,,
129381,OIE,19.0,97.0,Asia,Myanmar,Kayar,Kalthawdaw,Unknown,29/07/2005,25/08/2005,Confirmed,Foot and mouth disease,Asia 1,"domestic, cattle",153,2,,,,,,,
129380,OIE,19.6,97.2,Asia,Myanmar,Kayar,Pan ka,Unknown,28/07/2005,25/08/2005,Confirmed,Foot and mouth disease,Asia 1,"domestic, cattle",352,10,,,,,,,
129379,OIE,19.6,97.2,Asia,Myanmar,Kayar,Daw paw ka law,Unknown,27/07/2005,25/08/2005,Confirmed,Foot and mouth disease,Asia 1,"domestic, cattle",493,10,,,,,,,
129378,OIE,48.3135,114.7879,Asia,Mongolia,Dornod,Bayantumen,Unknown,12/08/2005,18/08/2005,Confirmed,Foot and mouth disease,A,"domestic,camelidae (unidentified), domestic, cattle, domestic, goats, domestic, sheep)",5143,231,0,231,0,,,,
129377,OIE,33.23,35.67,Asia,Israel,Northern,Senir,Unknown,19/12/2005,20/12/2005,Confirmed,Foot and mouth disease,O,"domestic, cattle",1670,54,0,0,0,,,,
129376,OIE,22.26,114.16,Asia,"Hong Kong, SAR",Administrative unit not available,"Sheung Shui, New territories",Unknown,09/03/2005,23/03/2005,Confirmed,Foot and mouth disease,Asia 1,"domestic, unspecified mammal, domestic, goats, domestic, swine",7827,16,0,0,0,,,,
129375,OIE,4.63,-74.08,Americas,Colombia,Cundinamarca,Universidad nacional,Unknown,25/02/2005,09/03/2005,Confirmed,Foot and mouth disease,A,"domestic, cattle, domestic, goat/sheep ",80,21,0,22,0,,,,
129373,OIE,-23.8484,-54.3592,Americas,Brazil,Mato Grosso Do Sul,Mundo Novo 33,Unknown,24/11/2005,22/12/2005,Confirmed,Foot and mouth disease,O,"domestic, cattle, domestic, sheep",452,44,0,452,0,,,,
129372,OIE,-23.4814,-50.7033,Americas,Brazil,Parana,Sao Sebastiao da Amoreira,Unknown,22/10/2005,06/12/2005,Confirmed,Foot and mouth disease,O,"domestic, cattle",2254,23,0,1810,0,,,,
129371,OIE,-23.7751,-54.6751,Americas,Brazil,Mato Grosso Do Sul,Japora 30,Unknown,21/11/2005,06/12/2005,Confirmed,Foot and mouth disease,O,"domestic, cattle, domestic, sheep",611,38,0,611,0,,,,
129370,OIE,-23.8058,-54.3847,Americas,Brazil,Mato Grosso Do Sul,Eldorado 31,Unknown,19/11/2005,06/12/2005,Confirmed,Foot and mouth disease,O,"domestic, cattle",15,6,0,15,0,,,,
129369,OIE,-23.8861,-54.4006,Americas,Brazil,Mato Grosso Do Sul,Japora 29,Unknown,19/11/2005,06/12/2005,Confirmed,Foot and mouth disease,O,"domestic, cattle",30,3,0,30,0,,,,
129368,OIE,-23.6911,-54.2199,Americas,Brazil,Mato Grosso Do Sul,Eldorado 32,Unknown,22/10/2005,06/12/2005,Confirmed,Foot and mouth disease,O,"domestic, cattle",1093,68,0,1093,0,,,,
129367,OIE,-23.8373,-54.3513,Americas,Brazil,Mato Grosso Do Sul,Mundo Novo 26,Unknown,10/11/2005,25/11/2005,Confirmed,Foot and mouth disease,O,"domestic, cattle, domestic, sheep, domestic, swine",456,11,0,456,0,,,,
129366,OIE,-23.918,-54.2804,Americas,Brazil,Mato Grosso Do Sul,Mundo Novo 27,Unknown,13/11/2005,25/11/2005,Confirmed,Foot and mouth disease,O,"domestic, cattle",27,5,0,27,0,,,,
129365,OIE,-23.9376,-54.2704,Americas,Brazil,Mato Grosso Do Sul,Mundo Novo 28,Unknown,11/11/2005,25/11/2005,Confirmed,Foot and mouth disease,O,"domestic, cattle",9,1,0,9,0,,,,
129364,OIE,-23.8495,-54.5997,Americas,Paraguay,Canindeyu,Japora 25,Unknown,06/11/2005,25/11/2005,Confirmed,Foot and mouth disease,O,"domestic, cattle",1072,10,0,1072,0,,,,
129363,OIE,-23.7728,-54.6132,Americas,Brazil,Mato Grosso Do Sul,Japora 24,Unknown,01/11/2005,17/11/2005,Confirmed,Foot and mouth disease,O,"domestic, cattle, domestic, swine",254,2,0,254,0,,,,
129362,OIE,-23.771,-54.5241,Americas,Brazil,Mato Grosso Do Sul,Japora 23,Unknown,03/11/2005,10/11/2005,Confirmed,Foot and mouth disease,O,"domestic, cattle",886,18,0,886,0,,,,
129361,OIE,-23.7639,-54.6721,Americas,Brazil,Mato Grosso Do Sul,Japora 22,Unknown,31/10/2005,04/11/2005,Confirmed,Foot and mouth disease,O,"domestic, cattle, domestic, sheep",5590,42,0,5590,0,,,,
129360,OIE,-23.8681,-54.5382,Americas,Brazil,Mato Grosso Do Sul,Japora 14,Unknown,20/10/2005,29/10/2005,Confirmed,Foot and mouth disease,O,"domestic, cattle",1089,32,0,1089,0,,,,
129350,OIE,55.38,37.46,Europe,Russian Federation,Moskovskaya Oblast,Sadovod Market,Unknown,19/02/2007,15/10/2008,Confirmed,Influenza - Avian,H5N1 HPAI,"domestic, chicken",1455,325,81,1374,,,,,
129342,OIE,-23.854,-54.4702,Americas,Brazil,Mato Grosso Do Sul,Japora 21,Unknown,27/10/2005,29/10/2005,Confirmed,Foot and mouth disease,O,"domestic, cattle",34,1,0,34,0,,,,
129341,OIE,-23.8387,-54.54,Americas,Brazil,Mato Grosso Do Sul,Japora 15,Unknown,21/10/2005,29/10/2005,Confirmed,Foot and mouth disease,O,"domestic, cattle",21,2,0,21,0,,,,
129340,OIE,-23.8406,-54.5412,Americas,Brazil,Mato Grosso Do Sul,Japora 19,Unknown,26/10/2005,29/10/2005,Confirmed,Foot and mouth disease,O,"domestic, cattle",33,1,0,33,0,,,,
129339,OIE,-23.7848,-54.3829,Americas,Brazil,Mato Grosso Do Sul,Eldorado 20 ,Unknown,24/10/2005,29/10/2005,Confirmed,Foot and mouth disease,O,"domestic, cattle",46,1,0,46,0,,,,
129338,OIE,-23.8791,-54.4147,Americas,Brazil,Mato Grosso Do Sul,Japora 18,Unknown,24/10/2005,29/10/2005,Confirmed,Foot and mouth disease,O,"domestic, cattle, domestic, swine",63,1,0,63,0,,,,
129337,OIE,-23.8544,-54.5341,Americas,Brazil,Mato Grosso Do Sul,Japora 16 ,Unknown,21/10/2005,29/10/2005,Confirmed,Foot and mouth disease,O,"domestic, cattle",30,2,0,30,0,,,,
129336,OIE,-23.8454,-54.5173,Americas,Brazil,Mato Grosso Do Sul,Japora 17 ,Unknown,21/10/2005,29/10/2005,Confirmed,Foot and mouth disease,O,"domestic, cattle",38,9,0,38,0,,,,
129335,OIE,-23.8274,-54.3849,Americas,Brazil,Mato Grosso Do Sul,Mundo Novo 13 ,Unknown,19/10/2005,29/10/2005,Confirmed,Foot and mouth disease,O,"domestic, cattle, domestic, sheep, domestic, swine",623,5,0,623,0,,,,
129334,OIE,-23.8371,-54.5434,Americas,Brazil,Mato Grosso Do Sul,Japor? 09,Unknown,17/10/2005,29/10/2005,Confirmed,Foot and mouth disease,O,"domestic, cattle",8,2,0,8,0,,,,
129333,OIE,-23.765,-54.3712,Americas,Brazil,Mato Grosso Do Sul,Eldorado 12,Unknown,12/10/2005,26/10/2005,Confirmed,Foot and mouth disease,O,"domestic, cattle, domestic, swine",65,5,0,65,0,,,,
129332,OIE,-23.8212,-54.4276,Americas,Brazil,Mato Grosso Do Sul,Japora -06,Unknown,13/10/2005,21/10/2005,Confirmed,Foot and mouth disease,O,"domestic, cattle",232,23,0,232,0,,,,
129331,OIE,-23.8683,-54.4596,Americas,Brazil,Mato Grosso Do Sul,Japora -07,Unknown,12/10/2005,21/10/2005,Confirmed,Foot and mouth disease,O,"domestic, cattle",34,12,0,34,0,,,,
129330,OIE,-23.8368,-54.5387,Americas,Brazil,Mato Grosso Do Sul,Japora -11 ,Unknown,17/10/2005,21/10/2005,Confirmed,Foot and mouth disease,O,"domestic, cattle",18,3,0,18,0,,,,
129329,OIE,-23.8717,-54.5326,Americas,Brazil,Mato Grosso Do Sul,Japor? -08 ,Unknown,17/10/2005,21/10/2005,Confirmed,Foot and mouth disease,O,"domestic, cattle",142,20,0,142,0,,,,
129328,OIE,-23.8301,-54.3891,Americas,Brazil,Mato Grosso Do Sul,Mundo Novo-10,Unknown,16/10/2005,21/10/2005,Confirmed,Foot and mouth disease,O,"domestic, cattle, domestic, swine",833,20,0,833,0,,,,
129327,OIE,-23.685,-54.2619,Americas,Brazil,Mato Grosso Do Sul,Eldorado,Unknown,05/10/2005,18/10/2005,Confirmed,Foot and mouth disease,O,"domestic, cattle, domestic, goat/sheep ",3738,65,0,752,0,,,,
129326,OIE,-23.8355,-54.4235,Americas,Brazil,Mato Grosso Do Sul,Japor?,Unknown,05/10/2005,18/10/2005,Confirmed,Foot and mouth disease,O,"domestic, cattle",112,9,0,112,0,,,,
129325,OIE,-23.8359,-54.4449,Americas,Brazil,Mato Grosso Do Sul,Japor? 3,Unknown,05/10/2005,18/10/2005,Confirmed,Foot and mouth disease,O,"domestic, cattle",132,13,0,132,0,,,,
129324,OIE,-23.8645,-54.436,Americas,Brazil,Mato Grosso Do Sul,Japor?,Unknown,01/10/2005,18/10/2005,Confirmed,Foot and mouth disease,O,"domestic, cattle",790,31,0,790,0,,,,
129323,OIE,-23.7004,-54.2354,Americas,Brazil,Mato Grosso Do Sul,Eldorado,Unknown,26/09/2005,09/10/2005,Confirmed,Foot and mouth disease,O,"domestic, cattle, domestic, swine",600,154,0,600,0,,,,
129322,OIE,36.73,101.2,Asia,China,Qinghai Sheng,Tongren ,Unknown,17/07/2005,20/07/2005,Confirmed,Foot and mouth disease,Asia 1,"domestic, cattle",168,95,0,168,0,,,,
129321,OIE,35.58,105.67,Asia,China,Gansu Sheng,Jingning ,Unknown,17/07/2005,20/07/2005,Confirmed,Foot and mouth disease,Asia 1,"domestic, cattle, domestic, sheep",454,66,0,454,0,,,,
129320,OIE,40.84,114.83,Asia,China,Hebei Sheng,Zhangjiakou ,Unknown,23/06/2005,24/06/2005,Confirmed,Foot and mouth disease,Asia 1,"domestic, cattle",263,4,0,263,0,,,,
129319,OIE,43.92,87.46,Asia,China,Xinjiang Uygur Zizhiqu,Weili ,Unknown,19/06/2005,20/06/2005,Confirmed,Foot and mouth disease,Asia 1,"domestic, cattle",261,40,0,261,0,,,,
129318,OIE,43.88,87.45,Asia,China,Xinjiang Uygur Zizhiqu,Hebukesaier ,Unknown,18/05/2005,26/05/2005,Confirmed,Foot and mouth disease,Asia 1,"domestic, cattle",308,75,0,308,0,,,,
129317,OIE,41.31,117.97,Asia,China,Hebei Sheng,Sanhe ,Unknown,25/05/2005,26/05/2005,Confirmed,Foot and mouth disease,Asia 1,"domestic, cattle",512,0,0,512,0,,,,
129316,OIE,40.51,115.91,Asia,China,Beijing Shi,Yanqing ,Unknown,05/05/2005,26/05/2005,Confirmed,Foot and mouth disease,Asia 1,"domestic, cattle",2464,252,0,2464,0,,,,
129315,OIE,31.66,120.23,Asia,China,Jiangsu Sheng,Huishan,Unknown,24/04/2005,13/05/2005,Confirmed,Foot and mouth disease,Asia 1,"domestic, cattle",183,15,0,183,0,,,,
129314,OIE,36.26,117.06,Asia,China,Shandong Sheng,Daiyue,Unknown,24/04/2005,13/05/2005,Confirmed,Foot and mouth disease,Asia 1,"domestic, cattle",40,17,0,40,0,,,,
129312,OIE,-18.53,25.65,Africa,Botswana,Chobe,Pandamatenga,Unknown,28/07/2005,15/08/2005,Confirmed,Foot and mouth disease,SAT2,"domestic, cattle",1300,123,0,0,0,,,,
129308,OIE,30.351,31.2188,Africa,Egypt,Kalyoubia,Banha ,Unknown,04/06/2006,01/07/2006,Confirmed,Foot and mouth disease,A,"domestic, cattle",15,5,0,0,6,,,,
129307,OIE,30.3607,32.02,Africa,Egypt,Ismailia,Eltal Elkebeer ,Unknown,18/02/2006,01/04/2006,Confirmed,Foot and mouth disease,A,"domestic, cattle",13,2,0,0,4,,,,
129306,OIE,30.5586,31.1512,Africa,Egypt,Menoufia,Kousna ,Unknown,09/03/2006,01/04/2006,Confirmed,Foot and mouth disease,A,"domestic, buffaloes",5,3,0,0,5,,,,
129305,OIE,30.4427,32.1117,Africa,Egypt,Ismailia,El tal elkebeer ,Unknown,28/02/2006,01/04/2006,Confirmed,Foot and mouth disease,A,"domestic, buffaloes",120,2,0,0,0,,,,
129304,OIE,30.6068,32.1744,Africa,Egypt,Ismailia,Abb Alla ,Unknown,28/02/2006,01/04/2006,Confirmed,Foot and mouth disease,A,"domestic, buffaloes",10,6,0,0,2,,,,
129303,OIE,30.4234,32.1454,Africa,Egypt,Ismailia,El tal Eikebeer ,Unknown,01/03/2006,01/04/2006,Confirmed,Foot and mouth disease,A,"domestic, buffaloes",36,2,0,0,4,,,,
129302,OIE,30.5006,31.0692,Africa,Egypt,Menoufia,El shohada ,Unknown,09/03/2006,01/04/2006,Confirmed,Foot and mouth disease,A,"domestic, buffaloes",5,5,0,0,5,,,,
129301,OIE,30.631,31.1367,Africa,Egypt,Menoufia,El saba'a ,Unknown,26/02/2006,01/04/2006,Confirmed,Foot and mouth disease,A,"domestic, buffaloes",220,130,12,0,50,,,,
129300,OIE,30.1676,31.2091,Africa,Egypt,Kalyoubia,Kaliub,Unknown,28/02/2006,01/04/2006,Confirmed,Foot and mouth disease,A,"domestic, buffaloes",4,4,0,0,4,,,,
129299,OIE,30.4765,31.2333,Africa,Egypt,Kalyoubia,Banha ,Unknown,20/02/2006,01/04/2006,Confirmed,Foot and mouth disease,A,"domestic, cattle",20,2,0,0,0,,,,
129298,OIE,30.631,32.1406,Africa,Egypt,Shrkia,Assam,Unknown,20/02/2006,01/04/2006,Confirmed,Foot and mouth disease,A,"domestic, cattle",7,5,0,7,3,,,,
129291,National authorities,51.148034,14.885179,Europe,Germany,Sachsen,Markersdorf,Unknown,09/10/2008,10/10/2008,Confirmed,Influenza - Avian,H5N1 HPAI,"domestic, goose, domestic, duck, domestic, turkey, domestic, chicken, domestic, unspecified bird",1434,1,,1434,,,,,
129286,OIE,7.280886,35.610056,Africa,Ethiopia,SNNPR,Chena,Unknown,19/04/2008,19/09/2008,Confirmed,African horse sickness,2,"domestic, horse",4000,300,210,0,,,,,
129284,OIE,-21.7,27.93,Africa,Botswana,Central,Semabaje,Unknown,11/04/2006,18/05/2006,Confirmed,Foot and mouth disease,SAT2,"domestic, cattle",88,1,0,0,0,,,,
129283,OIE,-21.77,28.09,Africa,Botswana,Central,Thuni II,Unknown,11/04/2006,18/05/2006,Confirmed,Foot and mouth disease,SAT2,"domestic, cattle",587,8,0,0,0,,,,
129282,OIE,-21.89,28.46,Africa,Botswana,Central,Majande 2,Unknown,11/04/2006,18/05/2006,Confirmed,Foot and mouth disease,SAT2,"domestic, cattle",521,8,0,0,0,,,,
129281,OIE,-21.73,27.85,Africa,Botswana,Central,Sekwadila,Unknown,11/04/2006,18/05/2006,Confirmed,Foot and mouth disease,SAT2,"domestic, cattle",133,7,0,0,0,,,,
129280,OIE,-21.7,27.71,Africa,Botswana,Central,Sekoding,Unknown,11/04/2006,18/05/2006,Confirmed,Foot and mouth disease,SAT2,"domestic, cattle",363,79,0,0,0,,,,
129279,OIE,-21.91,27.67,Africa,Botswana,Central,Mothwana,Unknown,11/04/2006,18/05/2006,Confirmed,Foot and mouth disease,SAT2,"domestic, cattle",493,1,0,0,0,,,,
129278,OIE,-21.96,28.03,Africa,Botswana,Central,Mosalakwane 2,Unknown,11/04/2006,18/05/2006,Confirmed,Foot and mouth disease,SAT2,"domestic, cattle",480,4,0,0,0,,,,
129277,OIE,-21.97,28.67,Africa,Botswana,Central,Mompati,Unknown,11/04/2006,18/05/2006,Confirmed,Foot and mouth disease,SAT2,"domestic, cattle",422,2,0,0,0,,,,
129276,OIE,-22.01,28.58,Africa,Botswana,Central,Mmapashalala,Unknown,11/04/2006,18/05/2006,Confirmed,Foot and mouth disease,SAT2,"domestic, cattle",2,2,0,0,0,,,,
129275,OIE,-21.93,28.53,Africa,Botswana,Central,Mmamanaka,Unknown,11/04/2006,18/05/2006,Confirmed,Foot and mouth disease,SAT2,"domestic, cattle",371,62,0,0,0,,,,
129274,OIE,-22.05,28.46,Africa,Botswana,Central,Matsaganeng 2,Unknown,11/04/2006,18/05/2006,Confirmed,Foot and mouth disease,SAT2,"domestic, cattle",736,85,0,0,0,,,,
129273,OIE,-22.0,28.46,Africa,Botswana,Central,Marapalalo ,Unknown,11/04/2006,18/05/2006,Confirmed,Foot and mouth disease,SAT2,"domestic, cattle",241,21,0,0,0,,,,
129272,OIE,-21.96,28.45,Africa,Botswana,Central,Maiswe,Unknown,11/04/2006,18/05/2006,Confirmed,Foot and mouth disease,SAT2,"domestic, cattle",308,2,0,0,0,,,,
129271,OIE,-21.96,28.34,Africa,Botswana,Central,Magogaphate,Unknown,11/04/2006,18/05/2006,Confirmed,Foot and mouth disease,SAT2,"domestic, cattle",300,1,0,0,0,,,,
129270,OIE,-21.93,28.21,Africa,Botswana,Central,Lepokole,Unknown,11/04/2006,18/05/2006,Confirmed,Foot and mouth disease,SAT2,"domestic, cattle",1907,10,0,0,0,,,,
129269,OIE,-22.01,28.21,Africa,Botswana,Central,Lephokwe II,Unknown,11/04/2006,18/05/2006,Confirmed,Foot and mouth disease,SAT2,"domestic, cattle",339,1,0,0,0,,,,
129268,OIE,-22.0,28.1,Africa,Botswana,Central,Lenyetse II,Unknown,11/04/2006,18/05/2006,Confirmed,Foot and mouth disease,SAT2,"domestic, cattle",198,1,0,0,0,,,,
129267,OIE,-21.99,28.03,Africa,Botswana,Central,Lenyetse 1,Unknown,11/04/2006,18/05/2006,Confirmed,Foot and mouth disease,SAT2,"domestic, cattle",241,1,0,0,0,,,,
129266,OIE,30.4441,32.1599,Africa,Egypt,Ismailia,Allam,Unknown,20/02/2006,01/04/2006,Confirmed,Foot and mouth disease,A,"domestic, cattle",7,3,0,0,3,,,,
129265,OIE,30.631,30.8761,Africa,Egypt,Menoufia,El shohada,Unknown,21/02/2006,01/04/2006,Confirmed,Foot and mouth disease,A,"domestic, cattle",9,9,0,0,4,,,,
129264,OIE,30.3993,32.1551,Africa,Egypt,Ismailia,El gabalwy,Unknown,20/02/2006,01/04/2006,Confirmed,Foot and mouth disease,A,"domestic, cattle",45,5,0,0,3,,,,
129263,OIE,30.4813,32.2275,Africa,Egypt,Ismailia,Gamaan,Unknown,20/02/2006,01/04/2006,Confirmed,Foot and mouth disease,A,"domestic, cattle",5,2,0,0,3,,,,
129262,OIE,30.9099,32.2786,Africa,Egypt,Port Said,Desert road (El etahad),Unknown,28/01/2006,15/02/2006,Confirmed,Foot and mouth disease,A,"domestic, cattle",804,40,22,22,700,,,,
129261,OIE,30.6792,32.3047,Africa,Egypt,Ismailia,Abou soeir,Unknown,27/01/2006,15/02/2006,Confirmed,Foot and mouth disease,A,"domestic, cattle",100,5,0,9,91,,,,
129260,OIE,29.9649,31.629,Africa,Egypt,Cairo,El salam,Unknown,13/02/2006,15/02/2006,Confirmed,Foot and mouth disease,A,"domestic, cattle",242,242,0,0,56,,,,
129259,OIE,31.0557,29.655,Africa,Egypt,Alexandria,Abis,Unknown,09/02/2006,15/02/2006,Confirmed,Foot and mouth disease,A,"domestic, cattle",170,25,0,0,150,,,,
129258,OIE,30.6696,30.1329,Africa,Egypt,Behera,El tahrir,Unknown,03/02/2006,15/02/2006,Confirmed,Foot and mouth disease,A,"domestic, cattle",126,10,0,19,50,,,,
129257,OIE,31.1088,31.4987,Africa,Egypt,Dakahlia,Sherbin,Unknown,30/01/2006,15/02/2006,Confirmed,Foot and mouth disease,A,"domestic, cattle",35,35,0,0,35,,,,
129256,OIE,30.6792,32.3481,Africa,Egypt,Ismailia,Abou soeir,Unknown,27/01/2006,15/02/2006,Confirmed,Foot and mouth disease,A,"domestic, cattle",2200,2200,150,300,1750,,,,
129255,OIE,29.4823,30.5914,Africa,Egypt,Fayoum,Tamia,Unknown,11/02/2006,15/02/2006,Confirmed,Foot and mouth disease,A,"domestic, cattle",314,20,0,0,120,,,,
129254,OIE,31.2632,29.9977,Africa,Egypt,Alexandria,Maamora,Unknown,09/02/2006,15/02/2006,Confirmed,Foot and mouth disease,A,"domestic, cattle",218,15,0,0,15,,,,
129253,OIE,30.8433,32.242,Africa,Egypt,Ismailia,Desert road (el arabia ) ,Unknown,29/01/2006,15/02/2006,Confirmed,Foot and mouth disease,A,"domestic, cattle",3500,3500,219,81,3200,,,,
129252,OIE,31.3935,31.6869,Africa,Egypt,Damietta,Faraskour ,Unknown,09/02/2006,15/02/2006,Confirmed,Foot and mouth disease,A,"domestic, cattle",1122,6,0,0,20,,,,
129251,OIE,30.5296,31.1203,Africa,Egypt,Menoufia,El sadat ,Unknown,07/02/2006,15/02/2006,Confirmed,Foot and mouth disease,A,"domestic, cattle",2431,720,14,650,140,,,,
129246,FAO Field Officer,30.91028,31.24417,Africa,Egypt,Gharbia,Abu Sir,Unknown,07/10/2008,07/10/2008,Confirmed,Influenza - Avian,H5N1 HPAI,"domestic, chicken",,18,,,,,,,
129245,OIE,-18.24,21.51,Africa,Namibia,Kavango,Shutu,Unknown,10/08/2008,25/08/2008,Confirmed,Foot and mouth disease,SAT2,"domestic, cattle",20000,12,0,0,,,,,
129244,OIE,-18.17263,21.60247,Africa,Namibia,Kavango,Dimwangha ,Unknown,08/08/2008,25/08/2008,Confirmed,Foot and mouth disease,SAT2,"domestic, cattle",20000,12,0,0,,,,,
129243,OIE,-18.07456,21.63931,Africa,Namibia,Kavango,Mwtjiku village,Unknown,17/08/2008,17/08/2008,Confirmed,Foot and mouth disease,SAT2,"domestic, cattle",1000,5,0,0,,,,,
129242,OIE,-18.10443,21.62514,Africa,Namibia,Kavango,Kanorombwe Community,Unknown,14/08/2008,17/08/2008,Confirmed,Foot and mouth disease,SAT2,"domestic, cattle",18000,20,0,0,,,,,
129236,OIE,8.10728,-72.79456,Americas,Colombia,Norte De Santander,SAN PABLO 1,Unknown,01/06/2008,06/08/2008,Confirmed,Foot and mouth disease,A,"domestic, cattle",77,4,0,77,0,,,,
129235,OIE,8.0578,-72.81351,Americas,Colombia,Norte De Santander,LA PEDREGOSA ,Unknown,28/05/2008,06/08/2008,Confirmed,Foot and mouth disease,A,"domestic, cattle, domestic, sheep, domestic, swine",418,54,0,418,0,,,,
129234,OIE,-18.0142,24.397,Africa,Botswana,Chobe,Satau,Unknown,13/07/2008,07/10/2008,Confirmed,Foot and mouth disease,SAT2,"domestic, cattle, domestic, goats, domestic, sheep",3635,25,0,0,,,,,
129229,OIE,31.65,-7.11,Africa,Morocco,Tadla - Azilal,Ait Hida,Unknown,08/08/2008,12/08/2008,Confirmed,Peste des petits ruminants,,"domestic, goats, domestic, sheep",19,3,3,,,,,,
129228,OIE,31.65,-7.11,Africa,Morocco,Tadla - Azilal,Aghbalou,Unknown,09/08/2008,12/08/2008,Confirmed,Peste des petits ruminants,,"domestic, goats, domestic, sheep",17,3,2,,,,,,
129227,OIE,31.65,-7.11,Africa,Morocco,Tadla - Azilal,Ait Sida 2,Unknown,02/08/2008,12/08/2008,Confirmed,Peste des petits ruminants,,"domestic, goats, domestic, sheep",16,7,4,,,,,,
129226,OIE,31.65,-7.11,Africa,Morocco,Tadla - Azilal,Ait Sida 2,Unknown,01/08/2008,12/08/2008,Confirmed,Peste des petits ruminants,,"domestic, goats, domestic, sheep",8,1,1,,,,,,
129225,OIE,31.65,-7.11,Africa,Morocco,Tadla - Azilal,Ait Sida 1,Unknown,02/08/2008,12/08/2008,Confirmed,Peste des petits ruminants,,"domestic, goats",5,1,1,,,,,,
129222,OIE,31.65,-7.11,Africa,Morocco,Tadla - Azilal,Ait Sida 1,Unknown,01/08/2008,12/08/2008,Confirmed,Peste des petits ruminants,,"domestic, goats",44,34,18,,,,,,
129221,OIE,32.63,-5.27,Africa,Morocco,Meknès - Tafilalet,Ait Boulmane,Unknown,31/07/2008,12/08/2008,Confirmed,Peste des petits ruminants,,"domestic, sheep",90,5,0,,,,,,
129220,OIE,32.63,-5.27,Africa,Morocco,Meknès - Tafilalet,Ait Ouarziz,Unknown,31/07/2008,12/08/2008,Confirmed,Peste des petits ruminants,,"domestic, sheep, domestic, goats",227,5,1,,,,,,
129219,OIE,33.26,-5.3,Africa,Morocco,Meknès - Tafilalet,Kobate 1,Unknown,04/08/2008,12/08/2008,Confirmed,Peste des petits ruminants,,"domestic, sheep",31,2,0,,,,,,
129218,OIE,33.24,-5.02,Africa,Morocco,Meknès - Tafilalet,Ait Aissa,Unknown,01/08/2008,12/08/2008,Confirmed,Peste des petits ruminants,,"domestic, sheep",286,3,0,,,,,,
129217,OIE,33.24,-5.02,Africa,Morocco,Meknès - Tafilalet,Boudssar,Unknown,01/08/2008,12/08/2008,Confirmed,Peste des petits ruminants,,"domestic, sheep",220,2,0,,,,,,
129216,OIE,35.58,-5.35,Africa,Morocco,Tanger - Tétouan,Tetouan,Unknown,31/07/2008,12/08/2008,Confirmed,Peste des petits ruminants,,"domestic, sheep, domestic, goats",130,23,8,,,,,,
129215,OIE,34.52,-4.74,Africa,Morocco,Taza - Al Hoceima - Taounate,Ouled Lghoul,Unknown,31/07/2008,12/08/2008,Confirmed,Peste des petits ruminants,,"domestic, sheep, domestic, goats",2010,26,10,,,,,,
129214,OIE,34.35,-5.21,Africa,Morocco,Taza - Al Hoceima - Taounate,Ouled Ben Aissa,Unknown,31/07/2008,12/08/2008,Confirmed,Peste des petits ruminants,,"domestic, sheep",800,5,0,,,,,,
129213,OIE,32.92,-7.33,Africa,Morocco,Chaouia - Ouardigha,Ouled Aich,Unknown,01/08/2008,12/08/2008,Confirmed,Peste des petits ruminants,,"domestic, sheep",75,3,3,,,,,,
129212,OIE,33.74,-5.06,Africa,Morocco,Fès - Boulemane,Gaaida,Unknown,04/08/2008,12/08/2008,Confirmed,Peste des petits ruminants,,"domestic, sheep",100,11,7,,,,,,
129211,OIE,34.59,-2.08,Africa,Morocco,Oriental,Ouled Amrane,Unknown,31/07/2008,12/08/2008,Confirmed,Peste des petits ruminants,,"domestic, sheep, domestic, goats",235,6,2,,,,,,
129210,OIE,34.69,-1.9,Africa,Morocco,Oriental,Oujda centre,Unknown,31/07/2008,12/08/2008,Confirmed,Peste des petits ruminants,,"domestic, sheep, domestic, goats",20,4,0,,,,,,
129209,OIE,34.08,-5.14,Africa,Morocco,Fès - Boulemane,Guerzim,Unknown,01/08/2008,12/08/2008,Confirmed,Peste des petits ruminants,,"domestic, sheep",80,14,8,,,,,,
129208,OIE,34.05,-5.97,Africa,Morocco,Rabat - Salé - Zemmour - Zaer,Ait Saad Banu Ouzare,Unknown,03/08/2008,12/08/2008,Confirmed,Peste des petits ruminants,,"domestic, goats",49,30,2,,,,,,
129207,OIE,33.26,-5.3,Africa,Morocco,Meknès - Tafilalet,Kobate 2,Unknown,04/08/2008,12/08/2008,Confirmed,Peste des petits ruminants,,"domestic, sheep",170,1,0,,,,,,
129206,OIE,31.18,-8.96,Africa,Morocco,Marrakech - Tensift - Al Haouz,Amarjane,Unknown,31/07/2008,12/08/2008,Confirmed,Peste des petits ruminants,,"domestic, sheep, domestic, goats",115,18,8,,,,,,
129205,OIE,34.91,-2.48,Africa,Morocco,Oriental,Ouled Habja,Unknown,01/08/2008,12/08/2008,Confirmed,Peste des petits ruminants,,"domestic, sheep",41,10,0,,,,,,
129204,OIE,34.91,-2.36,Africa,Morocco,Oriental,Ouled Lhaj,Unknown,31/07/2008,12/08/2008,Confirmed,Peste des petits ruminants,,"domestic, sheep, domestic, goats",200,20,12,,,,,,
129203,OIE,33.54,-7.18,Africa,Morocco,Chaouia - Ouardigha,Twaza,Unknown,02/08/2008,12/08/2008,Confirmed,Peste des petits ruminants,,"domestic, sheep",140,29,12,,,,,,
129202,OIE,33.75,-7.2,Africa,Morocco,Chaouia - Ouardigha,Laajalat,Unknown,01/08/2008,12/08/2008,Confirmed,Peste des petits ruminants,,"domestic, sheep",100,5,2,,,,,,
129201,OIE,33.51,-6.89,Africa,Morocco,Chaouia - Ouardigha,Bourzek,Unknown,02/08/2008,12/08/2008,Confirmed,Peste des petits ruminants,,"domestic, sheep",500,123,20,,,,,,
129200,OIE,32.58,-6.86,Africa,Morocco,Tadla - Azilal,Oulad Saad,Unknown,01/08/2008,12/08/2008,Confirmed,Peste des petits ruminants,,"domestic, sheep",78,22,7,,,,,,
129199,OIE,32.39,-6.74,Africa,Morocco,Tadla - Azilal,Sacima,Unknown,31/07/2008,12/08/2008,Confirmed,Peste des petits ruminants,,"domestic, sheep",48,13,3,,,,,,
129197,OIE,33.15,-5.85,Africa,Morocco,Meknès - Tafilalet,Ait Said Khalouta,Unknown,25/07/2008,07/08/2008,Confirmed,Peste des petits ruminants,,"domestic, sheep, domestic, goats",54,7,0,,,,,,
129196,OIE,32.63,-5.27,Africa,Morocco,Meknès - Tafilalet,Ait Ouchrif,Unknown,25/07/2008,07/08/2008,Confirmed,Peste des petits ruminants,,"domestic, sheep, domestic, goats",355,3,0,,,,,,
129195,OIE,33.15,-5.85,Africa,Morocco,Meknès - Tafilalet,Ait Sad Khakouta,Unknown,23/07/2008,07/08/2008,Confirmed,Peste des petits ruminants,,"domestic, sheep",45,23,3,,,,,,
129194,OIE,32.63,-5.27,Africa,Morocco,Meknès - Tafilalet,Ait Hammou Ouhaki,Unknown,22/07/2008,07/08/2008,Confirmed,Peste des petits ruminants,,"domestic, sheep, domestic, goats",517,3,0,,,,,,
129193,OIE,32.63,-5.27,Africa,Morocco,Meknès - Tafilalet,Ait Zaarour,Unknown,21/07/2008,07/08/2008,Confirmed,Peste des petits ruminants,,"domestic, sheep",188,6,0,,,,,,
129192,OIE,33.28,-5.64,Africa,Morocco,Meknès - Tafilalet,Ait Si Belkacem,Unknown,20/07/2008,07/08/2008,Confirmed,Peste des petits ruminants,,"domestic, sheep",100,4,4,,,,,,
129191,OIE,33.24,-5.02,Africa,Morocco,Meknès - Tafilalet,Ait Ghaneb,Unknown,31/07/2008,07/08/2008,Confirmed,Peste des petits ruminants,,"domestic, sheep",275,17,0,,,,,,
129190,OIE,33.24,-5.02,Africa,Morocco,Meknès - Tafilalet,Chminouanou,Unknown,29/07/2008,07/08/2008,Confirmed,Peste des petits ruminants,,"domestic, sheep",240,27,7,,,,,,
129189,OIE,36.0583333,127.0822222,Asia,Republic of Korea,Chollabuk-do,Yesan,Unknown,04/10/2008,04/10/2008,Confirmed,Influenza - Avian,H5N2 LPAI,"domestic, duck",,,,,,,,,
129188,FAO Field Officer,16.5,99.91666,Asia,Thailand,Kampaeng Phet,Sai Ngam,Unknown,03/10/2008,03/10/2008,Denied,Influenza - Avian,H5N1 HPAI,"domestic, chicken",,,30,,,,,,
129187,OIE,33.24,-5.02,Africa,Morocco,Meknès - Tafilalet,Lahfour,Unknown,29/07/2008,07/08/2008,Confirmed,Peste des petits ruminants,,"domestic, sheep",480,6,0,,,,,,
129186,OIE,33.24,-5.02,Africa,Morocco,Meknès - Tafilalet,Ait Haddou 2,Unknown,26/07/2008,07/08/2008,Confirmed,Peste des petits ruminants,,"domestic, sheep",120,20,0,,,,,,
129185,OIE,33.24,-5.02,Africa,Morocco,Meknès - Tafilalet,Ait Haddou 1,Unknown,26/07/2008,07/08/2008,Confirmed,Peste des petits ruminants,,"domestic, sheep",80,10,3,,,,,,
129184,OIE,33.48,-5.18,Africa,Morocco,Meknès - Tafilalet,Ait Lahcen,Unknown,24/07/2008,07/08/2008,Confirmed,Peste des petits ruminants,,"domestic, sheep",170,27,2,,,,,,
129183,OIE,33.27,-5.31,Africa,Morocco,Meknès - Tafilalet,Ait Lahcen,Unknown,21/07/2008,07/08/2008,Confirmed,Peste des petits ruminants,,"domestic, sheep",724,16,5,,,,,,
129182,OIE,33.94,-3.3,Africa,Morocco,Taza - Al Hoceima - Taounate,Oufridene,Unknown,21/07/2008,07/08/2008,Confirmed,Peste des petits ruminants,,"domestic, sheep, domestic, goats",61,19,7,,,,,,
129181,OIE,34.24,-4.78,Africa,Morocco,Taza - Al Hoceima - Taounate,Ould Rahou,Unknown,22/07/2008,07/08/2008,Confirmed,Peste des petits ruminants,,"domestic, sheep, domestic, goats",80,14,0,,,,,,
129180,OIE,33.91,-4.79,Africa,Morocco,Fès - Boulemane,Boushhyoul,Unknown,25/07/2008,07/08/2008,Confirmed,Peste des petits ruminants,,"domestic, sheep",348,14,4,,,,,,
129179,OIE,33.91,-4.79,Africa,Morocco,Fès - Boulemane,Bouaajoul,Unknown,20/07/2008,07/08/2008,Confirmed,Peste des petits ruminants,,"domestic, sheep",51,10,5,,,,,,
129178,OIE,34.12,-4.84,Africa,Morocco,Fès - Boulemane,Sfira,Unknown,25/07/2008,07/08/2008,Confirmed,Peste des petits ruminants,,"domestic, sheep",69,7,0,,,,,,
129177,OIE,34.24,-5.04,Africa,Morocco,Fès - Boulemane,Skaliyene,Unknown,24/07/2008,07/08/2008,Confirmed,Peste des petits ruminants,,"domestic, sheep",27,2,0,,,,,,
129176,OIE,33.97,-5.09,Africa,Morocco,Fès - Boulemane,Zahoua,Unknown,24/07/2008,07/08/2008,Confirmed,Peste des petits ruminants,,"domestic, sheep",23,7,0,,,,,,
129175,OIE,33.86,-5.55,Africa,Morocco,Meknès - Tafilalet,Lemkhazia,Unknown,21/07/2008,07/08/2008,Confirmed,Peste des petits ruminants,,"domestic, sheep",50,2,0,,,,,,
129174,OIE,33.52,-7.44,Africa,Morocco,Grand Casablanca,Ouled Bouaziz,Unknown,21/07/2008,07/08/2008,Confirmed,Peste des petits ruminants,,"domestic, sheep, domestic, goats",376,73,38,,,,,,
129173,OIE,32.44,-8.48,Africa,Morocco,Doukkala - Abda,Laabadia,Unknown,22/07/2008,07/08/2008,Confirmed,Peste des petits ruminants,,"domestic, sheep",208,62,50,,,,,,
129172,OIE,33.85,-5.32,Africa,Morocco,Meknès - Tafilalet,Ait Boubidmane,Unknown,28/07/2008,07/08/2008,Confirmed,Peste des petits ruminants,,"domestic, sheep",44,20,2,,,,,,
129171,OIE,35.17,-5.27,Africa,Morocco,Tanger - Tétouan,Chefchaouen centre,Unknown,28/07/2008,07/08/2008,Confirmed,Peste des petits ruminants,,"domestic, sheep",24,15,13,,,,,,
129170,OIE,34.91,-5.15,Africa,Morocco,Tanger - Tétouan,Fahcienne,Unknown,28/07/2008,07/08/2008,Confirmed,Peste des petits ruminants,,"domestic, sheep",67,36,17,,,,,,
129169,OIE,3.779,35.256,Africa,Kenya,Rift Valley,Letea,Unknown,03/08/2006,27/03/2007,Confirmed,Peste des petits ruminants,,"domestic, goat/sheep ",20000,3600,2313,0,,,,,
129168,OIE,4.3,34.6833,Africa,Kenya,Rift Valley,Nanam,Unknown,03/08/2006,27/03/2007,Confirmed,Peste des petits ruminants,,"domestic, goat/sheep ",30000,4850,3270,0,,,,,
129167,OIE,3.779,35.256,Africa,Kenya,Rift Valley,Lokangae,Unknown,03/08/2006,27/03/2007,Confirmed,Peste des petits ruminants,,"domestic, goat/sheep ",20000,770,507,0,,,,,
129166,OIE,3.779,35.256,Africa,Kenya,Rift Valley,Moruarengan,Unknown,03/08/2006,27/03/2007,Confirmed,Peste des petits ruminants,,"domestic, goat/sheep ",10000,600,450,0,,,,,
129165,OIE,3.5,34.5666,Africa,Kenya,Rift Valley,Loreng,Unknown,03/08/2006,27/03/2007,Confirmed,Peste des petits ruminants,,"domestic, goat/sheep ",15000,718,667,0,,,,,
129164,OIE,-2.059,15.383,Africa,Congo,Plateaux,Akou,Unknown,12/04/2006,27/07/2006,Confirmed,Peste des petits ruminants,,"domestic, goats",10,10,10,0,,,,,
129163,OIE,-2.0808,15.6884,Africa,Congo,Plateaux,Kahon,Unknown,12/04/2006,27/07/2006,Confirmed,Peste des petits ruminants,,"domestic, goats",200,200,200,0,,,,,
129162,OIE,-2.059,15.4484,Africa,Congo,Plateaux,Djambala,Unknown,12/04/2006,27/07/2006,Confirmed,Peste des petits ruminants,,"domestic, sheep, domestic, goats",294,189,189,0,93,,,,
129161,OIE,3.9475,34.776,Africa,Kenya,Rift Valley,Songot,Unknown,03/08/2006,15/01/2007,Confirmed,Peste des petits ruminants,,"domestic, sheep",4670,3780,2865,0,,,,,
129160,OIE,3.8241,34.5988,Africa,Kenya,Rift Valley,Natiira,Unknown,03/08/2006,15/01/2007,Confirmed,Peste des petits ruminants,,"domestic, sheep",3500,1800,890,0,,,,,
129159,OIE,-2.059,15.383,Africa,Congo,Plateaux,Lékana,Unknown,30/12/2005,27/07/2006,Confirmed,Peste des petits ruminants,,"domestic, goat/sheep ",215,215,215,0,,,,,
129156,OIE,31.52,79.51,Asia,China,Xizang Zizhiqu,"Touolin, Sarang and Xiangzi",Unknown,23/08/2007,24/08/2007,Confirmed,Peste des petits ruminants,,"domestic, goats",,1444,489,955,,,,,
129155,OIE,32.52,82.45,Asia,China,Xizang Zizhiqu,Qiangmai & qiangdui,Unknown,01/08/2007,16/08/2007,Confirmed,Peste des petits ruminants,,"domestic, goats",,3290,778,6379,,,,,
129154,OIE,32.96,80.41,Asia,China,Xizang Zizhiqu,Lonmenka,Unknown,20/07/2007,27/07/2007,Confirmed,Peste des petits ruminants,,"domestic, goats",,821,292,2494,,,,,
129153,OIE,3.117,35.6,Africa,Kenya,Rift Valley,Lokamaringyang,Unknown,15/02/2007,02/10/2008,Confirmed,Peste des petits ruminants,,"domestic, goat/sheep ",50000,2560,2100,0,,,,,
129152,OIE,3.117,35.6,Africa,Kenya,Rift Valley,Meiyan,Unknown,15/03/2007,02/10/2008,Confirmed,Peste des petits ruminants,,"domestic, goat/sheep ",25000,1500,900,0,,,,,
129149,OIE,2.06,35.46,Africa,Kenya,Rift Valley,Kaputir / Kakong,Unknown,25/03/2007,16/05/2012,Confirmed,Peste des petits ruminants,,"domestic, goat/sheep ",15000,5000,4500,0,0,,,,
129147,OIE,33.2415,88.3258,Asia,China,Xizang Zizhiqu,Gacuo,Unknown,18/06/2008,11/07/2008,Confirmed,Peste des petits ruminants,,"domestic, goats",32823,102,0,0,,,,,
129146,National authorities,34.94,-2.15,Africa,Morocco,Oriental,Beniguil Lemris,Unknown,24/07/2008,07/08/2008,Confirmed,Peste des petits ruminants,,"domestic, sheep, domestic, goats",73,14,12,,,,,,
129145,National authorities,34.94,-2.15,Africa,Morocco,Oriental,Oulad Abdellah,Unknown,21/07/2008,07/08/2008,Confirmed,Peste des petits ruminants,,"domestic, sheep, domestic, goats",153,14,10,,,,,,
129144,National authorities,34.94,-2.15,Africa,Morocco,Oriental,Beniguil Lemris,Unknown,20/07/2008,07/08/2008,Confirmed,Peste des petits ruminants,,"domestic, sheep, domestic, goats",60,5,0,,,,,,
129143,National authorities,33.51,-6.89,Africa,Morocco,Chaouia - Ouardigha,Sidi Bettache centre,Unknown,28/07/2008,07/08/2008,Confirmed,Peste des petits ruminants,,"domestic, sheep, domestic, goats",710,215,200,,,,,,
129142,National authorities,33.51,-6.89,Africa,Morocco,Chaouia - Ouardigha,Sidi Bettache centre,Unknown,27/07/2008,07/08/2008,Confirmed,Peste des petits ruminants,,"domestic, sheep, domestic, goats",205,3,0,,,,,,
129140,National authorities,33.51,-6.89,Africa,Morocco,Chaouia - Ouardigha,Ouled Bourzek ,Unknown,26/07/2008,07/08/2008,Confirmed,Peste des petits ruminants,,"domestic, sheep",500,123,73,,,,,,
129139,National authorities,33.51,-6.89,Africa,Morocco,Chaouia - Ouardigha,Sidi Bettache centre ,Unknown,24/07/2008,07/08/2008,Confirmed,Peste des petits ruminants,,"domestic, sheep",300,13,7,,,,,,
129138,National authorities,33.51,-6.89,Africa,Morocco,Chaouia - Ouardigha,Sidi Bettache centre 1,Unknown,23/07/2008,07/08/2008,Confirmed,Peste des petits ruminants,,"domestic, sheep",600,11,6,,,,,,
129137,National authorities,33.51,-6.89,Africa,Morocco,Chaouia - Ouardigha,Ouled Bourzek,Unknown,22/07/2008,07/08/2008,Confirmed,Peste des petits ruminants,,"domestic, sheep",800,202,140,,,,,,
129136,National authorities,33.51,-6.89,Africa,Morocco,Chaouia - Ouardigha,Echaala,Unknown,20/07/2008,07/08/2008,Confirmed,Peste des petits ruminants,,"domestic, sheep",800,65,40,,,,,,
129135,National authorities,33.51,-6.89,Africa,Morocco,Chaouia - Ouardigha,Sidi Bettache centre,Unknown,20/07/2008,07/08/2008,Confirmed,Peste des petits ruminants,,"domestic, sheep",300,10,7,,,,,,
129134,National authorities,32.45,-6.95,Africa,Morocco,Tadla - Azilal,Fkarin Lamjarma,Unknown,22/07/2008,07/08/2008,Confirmed,Peste des petits ruminants,,"domestic, sheep",120,22,12,,,,,,
129132,National authorities,32.58,-6.86,Africa,Morocco,Tadla - Azilal,Ouled Ziane,Unknown,20/07/2008,29/07/2008,Confirmed,Peste des petits ruminants,,"domestic, sheep",115,21,1,,,,,,
129131,National authorities,33.15,-5.85,Africa,Morocco,Meknès - Tafilalet,Tizi Laassa,Unknown,19/07/2008,29/07/2008,Confirmed,Peste des petits ruminants,,"domestic, sheep",76,36,26,,,,,,
129130,National authorities,33.15,-5.85,Africa,Morocco,Meknès - Tafilalet,Aguelmous centre 4,Unknown,19/07/2008,29/07/2008,Confirmed,Peste des petits ruminants,,"domestic, sheep",600,80,60,,,,,,
129129,National authorities,32.63,-5.27,Africa,Morocco,Meknès - Tafilalet,Ait Quaziz,Unknown,19/07/2008,29/07/2008,Confirmed,Peste des petits ruminants,,"domestic, sheep",28,5,2,,,,,,
129128,National authorities,33.15,-5.85,Africa,Morocco,Meknès - Tafilalet,Tanedra,Unknown,19/07/2008,29/07/2008,Confirmed,Peste des petits ruminants,,"domestic, sheep",11,6,0,,,,,,
129127,National authorities,33.15,-5.85,Africa,Morocco,Meknès - Tafilalet,Iheddaren,Unknown,19/07/2008,29/07/2008,Confirmed,Peste des petits ruminants,,"domestic, sheep",10,7,0,,,,,,
129126,National authorities,33.15,-5.85,Africa,Morocco,Meknès - Tafilalet,Aguelmous centre 3,Unknown,19/07/2008,29/07/2008,Confirmed,Peste des petits ruminants,,"domestic, sheep",6,2,0,,,,,,
129125,National authorities,33.15,-5.85,Africa,Morocco,Meknès - Tafilalet,Aguelmous centre 2,Unknown,17/07/2008,29/07/2008,Confirmed,Peste des petits ruminants,,"domestic, sheep",63,8,0,,,,,,
129124,National authorities,33.15,-5.85,Africa,Morocco,Meknès - Tafilalet,Aguelmous centre 1,Unknown,17/07/2008,29/07/2008,Confirmed,Peste des petits ruminants,,"domestic, sheep",29,5,1,,,,,,
129123,National authorities,32.65,-5.54,Africa,Morocco,Meknès - Tafilalet,Tighessaline,Unknown,19/07/2008,29/07/2008,Confirmed,Peste des petits ruminants,,"domestic, sheep",55,14,0,,,,,,
129122,National authorities,33.57,-4.99,Africa,Morocco,Meknès - Tafilalet,Dayat Hachlaf,Unknown,18/07/2008,29/07/2008,Confirmed,Peste des petits ruminants,,"domestic, sheep",65,5,1,,,,,,
129121,National authorities,34.1,-4.49,Africa,Morocco,Taza - Al Hoceima - Taounate,Khemis Sidi Abdeljelil,Unknown,10/07/2008,29/07/2008,Confirmed,Peste des petits ruminants,,"domestic, sheep",15,6,1,,,,,,
129120,National authorities,34.2,-3.29,Africa,Morocco,Taza - Al Hoceima - Taounate,Zbar,Unknown,10/07/2008,29/07/2008,Confirmed,Peste des petits ruminants,,"domestic, sheep",70,10,5,,,,,,
129119,National authorities,34.12,-4.84,Africa,Morocco,Fès - Boulemane,Khoulane,Unknown,03/07/2008,29/07/2008,Confirmed,Peste des petits ruminants,,"domestic, sheep",124,8,5,,,,,,
129118,National authorities,34.8,-5.58,Africa,Morocco,Gharb - Chrarda - Béni Hssen,Mikal,Unknown,02/07/2008,29/07/2008,Confirmed,Peste des petits ruminants,,"domestic, sheep",240,23,11,,,,,,
129117,National authorities,33.26,-5.3,Africa,Morocco,Meknès - Tafilalet,Ait Ftoma,Unknown,14/07/2008,29/07/2008,Confirmed,Peste des petits ruminants,,"domestic, sheep",126,9,3,,,,,,
129116,National authorities,33.48,-5.18,Africa,Morocco,Meknès - Tafilalet,Ait Ali,Unknown,14/07/2008,29/07/2008,Confirmed,Peste des petits ruminants,,"domestic, sheep",100,27,4,,,,,,
129114,National authorities,33.91,-5.49,Africa,Morocco,Meknès - Tafilalet,Ouislane centre,Unknown,30/06/2008,29/07/2008,Confirmed,Peste des petits ruminants,,"domestic, sheep",360,177,13,,,,,,
129113,National authorities,34.92,-4.26,Africa,Morocco,Taza - Al Hoceima - Taounate,Touzelt,Unknown,15/07/2008,29/07/2008,Confirmed,Peste des petits ruminants,,"domestic, sheep",60,15,5,,,,,,
129112,National authorities,32.39,-6.74,Africa,Morocco,Tadla - Azilal,Kotma,Unknown,17/07/2008,29/07/2008,Confirmed,Peste des petits ruminants,,"domestic, sheep",82,16,1,,,,,,
129111,National authorities,34.94,-4.47,Africa,Morocco,Taza - Al Hoceima - Taounate,Imaziouen,Unknown,30/06/2008,29/07/2008,Confirmed,Peste des petits ruminants,,"domestic, sheep",439,150,50,,,,,,
129110,National authorities,33.45,-7.87,Africa,Morocco,Chaouia - Ouardigha,Khlaif,Unknown,12/07/2008,29/07/2008,Confirmed,Peste des petits ruminants,,"domestic, sheep",94,60,5,,,,,,
129109,National authorities,33.33,-7.86,Africa,Morocco,Chaouia - Ouardigha,Jouala,Unknown,10/07/2008,29/07/2008,Confirmed,Peste des petits ruminants,,"domestic, sheep",260,34,4,,,,,,
129108,National authorities,34.06,-4.96,Africa,Morocco,Fès - Boulemane,Belamoune Khoulane,Unknown,19/07/2008,29/07/2008,Confirmed,Peste des petits ruminants,,"domestic, sheep, domestic, goats",220,9,2,,,,,,
129107,National authorities,34.12,-4.84,Africa,Morocco,Fès - Boulemane,Belamoune Khoulane,Unknown,30/06/2008,29/07/2008,Confirmed,Peste des petits ruminants,,"domestic, sheep",470,18,8,,,,,,
129105,Media,16.308567,100.1901779,Asia,Thailand,Phichit,Pho Prathap Chang,Unknown,30/09/2008,30/09/2008,Denied,Influenza - Avian,HPAI,"domestic, duck",1600,,,,,,,,
129102,FAO Field Officer,29.2833,30.81667,Africa,Egypt,Fayoum,Al Barmaki,Unknown,29/09/2008,29/09/2008,Confirmed,Influenza - Avian,H5N1 HPAI,"domestic, duck",,250,,,,,,,
129100,OIE,33.97,-5.09,Africa,Morocco,Fès - Boulemane,Douar Ouled M'hamed,Unknown,12/06/2008,23/07/2008,Confirmed,Peste des petits ruminants,,"domestic, sheep",40,40,6,34,0,,,,
129098,FAO Field Officer,29.36533,30.60404,Africa,Egypt,Fayoum,Abshaway,Unknown,26/09/2008,28/09/2008,Confirmed,Influenza - Avian,H5N1 HPAI,"domestic, chicken, domestic, duck",,11,,,,,,,
129097,OIE,-0.315,37.62,Africa,Kenya,Eastern,Town ship,Unknown,31/01/2007,06/06/2007,Confirmed,Rift Valley fever,,"domestic, goat/sheep ",,7,,,,,,,
129079,FAO Field Officer,-2.8414669,120.6770554,Asia,Indonesia,Sulawesi Selatan,Luwu,Unknown,01/09/2008,22/09/2008,Confirmed,Influenza - Avian,H5N1 HPAI,"domestic, duck, domestic, chicken",,,,,,,,,
129078,FAO Field Officer,30.8283653,31.0795479,Africa,Egypt,Gharbia,Administrative unit not available,Unknown,23/09/2008,23/09/2008,Confirmed,Influenza - Avian,H5N1 HPAI,"domestic, chicken",,12,,,,,,,
129034,FAO Field Officer,24.8157635,68.8290863,Asia,Pakistan,Sindh,Badin,Unknown,17/09/2008,18/09/2008,Denied,Influenza - Avian,HPAI,"wild, unspecified bird",,,,,,,,,
128894,FAO Field Officer,28.1213,30.8037,Africa,Egypt,Menia,Samalout/Dalkm,Unknown,09/09/2008,17/09/2008,Confirmed,Influenza - Avian,H5N1 HPAI,"domestic, chicken, domestic, duck",,11,,,,,,,
128887,OIE,0.017,37.06,Africa,Kenya,Rift Valley,Nanyuki ,Unknown,25/01/2007,05/06/2007,Confirmed,Rift Valley fever,,"domestic, goat/sheep ",,10,,,,,,,
128886,OIE,-0.845,37.052,Africa,Kenya,Central,Kenol ,Unknown,22/01/2007,05/06/2007,Confirmed,Rift Valley fever,,"domestic, goat/sheep ",,7,,,,,,,
128885,OIE,-0.655,38.453,Africa,Kenya,Eastern,"Kavuti, Ikime, Malawa",Unknown,22/01/2007,05/06/2007,Confirmed,Rift Valley fever,,"domestic, goat/sheep ",,26,,,,,,,
