Id,source,latitude,longitude,region,country,admin1,localityName,localityQuality,observationDate,reportingDate,status,disease,serotypes,speciesDescription,sumAtRisk,sumCases,sumDeaths,sumDestroyed,sumSlaughtered,humansGenderDesc,humansAge,humansAffected,humansDeaths
170243,OIE,48.883333,6.616667,Europe,France,Lorraine,Haboudange,Unknown,21/02/2012,05/04/2012,Confirmed,Schmallenberg,,"domestic, sheep",0,0,0,0,0,,,,
170242,OIE,48.75,5.05,Europe,France,Lorraine,Trémont-sur-Saulx,Unknown,21/02/2012,05/04/2012,Confirmed,Schmallenberg,,"domestic, sheep",0,0,0,0,0,,,,
170241,OIE,46.4,1.083333,Europe,France,Poitou-Charentes,Coulonges,Unknown,21/02/2012,05/04/2012,Confirmed,Schmallenberg,,"domestic, sheep",0,0,0,0,0,,,,
170240,OIE,46.383333,0.883333,Europe,France,Poitou-Charentes,Saulgé n°2,Unknown,21/02/2012,05/04/2012,Confirmed,Schmallenberg,,"domestic, sheep",0,0,0,0,0,,,,
170239,OIE,46.383333,0.883333,Europe,France,Poitou-Charentes,Saulgé n°1,Unknown,21/02/2012,05/04/2012,Confirmed,Schmallenberg,,"domestic, sheep",0,0,0,0,0,,,,
170238,OIE,47.9,5.516667,Europe,France,Champagne-Ardenne,Marcilly-en-Bassigny,Unknown,21/02/2012,05/04/2012,Confirmed,Schmallenberg,,"domestic, sheep",0,0,0,0,0,,,,
170237,OIE,48.533333,5.133333,Europe,France,Champagne-Ardenne,Chevillon,Unknown,21/02/2012,05/04/2012,Confirmed,Schmallenberg,,"domestic, sheep",0,0,0,0,0,,,,
170236,OIE,46.233333,1.033333,Europe,France,Limousin,Oradour-Saint-Genest,Unknown,30/01/2012,05/04/2012,Confirmed,Schmallenberg,,"domestic, sheep",0,0,0,0,0,,,,
170235,OIE,46.95,4.4,Europe,France,Bourgogne,epinac,Unknown,28/02/2012,05/04/2012,Confirmed,Schmallenberg,,"domestic, sheep",0,0,0,0,0,,,,
170234,OIE,48.466667,6.2,Europe,France,Lorraine,Vaudeville,Unknown,21/02/2012,05/04/2012,Confirmed,Schmallenberg,,"domestic, sheep",0,0,0,0,0,,,,
170233,OIE,48.183333,5.1,Europe,France,Champagne-Ardenne,Marault,Unknown,21/02/2012,05/04/2012,Confirmed,Schmallenberg,,"domestic, cattle",0,0,0,0,0,,,,
170232,OIE,47.983333,5.883333,Europe,France,Lorraine,Les Thons,Unknown,04/03/2012,05/04/2012,Confirmed,Schmallenberg,,"domestic, cattle",0,0,0,0,0,,,,
170231,OIE,46.2,0.083333,Europe,France,Poitou-Charentes,Caunay,Unknown,03/03/2012,05/04/2012,Confirmed,Schmallenberg,,"domestic, cattle",0,0,0,0,0,,,,
170230,OIE,50.616667,2.2,Europe,France,Nord-Pas-de-Calais,Delettes,Unknown,07/03/2012,05/04/2012,Confirmed,Schmallenberg,,"domestic, cattle",0,0,0,0,0,,,,
170229,OIE,47.966667,3.25,Europe,France,Bourgogne,Précy-sur-Vrin,Unknown,21/02/2012,05/04/2012,Confirmed,Schmallenberg,,"domestic, sheep",0,0,0,0,0,,,,
170228,OIE,47.48414,3.98098,Europe,France,Bourgogne,Magny,Unknown,29/02/2012,05/04/2012,Confirmed,Schmallenberg,,"domestic, sheep",0,0,0,0,0,,,,
170227,OIE,47.416667,4.033333,Europe,France,Bourgogne,Beauvilliers,Unknown,21/02/2012,05/04/2012,Confirmed,Schmallenberg,,"domestic, sheep",0,0,0,0,0,,,,
170226,OIE,46.016667,1.083333,Europe,France,Limousin,Vaulry,Unknown,28/02/2012,05/04/2012,Confirmed,Schmallenberg,,"domestic, sheep",0,0,0,0,0,,,,
170225,OIE,46.1,0.916667,Europe,France,Limousin,Mézières-sur-Issoire,Unknown,20/02/2012,05/04/2012,Confirmed,Schmallenberg,,"domestic, sheep",0,0,0,0,0,,,,
170224,OIE,46.216667,1.166667,Europe,France,Limousin,Magnac-Laval,Unknown,02/03/2012,05/04/2012,Confirmed,Schmallenberg,,"domestic, sheep",0,0,0,0,0,,,,
170223,OIE,46.05,1.016667,Europe,France,Limousin,Blond,Unknown,20/02/2012,05/04/2012,Confirmed,Schmallenberg,,"domestic, sheep",0,0,0,0,0,,,,
170222,OIE,46.116667,1.05,Europe,France,Limousin,Bellac,Unknown,05/03/2012,05/04/2012,Confirmed,Schmallenberg,,"domestic, sheep",0,0,0,0,0,,,,
170221,OIE,49.733333,0.833333,Europe,France,Haute-Normandie,Étalleville,Unknown,29/02/2012,05/04/2012,Confirmed,Schmallenberg,,"domestic, sheep",0,0,0,0,0,,,,
170220,OIE,46.466667,4.6,Europe,France,Bourgogne,La Vineuse,Unknown,02/03/2012,05/04/2012,Confirmed,Schmallenberg,,"domestic, sheep",0,0,0,0,0,,,,
170219,OIE,47.9,6.066667,Europe,France,Franche-Comte,Hurecourt,Unknown,01/02/2012,05/04/2012,Confirmed,Schmallenberg,,"domestic, sheep",0,0,0,0,0,,,,
170218,OIE,48.916667,7.216667,Europe,France,Alsace,Waldhambach,Unknown,08/02/2012,05/04/2012,Confirmed,Schmallenberg,,"domestic, sheep",0,0,0,0,0,,,,
170217,OIE,48.816667,4.8,Europe,France,Champagne-Ardenne,Sogny-en-l'Angle,Unknown,05/03/2012,05/04/2012,Confirmed,Schmallenberg,,"domestic, sheep",0,0,0,0,0,,,,
170216,OIE,47.183333,-0.183333,Europe,France,Pays-de-la-Loire,Cizay-la-Madeleine,Unknown,28/02/2012,05/04/2012,Confirmed,Schmallenberg,,"domestic, sheep",0,0,0,0,0,,,,
170215,OIE,46.65,1.883333,Europe,France,Centre,Mers-sur-Indre,Unknown,28/02/2012,05/04/2012,Confirmed,Schmallenberg,,"domestic, sheep",0,0,0,0,0,,,,
170214,OIE,46.433333,1.3,Europe,France,Centre,Chaillac,Unknown,05/03/2012,05/04/2012,Confirmed,Schmallenberg,,"domestic, sheep",0,0,0,0,0,,,,
170213,OIE,46.066667,0.666667,Europe,France,Poitou-Charentes,Lessac,Unknown,04/03/2012,05/04/2012,Confirmed,Schmallenberg,,"domestic, sheep",0,0,0,0,0,,,,
170212,OIE,46.033333,0.716667,Europe,France,Poitou-Charentes,Esse,Unknown,10/03/2012,05/04/2012,Confirmed,Schmallenberg,,"domestic, sheep",0,0,0,0,0,,,,
170211,OIE,48.35,3.7,Europe,France,Champagne-Ardenne,Saint-Lupien,Unknown,14/03/2012,05/04/2012,Confirmed,Schmallenberg,,"domestic, sheep",0,0,0,0,0,,,,
170210,OIE,48.633333,4.0,Europe,France,Champagne-Ardenne,Salon,Unknown,20/01/2012,05/04/2012,Confirmed,Schmallenberg,,"domestic, sheep",0,0,0,0,0,,,,
170209,OIE,49.7,3.683333,Europe,France,Picardie,Dercy,Unknown,21/02/2012,05/04/2012,Confirmed,Schmallenberg,,"domestic, sheep",0,0,0,0,0,,,,
170208,OIE,46.233333,1.033333,Europe,France,Limousin,Oradour-Saint-Genest,Unknown,10/02/2012,05/04/2012,Confirmed,Schmallenberg,,"domestic, sheep",0,0,0,0,0,,,,
170207,OIE,47.833333,3.1,Europe,France,Bourgogne,Saint-Martin-sur-Ouanne,Unknown,21/02/2012,05/04/2012,Confirmed,Schmallenberg,,"domestic, sheep",0,0,0,0,0,,,,
170206,OIE,49.6,0.566667,Europe,France,Haute-Normandie,Bolleville,Unknown,10/02/2012,05/04/2012,Confirmed,Schmallenberg,,"domestic, sheep",0,0,0,0,0,,,,
170205,OIE,48.166667,5.533333,Europe,France,Champagne-Ardenne,Romain-sur-Meuse,Unknown,21/02/2012,05/04/2012,Confirmed,Schmallenberg,,"domestic, sheep",0,0,0,0,0,,,,
170204,OIE,48.516667,0.133333,Europe,France,Basse-Normandie,Vingt-Hanaps,Unknown,21/02/2012,05/04/2012,Confirmed,Schmallenberg,,"domestic, cattle",0,0,0,0,0,,,,
170203,OIE,49.316667,0.15,Europe,France,Basse-Normandie,Saint-Martin-aux-Chartrains,Unknown,21/02/2012,05/04/2012,Confirmed,Schmallenberg,,"domestic, cattle",0,0,0,0,0,,,,
170202,OIE,47.966667,3.783333,Europe,France,Bourgogne,Jaulges,Unknown,09/03/2012,05/04/2012,Confirmed,Schmallenberg,,"domestic, sheep",0,0,0,0,0,,,,
170201,OIE,47.966667,6.233333,Europe,France,Lorraine,Trémonzey,Unknown,21/02/2012,05/04/2012,Confirmed,Schmallenberg,,"domestic, sheep",0,0,0,0,0,,,,
170200,OIE,46.283333,1.25,Europe,France,Limousin,Saint-Léger-Magnazeix,Unknown,05/03/2012,05/04/2012,Confirmed,Schmallenberg,,"domestic, sheep",0,0,0,0,0,,,,
170199,OIE,46.15,1.033333,Europe,France,Limousin,Peyrat-de-Bellac,Unknown,04/03/2012,05/04/2012,Confirmed,Schmallenberg,,"domestic, sheep",0,0,0,0,0,,,,
170198,OIE,46.333333,1.333333,Europe,France,Limousin,Mailhac-sur-Benaize,Unknown,25/02/2012,05/04/2012,Confirmed,Schmallenberg,,"domestic, sheep",0,0,0,0,0,,,,
170197,OIE,46.233333,0.916667,Europe,France,Limousin,Bussière-Poitevine,Unknown,27/02/2012,05/04/2012,Confirmed,Schmallenberg,,"domestic, sheep",0,0,0,0,0,,,,
170196,OIE,45.8,1.133333,Europe,France,Limousin,Aixe-sur-Vienne,Unknown,05/02/2012,05/04/2012,Confirmed,Schmallenberg,,"domestic, sheep",0,0,0,0,0,,,,
170195,OIE,46.866667,-0.4,Europe,France,Poitou-Charentes,Noirterre,Unknown,08/02/2012,05/04/2012,Confirmed,Schmallenberg,,"domestic, sheep",0,0,0,0,0,,,,
170194,OIE,49.816667,1.266667,Europe,France,Haute-Normandie,Saint-Vaast-d'Équiqueville,Unknown,02/02/2012,05/04/2012,Confirmed,Schmallenberg,,"domestic, sheep",0,0,0,0,0,,,,
170193,OIE,45.616667,3.35,Europe,France,Auvergne,Manglieu,Unknown,25/02/2012,05/04/2012,Confirmed,Schmallenberg,,"domestic, sheep",0,0,0,0,0,,,,
170192,OIE,50.15,3.65,Europe,France,Nord-Pas-de-Calais,Fontaine-au-Bois,Unknown,21/02/2012,05/04/2012,Confirmed,Schmallenberg,,"domestic, sheep",0,0,0,0,0,,,,
170191,OIE,48.65,6.433333,Europe,France,Lorraine,Maixe,Unknown,21/02/2012,05/04/2012,Confirmed,Schmallenberg,,"domestic, sheep",0,0,0,0,0,,,,
170190,OIE,47.133333,1.3,Europe,France,Centre,Nouans-les-Fontaines,Unknown,20/01/2012,05/04/2012,Confirmed,Schmallenberg,,"domestic, sheep",0,0,0,0,0,,,,
170189,OIE,46.466667,1.3,Europe,France,Centre,Dunet,Unknown,03/03/2012,05/04/2012,Confirmed,Schmallenberg,,"domestic, sheep",0,0,0,0,0,,,,
170188,OIE,45.15,0.016667,Europe,France,Aquitaine,La Roche-Chalais,Unknown,29/02/2012,05/04/2012,Confirmed,Schmallenberg,,"domestic, sheep",0,0,0,0,0,,,,
170187,OIE,45.966667,0.7,Europe,France,Poitou-Charentes,Saint-Maurice-des-Lions,Unknown,05/03/2012,05/04/2012,Confirmed,Schmallenberg,,"domestic, sheep",0,0,0,0,0,,,,
170186,OIE,45.85,0.566667,Europe,France,Poitou-Charentes,Genouillac,Unknown,02/03/2012,05/04/2012,Confirmed,Schmallenberg,,"domestic, sheep",0,0,0,0,0,,,,
170185,OIE,49.05,-0.633333,Europe,France,Basse-Normandie,Longvillers,Unknown,01/03/2012,05/04/2012,Confirmed,Schmallenberg,,"domestic, sheep",0,0,0,0,0,,,,
170184,OIE,46.233333,3.15,Europe,France,Auvergne,Chantelle,Unknown,11/02/2012,05/04/2012,Confirmed,Schmallenberg,,"domestic, sheep",0,0,0,0,0,,,,
170183,OIE,50.15,3.283333,Europe,France,Nord-Pas-de-Calais,Awoingt,Unknown,04/03/2012,05/04/2012,Confirmed,Schmallenberg,,"domestic, cattle",0,0,0,0,0,,,,
170182,OIE,49.9,4.416667,Europe,France,Champagne-Ardenne,Signy-le-Petit,Unknown,07/03/2012,05/04/2012,Confirmed,Schmallenberg,,"domestic, cattle",0,0,0,0,0,,,,
170181,OIE,48.15,6.066667,Europe,France,Lorraine,Senonges,Unknown,20/02/2012,05/04/2012,Confirmed,Schmallenberg,,"domestic, sheep",0,0,0,0,0,,,,
170180,OIE,45.65,1.3,Europe,France,Limousin,Saint-Priest-Ligoure,Unknown,21/02/2012,05/04/2012,Confirmed,Schmallenberg,,"domestic, sheep",0,0,0,0,0,,,,
170179,OIE,45.9,1.116667,Europe,France,Limousin,Veyrac,Unknown,20/01/2012,05/04/2012,Confirmed,Schmallenberg,,"domestic, cattle",0,0,0,0,0,,,,
170178,OIE,46.233333,1.116667,Europe,France,Limousin,Dinsac,Unknown,07/03/2012,05/04/2012,Confirmed,Schmallenberg,,"domestic, cattle",0,0,0,0,0,,,,
170177,OIE,49.183333,0.666667,Europe,France,Haute-Normandie,Saint-Cyr-de-Salerne,Unknown,08/03/2012,05/04/2012,Confirmed,Schmallenberg,,"domestic, cattle",0,0,0,0,0,,,,
170176,OIE,47.2,4.283333,Europe,France,Bourgogne,Liernais,Unknown,03/03/2012,05/04/2012,Confirmed,Schmallenberg,,"domestic, cattle",0,0,0,0,0,,,,
170175,OIE,47.65,4.933333,Europe,France,Bourgogne,Fraignot-et-Vesvrotte,Unknown,02/03/2012,05/04/2012,Confirmed,Schmallenberg,,"domestic, cattle",0,0,0,0,0,,,,
170174,OIE,47.7,3.266667,Europe,France,Bourgogne,Fontaines,Unknown,29/02/2012,05/04/2012,Confirmed,Schmallenberg,,"domestic, sheep",0,0,0,0,0,,,,
170173,OIE,47.758333,3.25,Europe,France,Bourgogne,Dracy,Unknown,09/03/2012,05/04/2012,Confirmed,Schmallenberg,,"domestic, sheep",0,0,0,0,0,,,,
170172,OIE,46.166667,0.95,Europe,France,Limousin,Saint-Bonnet-de-Bellac,Unknown,08/03/2012,05/04/2012,Confirmed,Schmallenberg,,"domestic, sheep",0,0,0,0,0,,,,
170171,OIE,46.166667,0.95,Europe,France,Limousin,Saint-Bonnet-de-Bellac,Unknown,02/03/2012,05/04/2012,Confirmed,Schmallenberg,,"domestic, sheep",0,0,0,0,0,,,,
170170,OIE,46.216667,1.166667,Europe,France,Limousin,Magnac-Laval,Unknown,20/02/2012,05/04/2012,Confirmed,Schmallenberg,,"domestic, sheep",0,0,0,0,0,,,,
170169,OIE,46.166667,0.983333,Europe,France,Limousin,La Croix-sur-Gartempe,Unknown,15/02/2012,05/04/2012,Confirmed,Schmallenberg,,"domestic, sheep",0,0,0,0,0,,,,
170168,OIE,46.0,1.133333,Europe,France,Limousin,Chamboret,Unknown,03/03/2012,05/04/2012,Confirmed,Schmallenberg,,"domestic, sheep",0,0,0,0,0,,,,
170167,OIE,46.116667,0.566667,Europe,France,Poitou-Charentes,Pressac,Unknown,03/03/2012,05/04/2012,Confirmed,Schmallenberg,,"domestic, sheep",0,0,0,0,0,,,,
170166,OIE,46.3,4.6,Europe,France,Bourgogne,Tramayes,Unknown,27/02/2012,05/04/2012,Confirmed,Schmallenberg,,"domestic, sheep",0,0,0,0,0,,,,
170165,OIE,47.016667,4.333333,Europe,France,Bourgogne,Dracy-Saint-Loup,Unknown,01/03/2012,05/04/2012,Confirmed,Schmallenberg,,"domestic, sheep",0,0,0,0,0,,,,
170164,OIE,48.533333,5.266667,Europe,France,Lorraine,Montiers-sur-Saulx,Unknown,21/02/2012,05/04/2012,Confirmed,Schmallenberg,,"domestic, sheep",0,0,0,0,0,,,,
170163,OIE,48.45,6.516667,Europe,France,Lorraine,Mattexey,Unknown,21/02/2012,05/04/2012,Confirmed,Schmallenberg,,"domestic, sheep",0,0,0,0,0,,,,
170162,OIE,47.5,4.466667,Europe,France,Bourgogne,Pouillenay,Unknown,07/02/2012,05/04/2012,Confirmed,Schmallenberg,,"domestic, sheep",0,0,0,0,0,,,,
170161,OIE,47.35,4.35,Europe,France,Bourgogne,Fontangy,Unknown,03/03/2012,05/04/2012,Confirmed,Schmallenberg,,"domestic, sheep",0,0,0,0,0,,,,
170160,OIE,45.883333,0.5,Europe,France,Poitou-Charentes,Lussac,Unknown,01/03/2012,05/04/2012,Confirmed,Schmallenberg,,"domestic, sheep",0,0,0,0,0,,,,
170159,OIE,45.883333,0.5,Europe,France,Poitou-Charentes,Nieuil,Unknown,20/01/2012,05/04/2012,Confirmed,Schmallenberg,,"domestic, sheep",0,0,0,0,0,,,,
170158,OIE,49.883333,3.733333,Europe,France,Picardie,Wiège-Faty,Unknown,31/01/2012,05/04/2012,Confirmed,Schmallenberg,,"domestic, sheep",0,0,0,0,0,,,,
170157,OIE,46.25,5.216667,Europe,France,Rhone-Alpes,Viriat,Unknown,27/02/2012,05/04/2012,Confirmed,Schmallenberg,,"domestic, sheep",0,0,0,0,0,,,,
170156,OIE,46.233333,0.65,Europe,France,Poitou-Charentes,Le Vigeant n°2,Unknown,21/02/2012,05/04/2012,Confirmed,Schmallenberg,,"domestic, sheep",0,0,0,0,0,,,,
170155,OIE,47.283333,3.233333,Europe,France,Bourgogne,Donzy,Unknown,21/02/2012,05/04/2012,Confirmed,Schmallenberg,,"domestic, sheep",0,0,0,0,0,,,,
170154,OIE,48.716667,6.766667,Europe,France,Lorraine,moussey,Unknown,21/02/2012,05/04/2012,Confirmed,Schmallenberg,,"domestic, sheep",0,0,0,0,0,,,,
170153,OIE,48.066667,5.0,Europe,France,Champagne-Ardenne,Blessonville,Unknown,21/02/2012,05/04/2012,Confirmed,Schmallenberg,,"domestic, cattle",0,0,0,0,0,,,,
170152,OIE,49.333333,0.35,Europe,France,Haute-Normandie,Beuzeville,Unknown,20/01/2012,05/04/2012,Confirmed,Schmallenberg,,"domestic, cattle",0,0,0,0,0,,,,
170151,OIE,49.333333,-0.9,Europe,France,Basse-Normandie,formigny,Unknown,21/02/2012,05/04/2012,Confirmed,Schmallenberg,,"domestic, cattle",0,0,0,0,0,,,,
170150,OIE,46.266667,1.383333,Europe,France,Limousin,Arnac-la-Poste,Unknown,02/03/2012,05/04/2012,Confirmed,Schmallenberg,,"domestic, goats",0,0,0,0,0,,,,
170149,OIE,50.0,2.783333,Europe,France,Picardie,Montauban-de-Picardie,Unknown,20/02/2012,05/04/2012,Confirmed,Schmallenberg,,"domestic, sheep",0,0,0,0,0,,,,
170148,OIE,48.416667,6.533333,Europe,France,Lorraine,Clézentaine,Unknown,05/03/2012,05/04/2012,Confirmed,Schmallenberg,,"domestic, cattle",0,0,0,0,0,,,,
170147,OIE,46.233333,1.116667,Europe,France,Limousin,Dinsac,Unknown,20/02/2012,05/04/2012,Confirmed,Schmallenberg,,"domestic, cattle",0,0,0,0,0,,,,
170146,OIE,47.116667,4.283333,Europe,France,Bourgogne,Savilly,Unknown,06/03/2012,05/04/2012,Confirmed,Schmallenberg,,"domestic, cattle",0,0,0,0,0,,,,
170145,OIE,47.566667,4.216667,Europe,France,Bourgogne,Moutiers-Saint-Jean,Unknown,29/02/2012,05/04/2012,Confirmed,Schmallenberg,,"domestic, cattle",0,0,0,0,0,,,,
170144,OIE,47.4,3.8,Europe,France,Bourgogne,Domecy-sur-Cure,Unknown,03/03/2012,05/04/2012,Confirmed,Schmallenberg,,"domestic, sheep",0,0,0,0,0,,,,
170143,OIE,47.75,3.5,Europe,France,Bourgogne,Chevannes,Unknown,01/03/2012,05/04/2012,Confirmed,Schmallenberg,,"domestic, sheep",0,0,0,0,0,,,,
170142,OIE,46.283333,1.25,Europe,France,Limousin,Saint-Léger-Magnazeix,Unknown,27/02/2012,05/04/2012,Confirmed,Schmallenberg,,"domestic, sheep",0,0,0,0,0,,,,
170141,OIE,46.166667,0.85,Europe,France,Limousin,Saint-Barbant,Unknown,21/02/2012,05/04/2012,Confirmed,Schmallenberg,,"domestic, sheep",0,0,0,0,0,,,,
170140,OIE,46.216667,1.166667,Europe,France,Limousin,Magnac-Laval,Unknown,19/02/2012,05/04/2012,Confirmed,Schmallenberg,,"domestic, sheep",0,0,0,0,0,,,,
170139,OIE,46.35,1.183333,Europe,France,Limousin,Lussac-les-Églises,Unknown,01/03/2012,05/04/2012,Confirmed,Schmallenberg,,"domestic, sheep",0,0,0,0,0,,,,
170138,OIE,46.5,4.883333,Europe,France,Bourgogne,Uchizy,Unknown,29/02/2012,05/04/2012,Confirmed,Schmallenberg,,"domestic, sheep",0,0,0,0,0,,,,
170137,OIE,46.55,5.116667,Europe,France,Bourgogne,La Chapelle-Thècle,Unknown,01/03/2012,05/04/2012,Confirmed,Schmallenberg,,"domestic, sheep",0,0,0,0,0,,,,
170136,OIE,48.666667,6.85,Europe,France,Lorraine,Réchicourt-le-Château,Unknown,12/03/2012,05/04/2012,Confirmed,Schmallenberg,,"domestic, sheep",0,0,0,0,0,,,,
170135,OIE,49.583333,5.35,Europe,France,Lorraine,Thonne-le-Thil,Unknown,21/02/2012,05/04/2012,Confirmed,Schmallenberg,,"domestic, sheep",0,0,0,0,0,,,,
170134,OIE,47.216667,4.583333,Europe,France,Bourgogne,Rouvres-sous-Meilly,Unknown,07/03/2012,05/04/2012,Confirmed,Schmallenberg,,"domestic, sheep",0,0,0,0,0,,,,
170133,OIE,47.183333,4.516667,Europe,France,Bourgogne,Le Fête,Unknown,07/03/2012,05/04/2012,Confirmed,Schmallenberg,,"domestic, sheep",0,0,0,0,0,,,,
170132,OIE,46.016667,0.05,Europe,France,Poitou-Charentes,Empuré,Unknown,01/03/2012,05/04/2012,Confirmed,Schmallenberg,,"domestic, sheep",0,0,0,0,0,,,,
170131,OIE,45.95308,0.85879,Europe,France,Poitou-Charentes,Brigueuil,Unknown,05/03/2012,05/04/2012,Confirmed,Schmallenberg,,"domestic, sheep",0,0,0,0,0,,,,
170130,OIE,46.35,5.316667,Europe,France,Rhone-Alpes,Villemotier,Unknown,09/03/2012,05/04/2012,Confirmed,Schmallenberg,,"domestic, sheep",0,0,0,0,0,,,,
170129,OIE,48.316667,4.833333,Europe,France,Champagne-Ardenne,Beurville,Unknown,21/02/2012,05/04/2012,Confirmed,Schmallenberg,,"domestic, sheep",0,0,0,0,0,,,,
170128,OIE,47.8,5.433333,Europe,France,Champagne-Ardenne,Chalindrey,Unknown,21/02/2012,05/04/2012,Confirmed,Schmallenberg,,"domestic, sheep",0,0,0,0,0,,,,
170127,OIE,48.766667,0.183333,Europe,France,Basse-Normandie,ginai,Unknown,21/02/2012,05/04/2012,Confirmed,Schmallenberg,,"domestic, sheep",0,0,0,0,0,,,,
170126,OIE,48.85,6.55,Europe,France,Lorraine,château-salins,Unknown,07/03/2012,05/04/2012,Confirmed,Schmallenberg,,"domestic, sheep",0,0,0,0,0,,,,
170125,OIE,49.716667,0.25,Europe,France,Haute-Normandie,Bénouville,Unknown,01/03/2012,05/04/2012,Confirmed,Schmallenberg,,"domestic, sheep",0,0,0,0,0,,,,
170124,OIE,49.6,0.683333,Europe,France,Haute-Normandie,Allouville-Bellefosse,Unknown,29/02/2012,05/04/2012,Confirmed,Schmallenberg,,"domestic, sheep",0,0,0,0,0,,,,
170123,OIE,50.016667,4.0,Europe,France,Nord-Pas-de-Calais,Wignehies,Unknown,21/02/2012,05/04/2012,Confirmed,Schmallenberg,,"domestic, cattle",0,0,0,0,0,,,,
170122,OIE,49.133333,6.55,Europe,France,Lorraine,Narbéfontaine,Unknown,01/03/2012,05/04/2012,Confirmed,Schmallenberg,,"domestic, cattle",0,0,0,0,0,,,,
170121,OIE,48.283333,4.6,Europe,France,Champagne-Ardenne,Bossancourt,Unknown,17/03/2012,05/04/2012,Confirmed,Schmallenberg,,"domestic, cattle",0,0,0,0,0,,,,
170120,OIE,48.883333,3.483333,Europe,France,Picardie,Marchais-en-Brie,Unknown,02/03/2012,05/04/2012,Confirmed,Schmallenberg,,"domestic, cattle",0,0,0,0,0,,,,
170119,OIE,46.3,1.116667,Europe,France,Limousin,Tersannes,Unknown,20/02/2012,05/04/2012,Confirmed,Schmallenberg,,"domestic, sheep",0,0,0,0,0,,,,
170118,OIE,46.183333,0.983333,Europe,France,Limousin,Saint-Sornin-la-Marche,Unknown,09/02/2012,05/04/2012,Confirmed,Schmallenberg,,"domestic, sheep",0,0,0,0,0,,,,
170117,OIE,46.233333,1.033333,Europe,France,Limousin,Oradour-Saint-Genest,Unknown,15/02/2012,05/04/2012,Confirmed,Schmallenberg,,"domestic, sheep",0,0,0,0,0,,,,
170116,OIE,46.1,0.916667,Europe,France,Limousin,Mézières-sur-Issoire,Unknown,12/02/2012,05/04/2012,Confirmed,Schmallenberg,,"domestic, sheep",0,0,0,0,0,,,,
170115,OIE,46.116667,1.216667,Europe,France,Limousin,Balledent,Unknown,12/03/2012,05/04/2012,Confirmed,Schmallenberg,,"domestic, sheep",0,0,0,0,0,,,,
170114,OIE,46.55,-0.033333,Europe,France,Poitou-Charentes,Les Forges,Unknown,21/02/2012,05/04/2012,Confirmed,Schmallenberg,,"domestic, sheep",0,0,0,0,0,,,,
170113,OIE,46.616667,-0.183333,Europe,France,Poitou-Charentes,La Chapelle-Bertrand,Unknown,01/02/2012,05/04/2012,Confirmed,Schmallenberg,,"domestic, sheep",0,0,0,0,0,,,,
170112,OIE,48.483333,0.35,Europe,France,Basse-Normandie,Saint-Julien-sur-Sarthe,Unknown,21/02/2012,05/04/2012,Confirmed,Schmallenberg,,"domestic, sheep",0,0,0,0,0,,,,
170111,OIE,48.533333,0.4,Europe,France,Basse-Normandie,Coulonges-sur-Sarthe,Unknown,21/02/2012,05/04/2012,Confirmed,Schmallenberg,,"domestic, sheep",0,0,0,0,0,,,,
170110,OIE,48.9,6.083333,Europe,France,Lorraine,Atton,Unknown,02/03/2012,05/04/2012,Confirmed,Schmallenberg,,"domestic, sheep",0,0,0,0,0,,,,
170109,OIE,47.733333,5.266667,Europe,France,Champagne-Ardenne,Prangey,Unknown,20/01/2012,05/04/2012,Confirmed,Schmallenberg,,"domestic, sheep",0,0,0,0,0,,,,
170108,OIE,49.2,0.6,Europe,France,Haute-Normandie,Notre-Dame-d'Épine,Unknown,14/03/2012,05/04/2012,Confirmed,Schmallenberg,,"domestic, sheep",0,0,0,0,0,,,,
170107,OIE,49.416667,1.55,Europe,France,Haute-Normandie,Fleury-la-Forêt,Unknown,03/03/2012,05/04/2012,Confirmed,Schmallenberg,,"domestic, sheep",0,0,0,0,0,,,,
170106,OIE,46.116667,0.783333,Europe,France,Poitou-Charentes,Oradour-Fanais,Unknown,20/01/2012,05/04/2012,Confirmed,Schmallenberg,,"domestic, sheep",0,0,0,0,0,,,,
170105,OIE,46.016667,0.783333,Europe,France,Poitou-Charentes,Lesterps,Unknown,20/02/2012,05/04/2012,Confirmed,Schmallenberg,,"domestic, sheep",0,0,0,0,0,,,,
170104,OIE,49.6,5.25,Europe,France,Champagne-Ardenne,Fromy,Unknown,23/02/2012,05/04/2012,Confirmed,Schmallenberg,,"domestic, sheep",0,0,0,0,0,,,,
170103,OIE,49.45,4.883333,Europe,France,Champagne-Ardenne,Authe,Unknown,08/03/2012,05/04/2012,Confirmed,Schmallenberg,,"domestic, sheep",0,0,0,0,0,,,,
170102,OIE,50.583333,2.066667,Europe,France,Nord-Pas-de-Calais,Audincthun,Unknown,23/02/2012,05/04/2012,Confirmed,Schmallenberg,,"domestic, sheep",0,0,0,0,0,,,,
170101,OIE,50.033333,3.3,Europe,France,Nord-Pas-de-Calais,Villers-Outréaux,Unknown,08/03/2012,05/04/2012,Confirmed,Schmallenberg,,"domestic, sheep",0,0,0,0,0,,,,
170100,OIE,49.65,0.783333,Europe,France,Haute-Normandie,Baons-le-Comte,Unknown,21/02/2012,05/04/2012,Confirmed,Schmallenberg,,"domestic, sheep",0,0,0,0,0,,,,
170099,OIE,49.516667,1.75,Europe,France,Picardie,Saint-Quentin-des-Prés,Unknown,21/02/2012,05/04/2012,Confirmed,Schmallenberg,,"domestic, sheep",0,0,0,0,0,,,,
170098,OIE,49.0,7.016667,Europe,France,Lorraine,Sarralbe,Unknown,08/03/2012,05/04/2012,Confirmed,Schmallenberg,,"domestic, cattle",0,0,0,0,0,,,,
170097,OIE,48.5,6.133333,Europe,France,Lorraine,Clérey-sur-Brénon,Unknown,21/02/2012,05/04/2012,Confirmed,Schmallenberg,,"domestic, cattle",0,0,0,0,0,,,,
170096,OIE,49.833333,3.5,Europe,France,Picardie,Origny-Sainte-Benoîte,Unknown,04/03/2012,05/04/2012,Confirmed,Schmallenberg,,"domestic, cattle",0,0,0,0,0,,,,
170095,OIE,47.55,3.95,Europe,France,Bourgogne,Provency,Unknown,07/03/2012,05/04/2012,Confirmed,Schmallenberg,,"domestic, sheep",0,0,0,0,0,,,,
170094,OIE,46.3,1.116667,Europe,France,Limousin,Tersannes,Unknown,20/01/2012,05/04/2012,Confirmed,Schmallenberg,,"domestic, sheep",0,0,0,0,0,,,,
170093,OIE,46.316667,1.366667,Europe,France,Limousin,Saint-Sulpice-les-Feuilles,Unknown,01/03/2012,05/04/2012,Confirmed,Schmallenberg,,"domestic, sheep",0,0,0,0,0,,,,
170092,OIE,46.166667,1.066667,Europe,France,Limousin,Saint-Ouen-sur-Gartempe,Unknown,13/02/2012,05/04/2012,Confirmed,Schmallenberg,,"domestic, sheep",0,0,0,0,0,,,,
170091,OIE,46.233333,1.033333,Europe,France,Limousin,Oradour-Saint-Genest,Unknown,01/03/2012,05/04/2012,Confirmed,Schmallenberg,,"domestic, sheep",0,0,0,0,0,,,,
170090,OIE,46.233333,1.033333,Europe,France,Limousin,Oradour-Saint-Genest,Unknown,10/03/2012,05/04/2012,Confirmed,Schmallenberg,,"domestic, sheep",0,0,0,0,0,,,,
170089,OIE,46.366667,-0.1,Europe,France,Poitou-Charentes,La Mothe-Saint-Héray,Unknown,16/02/2012,05/04/2012,Confirmed,Schmallenberg,,"domestic, sheep",0,0,0,0,0,,,,
170088,OIE,46.666667,-0.083333,Europe,France,Poitou-Charentes,La Ferrière-en-Parthenay,Unknown,02/03/2012,05/04/2012,Confirmed,Schmallenberg,,"domestic, sheep",0,0,0,0,0,,,,
170087,OIE,48.85,0.283333,Europe,France,Basse-Normandie,Neuville-sur-Touques,Unknown,21/02/2012,05/04/2012,Confirmed,Schmallenberg,,"domestic, sheep",0,0,0,0,0,,,,
170086,OIE,49.55,2.05,Europe,France,Picardie,Blicourt,Unknown,21/02/2012,05/04/2012,Confirmed,Schmallenberg,,"domestic, sheep",0,0,0,0,0,,,,
170085,OIE,47.883333,-0.516667,Europe,France,Pays-de-la-Loire,Grez-en-Bouère,Unknown,21/02/2012,05/04/2012,Confirmed,Schmallenberg,,"domestic, sheep",0,0,0,0,0,,,,
170084,OIE,47.883333,5.65,Europe,France,Champagne-Ardenne,Chézeaux,Unknown,06/03/2012,05/04/2012,Confirmed,Schmallenberg,,"domestic, sheep",0,0,0,0,0,,,,
170083,OIE,49.25,0.666667,Europe,France,Haute-Normandie,Freneuse-sur-Risle,Unknown,27/03/2012,05/04/2012,Confirmed,Schmallenberg,,"domestic, sheep",0,0,0,0,0,,,,
170082,OIE,49.3,1.7,Europe,France,Haute-Normandie,Bernouville,Unknown,07/03/2012,05/04/2012,Confirmed,Schmallenberg,,"domestic, sheep",0,0,0,0,0,,,,
170081,OIE,45.85,0.366667,Europe,France,Poitou-Charentes,Saint-Mary,Unknown,08/03/2012,05/04/2012,Confirmed,Schmallenberg,,"domestic, sheep",0,0,0,0,0,,,,
170080,OIE,46.116667,0.783333,Europe,France,Poitou-Charentes,Oradour-Fanais,Unknown,29/02/2012,05/04/2012,Confirmed,Schmallenberg,,"domestic, sheep",0,0,0,0,0,,,,
170079,OIE,46.016667,0.783333,Europe,France,Poitou-Charentes,Lesterps,Unknown,09/03/2012,05/04/2012,Confirmed,Schmallenberg,,"domestic, sheep",0,0,0,0,0,,,,
170078,OIE,49.466667,4.666667,Europe,France,Champagne-Ardenne,Voncq,Unknown,29/02/2012,05/04/2012,Confirmed,Schmallenberg,,"domestic, sheep",0,0,0,0,0,,,,
170077,OIE,49.7,5.116667,Europe,France,Champagne-Ardenne,Escombres-et-le-Chesnois,Unknown,01/03/2012,05/04/2012,Confirmed,Schmallenberg,,"domestic, sheep",0,0,0,0,0,,,,
170075,OIE,50.78,4.02,Europe,Belgium,Vlaams Gewest,Denderwindeke,Unknown,21/03/2012,05/04/2012,Confirmed,Brucellosis (Brucella abortus),,"domestic, cattle",317,1,0,0,317,,,,
170074,OIE,-29.259,28.071,Africa,Lesotho,Berea,Ramothamo,Unknown,27/02/2012,06/04/2012,Confirmed,Anthrax,,"domestic, cattle",1800,1,1,0,0,,,,
170073,OIE,49.51,6.15,Europe,Luxembourg,Luxembourg,Eppeldorf,Unknown,13/03/2012,02/04/2012,Confirmed,Schmallenberg,,"domestic, cattle",130,1,1,0,0,,,,
170072,OIE,49.57,6.29,Europe,Luxembourg,Grevenmacher,Roedt,Unknown,16/03/2012,02/04/2012,Confirmed,Schmallenberg,,"domestic, cattle",163,1,1,0,0,,,,
170071,OIE,49.85,6.1,Europe,Luxembourg,Diekirch,Ettelbruck,Unknown,06/03/2012,02/04/2012,Confirmed,Schmallenberg,,"domestic, cattle",178,1,1,0,0,,,,
170070,OIE,49.65,6.24,Europe,Luxembourg,Luxembourg,Oberanven,Unknown,20/03/2012,02/04/2012,Confirmed,Schmallenberg,,"domestic, cattle",139,1,1,0,0,,,,
170069,OIE,50.12,6.11,Europe,Luxembourg,Diekirch,Lieler,Unknown,16/03/2012,02/04/2012,Confirmed,Schmallenberg,,"domestic, cattle",428,1,1,0,0,,,,
170068,OIE,51.6637,8.2492,Europe,Germany,Nordrhein-Westfalen,Wadersloh,Unknown,19/03/2012,02/04/2012,Confirmed,Schmallenberg,,"domestic, cattle",4,1,0,0,0,,,,
170067,OIE,51.865,8.0,Europe,Germany,Nordrhein-Westfalen,Ennigerloh,Unknown,12/03/2012,02/04/2012,Confirmed,Schmallenberg,,"domestic, cattle",13,1,0,0,0,,,,
170066,OIE,51.8205,7.9574,Europe,Germany,Nordrhein-Westfalen,Ennigerloh,Unknown,14/03/2012,02/04/2012,Confirmed,Schmallenberg,,"domestic, cattle",9,1,0,0,0,,,,
170065,OIE,52.4401,8.607,Europe,Germany,Nordrhein-Westfalen,Rahden,Unknown,22/03/2012,02/04/2012,Confirmed,Schmallenberg,,"domestic, cattle",13,1,1,0,0,,,,
170064,OIE,52.2579,10.2525,Europe,Germany,Niedersachsen,Lahstedt,Unknown,16/02/2012,02/04/2012,Confirmed,Schmallenberg,,"domestic, sheep",4,1,0,0,0,,,,
170063,OIE,50.2669,9.4292,Europe,Germany,Hessen,Bad Soden-Allendorf,Unknown,27/02/2012,02/04/2012,Confirmed,Schmallenberg,,"domestic, sheep",90,1,0,0,0,,,,
170062,OIE,51.1146,13.9554,Europe,Germany,Sachsen,Arnsdorf,Unknown,22/02/2012,02/04/2012,Confirmed,Schmallenberg,,"domestic, sheep",4,2,2,0,0,,,,
170061,OIE,51.7735,6.3845,Europe,Germany,Nordrhein-Westfalen,Rees,Unknown,21/03/2012,02/04/2012,Confirmed,Schmallenberg,,"domestic, cattle",390,1,0,0,0,,,,
170060,OIE,51.7754,6.1828,Europe,Germany,Nordrhein-Westfalen,Bedburg-Hau,Unknown,25/03/2012,02/04/2012,Confirmed,Schmallenberg,,"domestic, cattle",116,1,0,0,0,,,,
170058,OIE,52.0088,7.9848,Europe,Germany,Nordrhein-Westfalen,Warendorf,Unknown,28/02/2012,02/04/2012,Confirmed,Schmallenberg,,"domestic, cattle",106,1,0,0,0,,,,
170057,OIE,50.2375,9.4811,Europe,Germany,Hessen,Bad Soden-Allendorf,Unknown,27/03/2012,02/04/2012,Confirmed,Schmallenberg,,"domestic, cattle",1,1,1,0,0,,,,
170056,OIE,53.0236,8.1631,Europe,Germany,Niedersachsen,Wardenburg,Unknown,15/03/2012,02/04/2012,Confirmed,Schmallenberg,,"domestic, cattle",45,1,1,0,0,,,,
170055,OIE,53.2618,7.6747,Europe,Germany,Niedersachsen,Uplengen,Unknown,15/03/2012,02/04/2012,Confirmed,Schmallenberg,,"domestic, cattle",1,1,1,0,0,,,,
170054,OIE,52.6106,9.0916,Europe,Germany,Niedersachsen,Liebenau,Unknown,07/03/2012,02/04/2012,Confirmed,Schmallenberg,,"domestic, cattle",154,2,1,0,0,,,,
170053,OIE,50.6921,6.455,Europe,Germany,Nordrhein-Westfalen,Nideggen,Unknown,29/03/2012,02/04/2012,Confirmed,Schmallenberg,,"domestic, cattle",40,1,1,0,0,,,,
170052,OIE,50.2326,6.3639,Europe,Germany,Rheinland-Pfalz,Sellerich,Unknown,08/03/2012,02/04/2012,Confirmed,Schmallenberg,,"domestic, cattle",249,1,1,0,0,,,,
170051,OIE,53.621,7.8925,Europe,Germany,Niedersachsen,Wangerland,Unknown,16/03/2012,02/04/2012,Confirmed,Schmallenberg,,"domestic, cattle",8,1,0,0,0,,,,
170050,OIE,51.8771,6.7267,Europe,Germany,Nordrhein-Westfalen,Rhede,Unknown,26/03/2012,02/04/2012,Confirmed,Schmallenberg,,"domestic, cattle",28,1,1,0,0,,,,
170049,OIE,53.0619,9.7856,Europe,Germany,Niedersachsen,Schneverdingen,Unknown,20/02/2012,02/04/2012,Confirmed,Schmallenberg,,"domestic, cattle",5,1,0,0,0,,,,
170048,OIE,51.0953,10.0913,Europe,Germany,Hessen,Ringgau,Unknown,27/02/2012,02/04/2012,Confirmed,Schmallenberg,,"domestic, goats",45,1,0,0,0,,,,
170047,OIE,50.0649,8.3161,Europe,Germany,Hessen,Wiesbaden,Unknown,08/03/2012,02/04/2012,Confirmed,Schmallenberg,,"domestic, cattle",20,1,1,0,0,,,,
170046,OIE,51.2933,6.454,Europe,Germany,Nordrhein-Westfalen,Tönisforst,Unknown,14/03/2012,02/04/2012,Confirmed,Schmallenberg,,"domestic, cattle",43,1,1,0,0,,,,
170045,OIE,49.8829,9.1587,Europe,Germany,Bayern,Großwallstadt,Unknown,12/03/2012,02/04/2012,Confirmed,Schmallenberg,,"domestic, cattle",6,1,0,1,0,,,,
170044,OIE,52.3774,9.1479,Europe,Germany,Niedersachsen,Niederwöhren,Unknown,14/03/2012,02/04/2012,Confirmed,Schmallenberg,,"domestic, cattle",14,1,0,0,0,,,,
170043,OIE,49.9585,9.2749,Europe,Germany,Bayern,Bessenbach,Unknown,11/03/2012,02/04/2012,Confirmed,Schmallenberg,,"domestic, cattle",161,1,1,0,0,,,,
170042,OIE,53.2317,10.2579,Europe,Germany,Niedersachsen,Westergellersen,Unknown,27/02/2012,02/04/2012,Confirmed,Schmallenberg,,"domestic, sheep",18,1,1,0,0,,,,
170041,OIE,51.7174,8.5578,Europe,Germany,Nordrhein-Westfalen,Delbrück,Unknown,20/03/2012,02/04/2012,Confirmed,Schmallenberg,,"domestic, cattle",1,1,1,0,0,,,,
170040,OIE,50.3022,8.7937,Europe,Germany,Hessen,Friedberg,Unknown,06/03/2012,02/04/2012,Confirmed,Schmallenberg,,"domestic, cattle",109,1,1,0,0,,,,
170039,OIE,51.4026,8.8977,Europe,Germany,Nordrhein-Westfalen,Marsberg,Unknown,21/03/2012,02/04/2012,Confirmed,Schmallenberg,,"domestic, cattle",79,1,0,0,0,,,,
170038,OIE,52.2584,8.1177,Europe,Germany,Niedersachsen,Osnabrück,Unknown,26/03/2012,02/04/2012,Confirmed,Schmallenberg,,"domestic, cattle",47,1,1,0,0,,,,
170037,OIE,53.9929,9.7236,Europe,Germany,Schleswig-Holstein,Oeschebüttel,Unknown,14/03/2012,02/04/2012,Confirmed,Schmallenberg,,"domestic, cattle",9,1,0,0,0,,,,
170036,OIE,52.278,9.0546,Europe,Germany,Niedersachsen,Bückeburg,Unknown,14/03/2012,02/04/2012,Confirmed,Schmallenberg,,"domestic, cattle",105,1,0,0,0,,,,
170035,OIE,53.5688,7.9907,Europe,Germany,Niedersachsen,Schortens,Unknown,19/03/2012,02/04/2012,Confirmed,Schmallenberg,,"domestic, cattle",18,1,1,0,0,,,,
170034,OIE,50.6304,9.4085,Europe,Germany,Hessen,Lauterbach,Unknown,08/03/2012,02/04/2012,Confirmed,Schmallenberg,,"domestic, cattle",2,1,1,0,0,,,,
170033,OIE,51.5805,7.8303,Europe,Germany,Nordrhein-Westfalen,Hamm,Unknown,19/03/2012,02/04/2012,Confirmed,Schmallenberg,,"domestic, cattle",6,1,1,0,0,,,,
170032,OIE,51.4012,8.8961,Europe,Germany,Nordrhein-Westfalen,Marsberg,Unknown,26/03/2012,02/04/2012,Confirmed,Schmallenberg,,"domestic, cattle",77,1,0,0,0,,,,
170031,OIE,51.8294,6.0928,Europe,Germany,Nordrhein-Westfalen,Kleve,Unknown,21/03/2012,02/04/2012,Confirmed,Schmallenberg,,"domestic, cattle",440,1,0,0,0,,,,
170030,OIE,53.2531,7.7246,Europe,Germany,Niedersachsen,Uplengen,Unknown,26/03/2012,02/04/2012,Confirmed,Schmallenberg,,"domestic, cattle",1,1,1,0,0,,,,
170029,OIE,50.5422,9.9885,Europe,Germany,Hessen,Hilders,Unknown,09/03/2012,02/04/2012,Confirmed,Schmallenberg,,"domestic, cattle",70,1,1,0,0,,,,
170028,OIE,50.826,11.8052,Europe,Germany,Thueringen,Lippersdorf,Unknown,20/03/2012,02/04/2012,Confirmed,Schmallenberg,,"domestic, cattle",5,1,0,0,0,,,,
170027,OIE,50.3457,9.2081,Europe,Germany,Hessen,Kefenrod,Unknown,07/03/2012,02/04/2012,Confirmed,Schmallenberg,,"domestic, cattle",130,1,1,0,0,,,,
170026,OIE,53.1865,7.6073,Europe,Germany,Niedersachsen,Ostrhauderfehn,Unknown,15/03/2012,02/04/2012,Confirmed,Schmallenberg,,"domestic, cattle",1,1,1,0,0,,,,
170025,OIE,51.2748,8.4627,Europe,Germany,Nordrhein-Westfalen,Olsberg,Unknown,29/03/2012,02/04/2012,Confirmed,Schmallenberg,,"domestic, cattle",20,1,0,0,0,,,,
170024,OIE,50.9089,8.6851,Europe,Germany,Hessen,Wetter,Unknown,22/03/2012,02/04/2012,Confirmed,Schmallenberg,,"domestic, cattle",66,1,0,0,0,,,,
170023,OIE,51.0141,8.4099,Europe,Germany,Nordrhein-Westfalen,Bad Berleburg,Unknown,27/03/2012,02/04/2012,Confirmed,Schmallenberg,,"domestic, sheep",3,1,1,0,0,,,,
170022,OIE,52.082,6.7653,Europe,Germany,Nordrhein-Westfalen,Vreden,Unknown,19/03/2012,02/04/2012,Confirmed,Schmallenberg,,"domestic, cattle",58,1,1,0,0,,,,
170021,OIE,52.1003,9.1033,Europe,Germany,Nordrhein-Westfalen,Extertal,Unknown,19/03/2012,02/04/2012,Confirmed,Schmallenberg,,"domestic, cattle",1,1,1,0,0,,,,
170020,OIE,50.9181,9.7609,Europe,Germany,Hessen,Ludwigsau,Unknown,14/03/2012,02/04/2012,Confirmed,Schmallenberg,,"domestic, cattle",9,1,1,0,0,,,,
170019,OIE,51.4364,8.5853,Europe,Germany,Nordrhein-Westfalen,Brilon,Unknown,27/03/2012,02/04/2012,Confirmed,Schmallenberg,,"domestic, cattle",46,1,0,0,0,,,,
170018,OIE,51.9278,8.0407,Europe,Germany,Nordrhein-Westfalen,Warendorf,Unknown,19/03/2012,02/04/2012,Confirmed,Schmallenberg,,"domestic, cattle",99,1,0,0,0,,,,
170017,OIE,53.3139,10.6343,Europe,Germany,Niedersachsen,Bleckede,Unknown,31/01/2012,02/04/2012,Confirmed,Schmallenberg,,"domestic, sheep",23,1,0,0,0,,,,
170016,OIE,53.8751,9.8888,Europe,Germany,Schleswig-Holstein,Lentföhrden,Unknown,26/03/2012,02/04/2012,Confirmed,Schmallenberg,,"domestic, cattle",1,1,1,0,0,,,,
170015,OIE,53.9927,9.2825,Europe,Germany,Schleswig-Holstein,Burg,Unknown,21/03/2012,02/04/2012,Confirmed,Schmallenberg,,"domestic, cattle",184,1,1,0,0,,,,
170014,OIE,50.8572,13.0087,Europe,Germany,Sachsen,Niederwiesa,Unknown,12/03/2012,02/04/2012,Confirmed,Schmallenberg,,"domestic, sheep",7,1,1,0,0,,,,
170013,OIE,51.2583,1.0122,Europe,U.K. of Great Britain and Northern Ireland,England,Kent 42,Unknown,21/03/2012,30/03/2012,Confirmed,Schmallenberg,,"domestic, sheep",30,1,1,0,0,,,,
170012,OIE,50.9754,-0.1971,Europe,U.K. of Great Britain and Northern Ireland,England,West Sussex 32,Unknown,21/03/2012,30/03/2012,Confirmed,Schmallenberg,,"domestic, sheep",200,1,1,0,0,,,,
170011,OIE,51.0156,0.0064,Europe,U.K. of Great Britain and Northern Ireland,England,East Sussex 40,Unknown,23/03/2012,30/03/2012,Confirmed,Schmallenberg,,"domestic, sheep",1,1,1,0,0,,,,
170010,OIE,50.9135,-0.3261,Europe,U.K. of Great Britain and Northern Ireland,England,West Sussex 33,Unknown,22/03/2012,30/03/2012,Confirmed,Schmallenberg,,"domestic, sheep",600,1,1,0,0,,,,
170009,OIE,50.8668,-3.0616,Europe,U.K. of Great Britain and Northern Ireland,England,Devon 07,Unknown,27/03/2012,30/03/2012,Confirmed,Schmallenberg,,"domestic, cattle",1,1,1,0,0,,,,
170008,OIE,52.3861,1.0359,Europe,U.K. of Great Britain and Northern Ireland,England,Suffolk 15,Unknown,23/03/2012,30/03/2012,Confirmed,Schmallenberg,,"domestic, cattle",50,1,1,0,0,,,,
170007,OIE,51.6215,-2.4902,Europe,U.K. of Great Britain and Northern Ireland,England,North Somerset & South Gloucestershire 03,Unknown,21/03/2012,30/03/2012,Confirmed,Schmallenberg,,"domestic, sheep",1,1,1,0,0,,,,
170006,OIE,51.0348,0.2291,Europe,U.K. of Great Britain and Northern Ireland,England,East Sussex 35,Unknown,21/03/2012,30/03/2012,Confirmed,Schmallenberg,,"domestic, sheep",2,2,2,0,0,,,,
170005,OIE,50.4192,-4.2271,Europe,U.K. of Great Britain and Northern Ireland,England,Cornwall 02,Unknown,20/03/2012,30/03/2012,Confirmed,Schmallenberg,,"domestic, cattle",65,1,1,0,0,,,,
170004,OIE,50.1507,-5.2039,Europe,U.K. of Great Britain and Northern Ireland,England,Cornwall 03,Unknown,22/03/2012,30/03/2012,Confirmed,Schmallenberg,,"domestic, sheep",60,1,1,0,0,,,,
170003,OIE,50.877,-3.4911,Europe,U.K. of Great Britain and Northern Ireland,England,Devon 05,Unknown,21/03/2012,30/03/2012,Confirmed,Schmallenberg,,"domestic, sheep",200,1,1,0,0,,,,
170002,OIE,50.8921,0.388,Europe,U.K. of Great Britain and Northern Ireland,England,East Sussex 34,Unknown,21/03/2012,30/03/2012,Confirmed,Schmallenberg,,"domestic, sheep",1,1,1,0,0,,,,
170001,OIE,51.7192,0.5345,Europe,U.K. of Great Britain and Northern Ireland,England,Essex 11,Unknown,22/03/2012,30/03/2012,Confirmed,Schmallenberg,,"domestic, sheep",400,6,6,0,0,,,,
170000,OIE,51.0276,-1.7116,Europe,U.K. of Great Britain and Northern Ireland,England,Wiltshire 10,Unknown,27/03/2012,30/03/2012,Confirmed,Schmallenberg,,"domestic, sheep",5,1,1,0,0,,,,
169999,OIE,50.7311,-3.414,Europe,U.K. of Great Britain and Northern Ireland,England,Devon 06,Unknown,23/03/2012,30/03/2012,Confirmed,Schmallenberg,,"domestic, sheep",800,1,1,0,0,,,,
169998,OIE,51.8383,0.5104,Europe,U.K. of Great Britain and Northern Ireland,England,Essex 12,Unknown,27/03/2012,30/03/2012,Confirmed,Schmallenberg,,"domestic, cattle",105,1,1,0,0,,,,
169997,OIE,52.3852,0.4554,Europe,U.K. of Great Britain and Northern Ireland,England,Suffolk 16,Unknown,27/03/2012,30/03/2012,Confirmed,Schmallenberg,,"domestic, cattle",30,1,1,0,0,,,,
169996,OIE,50.8204,0.2219,Europe,U.K. of Great Britain and Northern Ireland,England,East Sussex 39,Unknown,22/03/2012,30/03/2012,Confirmed,Schmallenberg,,"domestic, sheep",2,2,2,0,0,,,,
169995,OIE,50.7165,-3.1117,Europe,U.K. of Great Britain and Northern Ireland,England,Devon 04,Unknown,21/03/2012,30/03/2012,Confirmed,Schmallenberg,,"domestic, sheep",60,1,1,0,0,,,,
169994,OIE,51.0253,0.0602,Europe,U.K. of Great Britain and Northern Ireland,England,East Sussex 33,Unknown,21/03/2012,30/03/2012,Confirmed,Schmallenberg,,"domestic, sheep",1,1,1,0,0,,,,
169993,OIE,50.9195,0.0594,Europe,U.K. of Great Britain and Northern Ireland,England,East Sussex 37,Unknown,21/03/2012,30/03/2012,Confirmed,Schmallenberg,,"domestic, cattle",1,1,1,0,0,,,,
169992,OIE,50.9484,0.1534,Europe,U.K. of Great Britain and Northern Ireland,England,East Sussex 38,Unknown,21/03/2012,30/03/2012,Confirmed,Schmallenberg,,"domestic, cattle",12,1,1,0,0,,,,
169991,OIE,51.8383,0.5104,Europe,U.K. of Great Britain and Northern Ireland,England,Surrey 07,Unknown,21/03/2012,30/03/2012,Confirmed,Schmallenberg,,"domestic, cattle",1,1,1,0,0,,,,
169990,OIE,51.0653,0.8862,Europe,U.K. of Great Britain and Northern Ireland,England,Kent 43,Unknown,21/03/2012,30/03/2012,Confirmed,Schmallenberg,,"domestic, sheep",260,1,1,0,0,,,,
169989,OIE,50.9387,0.1223,Europe,U.K. of Great Britain and Northern Ireland,England,East Sussex 36,Unknown,21/03/2012,30/03/2012,Confirmed,Schmallenberg,,"domestic, sheep",1,1,1,0,0,,,,
169988,OIE,50.7742,5.87192,Europe,Netherlands,Limburg,Heijenrath,Unknown,26/03/2012,30/03/2012,Confirmed,Schmallenberg,,"domestic, cattle",1,1,1,0,0,,,,
169987,OIE,51.8388,5.85812,Europe,Netherlands,Gelderland,Nijmegen,Unknown,26/03/2012,30/03/2012,Confirmed,Schmallenberg,,"domestic, cattle",1,1,1,0,0,,,,
169986,OIE,53.09729,5.95206,Europe,Netherlands,Friesland,De Veenhoop,Unknown,23/03/2012,30/03/2012,Confirmed,Schmallenberg,,"domestic, cattle",1,1,1,0,0,,,,
169985,OIE,51.68794,5.783,Europe,Netherlands,Noord-brabant,Mill,Unknown,23/03/2012,30/03/2012,Confirmed,Schmallenberg,,"domestic, cattle",1,1,1,0,0,,,,
169984,OIE,52.20615,4.61525,Europe,Netherlands,Zuid-holland,Nieuwe Wetering,Unknown,26/03/2012,30/03/2012,Confirmed,Schmallenberg,,"domestic, cattle",1,1,1,0,0,,,,
169983,OIE,52.6743,6.83733,Europe,Netherlands,Drenthe,Stieltjeskanaal,Unknown,26/03/2012,30/03/2012,Confirmed,Schmallenberg,,"domestic, cattle",1,1,1,0,0,,,,
169982,OIE,52.47637,6.36615,Europe,Netherlands,Overijssel,Dalmsholte,Unknown,23/03/2012,30/03/2012,Confirmed,Schmallenberg,,"domestic, cattle",1,1,1,0,0,,,,
169981,OIE,51.96017,6.21202,Europe,Netherlands,Gelderland,Wehl,Unknown,26/03/2012,30/03/2012,Confirmed,Schmallenberg,,"domestic, sheep",2,2,2,0,0,,,,
169980,OIE,53.22407,6.35334,Europe,Netherlands,Groningen,Niekerk Grootegast,Unknown,23/03/2012,30/03/2012,Confirmed,Schmallenberg,,"domestic, cattle",1,1,1,0,0,,,,
169979,OIE,51.9345,4.78404,Europe,Netherlands,Zuid-holland,Bergambacht,Unknown,23/03/2012,30/03/2012,Confirmed,Schmallenberg,,"domestic, cattle",1,1,1,0,0,,,,
169978,OIE,51.67663,5.40359,Europe,Netherlands,Noord-brabant,Berlicum,Unknown,23/03/2012,30/03/2012,Confirmed,Schmallenberg,,"domestic, cattle",1,1,1,0,0,,,,
169977,OIE,52.28031,6.42526,Europe,Netherlands,Overijssel,Holten,Unknown,23/03/2012,30/03/2012,Confirmed,Schmallenberg,,"domestic, cattle",1,1,1,0,0,,,,
169976,OIE,52.62585,4.89416,Europe,Netherlands,Noord-holland,Ursem,Unknown,23/03/2012,30/03/2012,Confirmed,Schmallenberg,,"domestic, cattle",1,1,1,0,0,,,,
169975,OIE,52.49405,4.86921,Europe,Netherlands,Noord-holland,Wijdewormer,Unknown,23/03/2012,30/03/2012,Confirmed,Schmallenberg,,"domestic, sheep",2,2,2,0,0,,,,
169974,OIE,53.12421,5.99773,Europe,Netherlands,Friesland,Oudega Gem. Smallingerland,Unknown,23/03/2012,30/03/2012,Confirmed,Schmallenberg,,"domestic, cattle",1,1,1,0,0,,,,
169973,OIE,52.08551,6.4477,Europe,Netherlands,Gelderland,Ruurlo,Unknown,23/03/2012,30/03/2012,Confirmed,Schmallenberg,,"domestic, cattle",1,1,1,0,0,,,,
169972,OIE,53.32366,6.78262,Europe,Netherlands,Groningen,Wirdum,Unknown,26/03/2012,30/03/2012,Confirmed,Schmallenberg,,"domestic, cattle",1,1,1,0,0,,,,
169971,OIE,52.35908,6.37682,Europe,Netherlands,Overijssel,Haarle Gem. Hellendoorn,Unknown,23/03/2012,30/03/2012,Confirmed,Schmallenberg,,"domestic, cattle",1,1,1,0,0,,,,
169970,OIE,52.72904,6.80819,Europe,Netherlands,Drenthe,Holsloot,Unknown,23/03/2012,30/03/2012,Confirmed,Schmallenberg,,"domestic, cattle",1,1,1,0,0,,,,
169969,OIE,50.87744,5.88539,Europe,Netherlands,Limburg,Klimmen,Unknown,26/03/2012,30/03/2012,Confirmed,Schmallenberg,,"domestic, cattle",1,1,1,0,0,,,,
169968,OIE,52.27625,6.272777,Europe,Netherlands,Overijssel,Lettele,Unknown,26/03/2012,30/03/2012,Confirmed,Schmallenberg,,"domestic, cattle",1,1,1,0,0,,,,
169967,OIE,52.94744,6.00385,Europe,Netherlands,Friesland,Katlijk,Unknown,23/03/2012,30/03/2012,Confirmed,Schmallenberg,,"domestic, cattle",1,1,1,0,0,,,,
169966,OIE,53.32553,5.94119,Europe,Netherlands,Friesland,Raard,Unknown,23/03/2012,30/03/2012,Confirmed,Schmallenberg,,"domestic, cattle",1,1,1,0,0,,,,
169965,OIE,51.65308,5.55263,Europe,Netherlands,Noord-brabant,Vorstenbosch,Unknown,23/03/2012,30/03/2012,Confirmed,Schmallenberg,,"domestic, cattle",1,1,1,0,0,,,,
169964,OIE,52.22828,5.1726,Europe,Netherlands,Noord-holland,Hilversum,Unknown,26/03/2012,30/03/2012,Confirmed,Schmallenberg,,"domestic, cattle",1,1,1,0,0,,,,
169963,OIE,52.06762,6.56598,Europe,Netherlands,Gelderland,Beltrum,Unknown,23/03/2012,30/03/2012,Confirmed,Schmallenberg,,"domestic, cattle",1,1,1,0,0,,,,
169962,National authorities,-3.836696,119.888867,Asia,Indonesia,Sulawesi Selatan,CIPOTAKARI,Unknown,11/01/2012,13/01/2012,Confirmed,Influenza - Avian,H5N1 HPAI,"domestic, chicken",,154096,,,0,,,,
169961,National authorities,-3.961612,119.769524,Asia,Indonesia,Sulawesi Selatan,TAKKALASI,Unknown,27/01/2012,28/01/2012,Confirmed,Influenza - Avian,H5N1 HPAI,"domestic, unspecified bird",,16373,,,0,,,,
169960,National authorities,-5.372615,119.473758,Asia,Indonesia,Sulawesi Selatan,PANRENG,Unknown,28/01/2012,30/01/2012,Confirmed,Influenza - Avian,H5N1 HPAI,"domestic, chicken",,202727,,,0,,,,
169959,National authorities,0.357392,117.423115,Asia,Indonesia,Kalimantan Timur,GUNTUNG,Unknown,18/01/2012,19/01/2012,Confirmed,Influenza - Avian,H5N1 HPAI,"domestic, chicken",,7205,,,2,,,,
169958,National authorities,-1.275891,116.514063,Asia,Indonesia,Kalimantan Timur,WARU,Unknown,02/01/2012,02/01/2012,Confirmed,Influenza - Avian,H5N1 HPAI,"domestic, chicken",,6680,,,30,,,,
169957,National authorities,-1.295027,116.442675,Asia,Indonesia,Kalimantan Timur,API API,Unknown,12/01/2012,12/01/2012,Confirmed,Influenza - Avian,H5N1 HPAI,"domestic, chicken",,4225,,,702,,,,
169956,National authorities,-3.987443,119.743853,Asia,Indonesia,Sulawesi Selatan,BUAE,Unknown,17/02/2012,18/02/2012,Confirmed,Influenza - Avian,H5N1 HPAI,"domestic, unspecified bird",19353,,,,0,,,,
169955,National authorities,-3.933724,119.747811,Asia,Indonesia,Sulawesi Selatan,ARAWA,Unknown,13/02/2012,14/02/2012,Confirmed,Influenza - Avian,H5N1 HPAI,"domestic, unspecified bird",86942,,,,0,,,,
169954,National authorities,-3.917422,119.936166,Asia,Indonesia,Sulawesi Selatan,PONRANGAE,Unknown,02/02/2012,02/02/2012,Confirmed,Influenza - Avian,H5N1 HPAI,"domestic, chicken",9753,,,,0,,,,
169953,National authorities,-3.843129,119.872016,Asia,Indonesia,Sulawesi Selatan,BULO,Unknown,03/02/2012,06/02/2012,Confirmed,Influenza - Avian,H5N1 HPAI,"domestic, chicken",287048,,,,0,,,,
169952,National authorities,-3.786698,119.687015,Asia,Indonesia,Sulawesi Selatan,FAKKIE,Unknown,13/02/2012,13/02/2012,Confirmed,Influenza - Avian,H5N1 HPAI,"domestic, chicken",28832,,,,0,,,,
169951,National authorities,-3.826058,119.620989,Asia,Indonesia,Sulawesi Selatan,PADAKKALAWA,Unknown,23/02/2012,23/02/2012,Confirmed,Influenza - Avian,H5N1 HPAI,"domestic, chicken",20777,,,,0,,,,
169950,National authorities,-7.910007,111.389594,Asia,Indonesia,Jawa Timur,TEGALOMBO,Unknown,06/02/2012,07/02/2012,Confirmed,Influenza - Avian,H5N1 HPAI,"domestic, chicken",10378,,,,0,,,,
169949,National authorities,-7.176441,111.883237,Asia,Indonesia,Jawa Timur,PACUL,Unknown,21/02/2012,22/02/2012,Confirmed,Influenza - Avian,H5N1 HPAI,"domestic, chicken",1079,,,,0,,,,
169948,National authorities,-7.159941,112.057008,Asia,Indonesia,Jawa Timur,BANJARANYAR,Unknown,18/02/2012,18/02/2012,Confirmed,Influenza - Avian,H5N1 HPAI,"domestic, chicken",6472,,,,215,,,,
169947,National authorities,-7.283656,110.490082,Asia,Indonesia,Jawa Tengah,WATUAGUNG,Unknown,09/02/2012,10/02/2012,Confirmed,Influenza - Avian,H5N1 HPAI,"domestic, chicken",7300,,,,0,,,,
169946,National authorities,-7.089625,111.075444,Asia,Indonesia,Jawa Tengah,KUNDEN,Unknown,06/02/2012,11/02/2012,Confirmed,Influenza - Avian,H5N1 HPAI,"domestic, chicken",5700,,,,0,,,,
169945,National authorities,-7.164832,110.632321,Asia,Indonesia,Jawa Tengah,KEDUNGJATI,Unknown,08/02/2012,09/02/2012,Confirmed,Influenza - Avian,H5N1 HPAI,"domestic, chicken",6500,,,,0,,,,
169944,National authorities,-7.013748,110.567609,Asia,Indonesia,Jawa Tengah,BUMIREJO,Unknown,08/02/2012,09/02/2012,Confirmed,Influenza - Avian,H5N1 HPAI,"domestic, chicken",2930,,,,0,,,,
169943,National authorities,2.834535,117.35162,Asia,Indonesia,Kalimantan Timur,TANJUNG SELOR TIMUR,Unknown,26/01/2012,01/02/2012,Confirmed,Influenza - Avian,H5N1 HPAI,"domestic, chicken",0,,,,0,,,,
169942,National authorities,-7.60107,109.333583,Asia,Indonesia,Jawa Tengah,LEBENG,Unknown,15/02/2012,16/02/2012,Confirmed,Influenza - Avian,H5N1 HPAI,"domestic, chicken",5737,,,,0,,,,
169941,National authorities,-7.267316,109.655652,Asia,Indonesia,Jawa Tengah,ASINAN,Unknown,28/02/2012,29/02/2012,Confirmed,Influenza - Avian,H5N1 HPAI,"domestic, chicken",4500,,,,0,,,,
169940,National authorities,0.468748,101.352432,Asia,Indonesia,Riau,TUAH KARYA,Unknown,22/02/2012,23/02/2012,Confirmed,Influenza - Avian,H5N1 HPAI,"domestic, chicken",9535,,,,5,,,,
169939,National authorities,-2.035663,105.183215,Asia,Indonesia,Bangka Belitung,SUNGAI DAENG,Unknown,06/02/2012,07/02/2012,Confirmed,Influenza - Avian,H5N1 HPAI,"domestic, chicken",16000,,,,0,,,,
169938,National authorities,-3.00004,119.000023,Asia,Indonesia,Sulawesi Barat,TUMPILING,Unknown,24/02/2012,27/02/2012,Confirmed,Influenza - Avian,H5N1 HPAI,"domestic, unspecified bird",3120,,,,0,,,,
169937,National authorities,-3.3492,119.2585,Asia,Indonesia,Sulawesi Barat,TONRO LIMA,Unknown,06/02/2012,13/02/2012,Confirmed,Influenza - Avian,H5N1 HPAI,"domestic, unspecified bird",1955,,,,0,,,,
169936,National authorities,-3.486944,119.074692,Asia,Indonesia,Sulawesi Barat,LALIKO,Unknown,24/02/2012,27/02/2012,Confirmed,Influenza - Avian,H5N1 HPAI,"domestic, unspecified bird",4127,,,,0,,,,
169935,National authorities,-3.416838,119.378355,Asia,Indonesia,Sulawesi Barat,MAMMI,Unknown,14/02/2012,16/02/2012,Confirmed,Influenza - Avian,H5N1 HPAI,"domestic, chicken",0,,,,0,,,,
169934,National authorities,-2.689097,118.861533,Asia,Indonesia,Sulawesi Barat,SIMBORO,Unknown,22/02/2012,23/02/2012,Confirmed,Influenza - Avian,H5N1 HPAI,"domestic, chicken",5859,,,,0,,,,
169933,National authorities,-7.768702,114.224178,Asia,Indonesia,Jawa Timur,TRIGONCO,Unknown,23/02/2012,23/02/2012,Confirmed,Influenza - Avian,H5N1 HPAI,"domestic, chicken",2830,,,,0,,,,
169932,National authorities,-7.772602,113.160914,Asia,Indonesia,Jawa Timur,MENTOR,Unknown,06/02/2012,08/02/2012,Confirmed,Influenza - Avian,H5N1 HPAI,"domestic, chicken",9810,,,,0,,,,
169931,National authorities,-7.665359,112.9056,Asia,Indonesia,Jawa Timur,PETAMANAN,Unknown,16/02/2012,16/02/2012,Confirmed,Influenza - Avian,H5N1 HPAI,"domestic, chicken",783,,,,71,,,,
169930,National authorities,-6.395724,106.770314,Asia,Indonesia,Jawa Barat,SAWANGAN BARU,Unknown,01/02/2012,03/02/2012,Confirmed,Influenza - Avian,H5N1 HPAI,"domestic, chicken",400,,,,0,,,,
169929,National authorities,-6.752595,108.269044,Asia,Indonesia,Jawa Barat,ANDIR,Unknown,14/02/2012,17/02/2012,Confirmed,Influenza - Avian,H5N1 HPAI,"domestic, chicken",4086,,,,0,,,,
169928,National authorities,-6.98022,108.619649,Asia,Indonesia,Jawa Barat,CIHIDEUNGGIRANG,Unknown,09/02/2012,10/02/2012,Confirmed,Influenza - Avian,H5N1 HPAI,"domestic, chicken",3392,,,,0,,,,
169927,National authorities,-6.614182,108.519846,Asia,Indonesia,Jawa Barat,MUARA,Unknown,03/02/2012,04/02/2012,Confirmed,Influenza - Avian,H5N1 HPAI,"domestic, chicken",8360,,,,0,,,,
169924,OIE,22.727691,120.534825,Asia,Taiwan (Province of China),Taiwan Sheng,Yen-Pu Township,Unknown,15/03/2012,02/04/2012,Confirmed,Influenza - Avian,H5N2 HPAI,"domestic, chicken",7747,99,99,7648,0,,,,
169923,National authorities,23.647617,90.561417,Asia,Bangladesh,Dhaka,Nandini poultry farm,Unknown,28/03/2012,29/03/2012,Confirmed,Influenza - Avian,H5N1 HPAI,"domestic, chicken",4849,290,290,4559,,,,,
169922,National authorities,23.992417,89.213417,Asia,Bangladesh,Rajshahi,Jahangir alam poultry farm,Unknown,28/03/2012,29/03/2012,Confirmed,Influenza - Avian,H5N1 HPAI,"domestic, chicken",1200,37,37,1163,,,,,
169921,National authorities,31.324,31.651,Africa,Egypt,Damietta,Kafr saad city,Centroid Locality,27/03/2012,28/03/2012,Confirmed,Influenza - Avian,H5N1 HPAI,"domestic, chicken, domestic, duck",,3,,3,,,,,
169920,National authorities,30.492,31.382,Africa,Egypt,Shrkia,Shalshlamoun,Centroid Locality,26/03/2012,27/03/2012,Confirmed,Influenza - Avian,H5N1 HPAI,"domestic, chicken, domestic, duck",,25,,25,,,,,
169919,National authorities,30.598,31.671,Africa,Egypt,Shrkia,Bani Ayoub,Centroid Locality,26/03/2012,27/03/2012,Confirmed,Influenza - Avian,H5N1 HPAI,"domestic, chicken, domestic, duck",,81,,81,,,,,
169918,National authorities,30.618,31.67,Africa,Egypt,Shrkia,El shiekh gebiel,Centroid Locality,26/03/2012,27/03/2012,Confirmed,Influenza - Avian,H5N1 HPAI,"domestic, chicken, domestic, pigeon, domestic, duck",50,48,66,88,,,,,
169917,National authorities,31.104,30.21,Africa,Egypt,Behera,Elmalaga,Centroid Locality,26/03/2012,27/03/2012,Confirmed,Influenza - Avian,H5N1 HPAI,"domestic, chicken, domestic, duck",,22,1,22,,,,,
169916,National authorities,29.021996,29.451783,Africa,Egypt,Giza,Al Jizah (giza),Centroid Admin1,25/03/2012,02/04/2012,Confirmed,Influenza - Avian,H5N1 HPAI,,,,,,,,,1,1
169915,OIE,25.0599243,121.50181,Asia,Taiwan (Province of China),Taiwan Sheng,San-Chong District,Unknown,06/03/2012,03/04/2012,Confirmed,Influenza - Avian,H5N2 LPAI,"domestic, chicken",5,1,0,0,5,,,,
169914,OIE,24.35,102.54,Asia,China,Yunnan Sheng,HongTa District,Unknown,27/03/2012,31/03/2012,Confirmed,Influenza - Avian,H5N1 HPAI,"domestic, unspecified bird",35018,2,0,35018,0,,,,
169913,OIE,51.648484,-8.87768,Europe,Ireland,Cork,Clonakilty,Unknown,17/03/2012,30/03/2012,Confirmed,Influenza - Avian,H5N2 LPAI,"captive, pheasant",153,8,3,150,0,,,,
169912,National authorities,11.970774,104.745638,Asia,Cambodia,Kampong Chhnang,Kbal Koh Village,Centroid Admin2,30/03/2012,02/04/2012,Confirmed,Influenza - Avian,H5N1 HPAI,,,,,,,,,1,1
169910,OIE,25.0469,27.6521,Africa,Egypt,New Valley,Sanaa,Unknown,18/03/2012,27/03/2012,Confirmed,Foot and mouth disease,SAT2,"domestic, cattle",1,1,1,0,0,,,,
169909,OIE,25.8191,27.0247,Africa,Egypt,New Valley,Al Hendao,Unknown,16/03/2012,27/03/2012,Confirmed,Foot and mouth disease,SAT2,"domestic, cattle",1,1,1,0,0,,,,
169908,OIE,31.25,31.69,Africa,Egypt,Damietta,Ezbet sanadek,Unknown,20/03/2012,27/03/2012,Confirmed,Foot and mouth disease,SAT2,"domestic, buffaloes",8,8,1,0,0,,,,
169907,OIE,31.25,31.69,Africa,Egypt,Damietta,Alzarka,Unknown,20/03/2012,27/03/2012,Confirmed,Foot and mouth disease,SAT2,"domestic, buffaloes",7,5,1,0,0,,,,
169906,OIE,30.64,31.56,Africa,Egypt,Shrkia,Al Ibrahimia,Unknown,15/03/2012,27/03/2012,Confirmed,Foot and mouth disease,SAT2,"domestic, cattle, domestic, buffaloes",93,6,1,0,0,,,,
169905,OIE,51.6154,6.4119,Europe,Germany,Nordrhein-Westfalen,Sonsbeck,Unknown,20/03/2012,26/03/2012,Confirmed,Schmallenberg,,"domestic, cattle",90,2,2,0,0,,,,
169904,OIE,51.979,7.5393,Europe,Germany,Nordrhein-Westfalen,Münster,Unknown,19/03/2012,26/03/2012,Confirmed,Schmallenberg,,"domestic, cattle",195,1,1,0,0,,,,
169903,OIE,49.3091,6.9372,Europe,Germany,Saarland,Saarbrücken,Unknown,05/03/2012,26/03/2012,Confirmed,Schmallenberg,,"domestic, goats",37,1,0,0,0,,,,
169902,OIE,50.0869,9.6618,Europe,Germany,Bayern,Gemünden,Unknown,20/03/2012,26/03/2012,Confirmed,Schmallenberg,,"domestic, sheep",1,1,1,0,0,,,,
169901,OIE,53.7142,9.6941,Europe,Germany,Schleswig-Holstein,Klein Nordende,Unknown,09/03/2012,26/03/2012,Confirmed,Schmallenberg,,"domestic, sheep",160,1,1,0,0,,,,
169900,OIE,53.3519,10.7123,Europe,Germany,Niedersachsen,Bleckede,Unknown,29/02/2012,26/03/2012,Confirmed,Schmallenberg,,"domestic, sheep",2,2,2,0,0,,,,
169899,OIE,52.5588,7.1796,Europe,Germany,Niedersachsen,Geeste,Unknown,08/03/2012,26/03/2012,Confirmed,Schmallenberg,,"domestic, cattle",90,1,1,0,0,,,,
169898,OIE,52.04,7.3495,Europe,Germany,Nordrhein-Westfalen,Laer,Unknown,08/03/2012,26/03/2012,Confirmed,Schmallenberg,,"domestic, cattle",18,2,2,0,0,,,,
169896,OIE,51.7951,7.9508,Europe,Germany,Nordrhein-Westfalen,Ahlen,Unknown,29/02/2012,26/03/2012,Confirmed,Schmallenberg,,"domestic, cattle",53,1,0,0,0,,,,
169895,OIE,51.898,7.777,Europe,Germany,Nordrhein-Westfalen,Everswinkel,Unknown,07/03/2012,26/03/2012,Confirmed,Schmallenberg,,"domestic, cattle",157,1,0,0,0,,,,
169894,OIE,51.8005,6.3405,Europe,Germany,Nordrhein-Westfalen,Rees,Unknown,17/03/2012,26/03/2012,Confirmed,Schmallenberg,,"domestic, cattle",343,1,0,0,0,,,,
169893,OIE,50.5788,9.9968,Europe,Germany,Hessen,Hilders,Unknown,28/02/2012,26/03/2012,Confirmed,Schmallenberg,,"domestic, cattle",77,1,1,0,0,,,,
169892,OIE,50.856,8.8209,Europe,Germany,Hessen,Cölbe,Unknown,25/01/2012,26/03/2012,Confirmed,Schmallenberg,,"domestic, sheep",33,2,2,0,0,,,,
169891,OIE,51.4759,10.4911,Europe,Germany,Thueringen,Am Ohmberg,Unknown,21/03/2012,26/03/2012,Confirmed,Schmallenberg,,"domestic, cattle",1100,1,1,0,0,,,,
169890,OIE,53.5964,7.8702,Europe,Germany,Niedersachsen,Wangerland,Unknown,13/03/2012,26/03/2012,Confirmed,Schmallenberg,,"domestic, cattle",32,1,1,0,0,,,,
169889,OIE,53.3137,8.9733,Europe,Germany,Niedersachsen,Worpswede,Unknown,01/03/2012,26/03/2012,Confirmed,Schmallenberg,,"domestic, cattle",206,1,1,0,0,,,,
169888,OIE,50.3516,7.0647,Europe,Germany,Rheinland-Pfalz,Baar,Unknown,06/02/2012,26/03/2012,Confirmed,Schmallenberg,,"domestic, cattle",210,2,0,0,0,,,,
169887,OIE,50.9089,13.0255,Europe,Germany,Sachsen,Frankenberg,Unknown,01/03/2012,26/03/2012,Confirmed,Schmallenberg,,"domestic, sheep",2,1,0,0,0,,,,
169886,OIE,51.7905,6.2248,Europe,Germany,Nordrhein-Westfalen,Bedburg-Hau,Unknown,19/03/2012,26/03/2012,Confirmed,Schmallenberg,,"domestic, cattle",137,1,0,0,0,,,,
169885,OIE,52.4393,9.3452,Europe,Germany,Niedersachsen,Hagenburg,Unknown,23/02/2012,26/03/2012,Confirmed,Schmallenberg,,"domestic, cattle",7,1,0,0,0,,,,
169884,OIE,49.4732,6.7206,Europe,Germany,Saarland,Losheim am See,Unknown,21/02/2012,26/03/2012,Confirmed,Schmallenberg,,"domestic, sheep",120,1,1,0,0,,,,
169883,OIE,52.2609,7.2828,Europe,Germany,Niedersachsen,Wettringen,Unknown,02/02/2012,26/03/2012,Confirmed,Schmallenberg,,"domestic, cattle",48,1,0,0,0,,,,
169882,OIE,50.4964,7.4941,Europe,Germany,Rheinland-Pfalz,Rengsdorf,Unknown,20/02/2012,26/03/2012,Confirmed,Schmallenberg,,"domestic, cattle",159,2,2,0,0,,,,
169881,OIE,53.1734,8.9939,Europe,Germany,Niedersachsen,Grasberg,Unknown,01/03/2012,26/03/2012,Confirmed,Schmallenberg,,"domestic, sheep",88,1,1,0,0,,,,
169880,OIE,53.1251,7.6011,Europe,Germany,Niedersachsen,Ostrhauderfehn,Unknown,29/02/2012,26/03/2012,Confirmed,Schmallenberg,,"domestic, cattle",1,1,1,0,0,,,,
169879,OIE,51.8251,6.1,Europe,Germany,Nordrhein-Westfalen,Kleve,Unknown,14/03/2012,26/03/2012,Confirmed,Schmallenberg,,"domestic, cattle",250,1,1,0,0,,,,
169878,OIE,51.7759,6.5376,Europe,Germany,Nordrhein-Westfalen,Hamminkeln,Unknown,10/03/2012,26/03/2012,Confirmed,Schmallenberg,,"domestic, cattle",279,1,1,0,0,,,,
169877,OIE,50.2637,7.5947,Europe,Germany,Rheinland-Pfalz,Spay,Unknown,25/02/2012,26/03/2012,Confirmed,Schmallenberg,,"domestic, sheep",16,3,3,0,0,,,,
169876,OIE,50.7937,7.1128,Europe,Germany,Nordrhein-Westfalen,Troisdorf,Unknown,13/03/2012,26/03/2012,Confirmed,Schmallenberg,,"domestic, goats",1,1,1,0,0,,,,
169875,OIE,53.2853,9.5377,Europe,Germany,Niedersachsen,Tiste,Unknown,13/03/2012,26/03/2012,Confirmed,Schmallenberg,,"domestic, cattle",100,1,0,0,0,,,,
169874,OIE,53.3567,14.0692,Europe,Germany,Brandenburg,Carmzow,Unknown,20/03/2012,26/03/2012,Confirmed,Schmallenberg,,"domestic, sheep",37,4,4,0,0,,,,
169873,OIE,51.631,6.4992,Europe,Germany,Nordrhein-Westfalen,Xanten,Unknown,14/03/2012,26/03/2012,Confirmed,Schmallenberg,,"domestic, cattle",22,1,1,0,0,,,,
169872,OIE,49.5934,8.9872,Europe,Germany,Hessen,Beerfelden,Unknown,20/03/2012,26/03/2012,Confirmed,Schmallenberg,,"domestic, sheep",14,2,2,0,0,,,,
169871,OIE,52.2278,9.1882,Europe,Germany,Niedersachsen,auetal,Unknown,10/02/2012,26/03/2012,Confirmed,Schmallenberg,,"domestic, cattle",9,1,0,0,0,,,,
169870,OIE,52.1219,6.9024,Europe,Germany,Nordrhein-Westfalen,Ahaus,Unknown,07/03/2012,26/03/2012,Confirmed,Schmallenberg,,"domestic, cattle",6,1,0,1,0,,,,
169869,OIE,51.9827,7.9523,Europe,Germany,Nordrhein-Westfalen,Warendorf,Unknown,27/02/2012,26/03/2012,Confirmed,Schmallenberg,,"domestic, sheep",5,1,0,0,0,,,,
169868,OIE,49.7584,8.9987,Europe,Germany,Hessen,Bad König,Unknown,22/03/2012,26/03/2012,Confirmed,Schmallenberg,,"domestic, cattle",5,1,0,1,0,,,,
169867,OIE,50.2749,8.5229,Europe,Germany,Hessen,Neu-Anspach,Unknown,19/03/2012,26/03/2012,Confirmed,Schmallenberg,,"domestic, goats",1,1,1,0,0,,,,
169866,OIE,49.2128,7.0825,Europe,Germany,Saarland,Saarbrücken,Unknown,06/02/2012,26/03/2012,Confirmed,Schmallenberg,,"domestic, sheep",13,1,0,0,0,,,,
169865,OIE,51.3194,8.0823,Europe,Germany,Nordrhein-Westfalen,Sundern,Unknown,20/03/2012,26/03/2012,Confirmed,Schmallenberg,,"domestic, cattle",23,1,0,0,0,,,,
169864,OIE,52.8944,8.1826,Europe,Germany,Niedersachsen,Großenkneten,Unknown,19/03/2012,26/03/2012,Confirmed,Schmallenberg,,"domestic, cattle",14,1,1,0,0,,,,
169863,OIE,53.0897,7.5083,Europe,Germany,Niedersachsen,Rhauderfehn,Unknown,16/02/2012,26/03/2012,Confirmed,Schmallenberg,,"domestic, cattle",153,1,0,0,0,,,,
169862,OIE,51.8189,6.0527,Europe,Germany,Nordrhein-Westfalen,Kranenburg,Unknown,13/03/2012,26/03/2012,Confirmed,Schmallenberg,,"domestic, cattle",227,1,1,0,0,,,,
169861,OIE,49.5074,9.1513,Europe,Germany,Baden-Wuerttemberg,Mudau,Unknown,07/03/2012,26/03/2012,Confirmed,Schmallenberg,,"domestic, cattle",9,1,1,0,0,,,,
169860,OIE,51.3173,9.3798,Europe,Germany,Hessen,Kassel,Unknown,02/02/2012,26/03/2012,Confirmed,Schmallenberg,,"domestic, sheep",49,6,6,0,0,,,,
169859,OIE,52.0662,7.119,Europe,Germany,Nordrhein-Westfalen,Legden,Unknown,23/03/2012,26/03/2012,Confirmed,Schmallenberg,,"domestic, sheep",15,1,1,0,0,,,,
169858,OIE,49.9276,8.5697,Europe,Germany,Hessen,Büttelborn,Unknown,25/01/2012,26/03/2012,Confirmed,Schmallenberg,,"domestic, sheep",78,1,1,0,0,,,,
169857,OIE,51.8654,11.7817,Europe,Germany,Sachsen-Anhalt,Nienburg,Unknown,01/03/2012,26/03/2012,Confirmed,Schmallenberg,,"domestic, cattle",758,1,1,0,0,,,,
169856,OIE,51.6828,8.5498,Europe,Germany,Nordrhein-Westfalen,Salzkotten,Unknown,27/02/2012,26/03/2012,Confirmed,Schmallenberg,,"domestic, cattle",147,1,0,0,0,,,,
169855,OIE,52.9489,8.1853,Europe,Germany,Niedersachsen,Großenkneten,Unknown,01/03/2012,26/03/2012,Confirmed,Schmallenberg,,"domestic, cattle",27,1,1,0,0,,,,
169854,OIE,51.9267,8.2295,Europe,Germany,Nordrhein-Westfalen,Herzebrock,Unknown,12/03/2012,26/03/2012,Confirmed,Schmallenberg,,"domestic, cattle",1,1,1,0,0,,,,
169853,OIE,51.7793,6.4182,Europe,Germany,Nordrhein-Westfalen,Rees,Unknown,13/03/2012,26/03/2012,Confirmed,Schmallenberg,,"domestic, cattle",726,1,0,0,0,,,,
169852,OIE,51.0304,7.7782,Europe,Germany,Nordrhein-Westfalen,Drolshagen,Unknown,08/03/2012,26/03/2012,Confirmed,Schmallenberg,,"domestic, cattle",46,1,1,0,0,,,,
169851,OIE,54.4041,9.7688,Europe,Germany,Schleswig-Holstein,Groß Wittensee,Unknown,16/03/2012,26/03/2012,Confirmed,Schmallenberg,,"domestic, cattle",221,1,0,0,0,,,,
169850,OIE,50.856,8.8208,Europe,Germany,Hessen,Cölbe,Unknown,07/02/2012,26/03/2012,Confirmed,Schmallenberg,,"domestic, sheep",33,2,2,0,0,,,,
169849,OIE,49.2343,8.5038,Europe,Germany,Baden-Wuerttemberg,Waghäusel,Unknown,22/02/2012,26/03/2012,Confirmed,Schmallenberg,,"domestic, sheep",144,1,1,0,0,,,,
169848,OIE,52.154,7.0401,Europe,Germany,Nordrhein-Westfalen,Gronau,Unknown,12/03/2012,26/03/2012,Confirmed,Schmallenberg,,"domestic, cattle",1,1,1,0,0,,,,
169847,OIE,50.7736,7.4459,Europe,Germany,Nordrhein-Westfalen,Eitorf,Unknown,09/03/2012,26/03/2012,Confirmed,Schmallenberg,,"domestic, sheep",3,3,3,0,0,,,,
169846,OIE,51.7809,6.2031,Europe,Germany,Nordrhein-Westfalen,Bedburg-Hau,Unknown,13/03/2012,26/03/2012,Confirmed,Schmallenberg,,"domestic, cattle",216,1,0,0,0,,,,
169845,OIE,53.3777,8.6226,Europe,Germany,Niedersachsen,Driftsethe,Unknown,05/03/2012,26/03/2012,Confirmed,Schmallenberg,,"domestic, cattle",37,1,0,0,0,,,,
169844,OIE,50.9728,8.2548,Europe,Germany,Nordrhein-Westfalen,Erndtebrück,Unknown,21/03/2012,26/03/2012,Confirmed,Schmallenberg,,"domestic, sheep",25,5,4,0,0,,,,
169843,OIE,50.3652,8.4725,Europe,Germany,Hessen,Grävenwiesbach,Unknown,20/03/2012,26/03/2012,Confirmed,Schmallenberg,,"domestic, cattle",1,1,1,0,0,,,,
169842,OIE,53.5531,8.6962,Europe,Germany,Niedersachsen,Schiffdorf,Unknown,12/03/2012,26/03/2012,Confirmed,Schmallenberg,,"domestic, sheep",29,1,0,0,0,,,,
169841,OIE,50.6986,8.6005,Europe,Germany,Hessen,Lohra,Unknown,21/02/2012,26/03/2012,Confirmed,Schmallenberg,,"domestic, sheep",60,2,2,0,0,,,,
169840,OIE,50.7873,9.0042,Europe,Germany,Hessen,Stadtallendorf,Unknown,07/02/2012,26/03/2012,Confirmed,Schmallenberg,,"domestic, sheep",800,1,1,0,0,,,,
169839,OIE,52.7902,9.475,Europe,Germany,Niedersachsen,Böhme,Unknown,27/02/2012,26/03/2012,Confirmed,Schmallenberg,,"domestic, sheep",216,1,1,0,0,,,,
169838,OIE,50.6805,7.3269,Europe,Germany,Nordrhein-Westfalen,Königswinter,Unknown,09/03/2012,26/03/2012,Confirmed,Schmallenberg,,"domestic, sheep",6,2,2,0,0,,,,
169837,OIE,50.6675,8.6006,Europe,Germany,Hessen,Biebertal,Unknown,27/02/2012,26/03/2012,Confirmed,Schmallenberg,,"domestic, sheep",11,2,2,0,0,,,,
169836,OIE,51.5465,6.3523,Europe,Germany,Nordrhein-Westfalen,Geldern,Unknown,13/03/2012,26/03/2012,Confirmed,Schmallenberg,,"domestic, cattle",227,1,0,0,0,,,,
169835,OIE,52.0161,-0.4971,Europe,U.K. of Great Britain and Northern Ireland,England,Bedfordshire,Unknown,15/03/2012,23/03/2012,Confirmed,Schmallenberg,,"domestic, sheep",30,1,1,0,0,,,,
169834,OIE,51.1807,0.3383,Europe,U.K. of Great Britain and Northern Ireland,England,Kent 40,Unknown,14/03/2012,23/03/2012,Confirmed,Schmallenberg,,"domestic, sheep",1,1,1,0,0,,,,
169833,OIE,50.9884,-0.6843,Europe,U.K. of Great Britain and Northern Ireland,England,Surrey 06,Unknown,07/03/2012,23/03/2012,Confirmed,Schmallenberg,,"domestic, sheep",1,1,1,0,0,,,,
169832,OIE,50.8498,-1.7713,Europe,U.K. of Great Britain and Northern Ireland,England,Hampshire 09,Unknown,20/03/2012,23/03/2012,Confirmed,Schmallenberg,,"domestic, sheep",30,1,1,0,0,,,,
169831,OIE,51.0617,0.5074,Europe,U.K. of Great Britain and Northern Ireland,England,Kent 38,Unknown,13/03/2012,23/03/2012,Confirmed,Schmallenberg,,"domestic, cattle",1,1,1,0,0,,,,
169830,OIE,51.0936,1.0573,Europe,U.K. of Great Britain and Northern Ireland,England,Kent 41,Unknown,16/03/2012,23/03/2012,Confirmed,Schmallenberg,,"domestic, sheep",680,11,11,0,0,,,,
169829,OIE,50.9454,-2.264,Europe,U.K. of Great Britain and Northern Ireland,England,Dorset 03,Unknown,16/03/2012,23/03/2012,Confirmed,Schmallenberg,,"domestic, sheep",1,1,1,0,0,,,,
169828,OIE,50.8556,-0.5762,Europe,U.K. of Great Britain and Northern Ireland,England,West Sussex 29,Unknown,13/03/2012,23/03/2012,Confirmed,Schmallenberg,,"domestic, sheep",100,1,1,0,0,,,,
169827,OIE,51.0959,1.1008,Europe,U.K. of Great Britain and Northern Ireland,England,Kent 36,Unknown,12/03/2012,23/03/2012,Confirmed,Schmallenberg,,"domestic, sheep",1,1,1,0,0,,,,
169826,OIE,51.0712,0.6916,Europe,U.K. of Great Britain and Northern Ireland,England,Kent 34,Unknown,12/03/2012,23/03/2012,Confirmed,Schmallenberg,,"domestic, sheep",200,1,1,0,0,,,,
169825,OIE,51.444,-2.108,Europe,U.K. of Great Britain and Northern Ireland,England,Wiltshire 09,Unknown,15/03/2012,23/03/2012,Confirmed,Schmallenberg,,"domestic, sheep",700,20,20,0,0,,,,
169824,OIE,50.7474,-1.6393,Europe,U.K. of Great Britain and Northern Ireland,England,Hampshire 11,Unknown,16/03/2012,23/03/2012,Confirmed,Schmallenberg,,"domestic, sheep",1,1,1,0,0,,,,
169823,OIE,50.9529,-0.6304,Europe,U.K. of Great Britain and Northern Ireland,England,West Sussex 30,Unknown,13/03/2012,23/03/2012,Confirmed,Schmallenberg,,"domestic, sheep",100,1,1,0,0,,,,
169822,OIE,50.9964,0.2031,Europe,U.K. of Great Britain and Northern Ireland,England,East Sussex 32,Unknown,13/03/2012,23/03/2012,Confirmed,Schmallenberg,,"domestic, sheep",1,1,1,0,0,,,,
169821,OIE,51.4172,-2.1714,Europe,U.K. of Great Britain and Northern Ireland,England,Wiltshire 08,Unknown,16/03/2012,23/03/2012,Confirmed,Schmallenberg,,"domestic, cattle",1,1,1,0,0,,,,
169820,OIE,51.14,0.8288,Europe,U.K. of Great Britain and Northern Ireland,England,Kent 35,Unknown,12/03/2012,23/03/2012,Confirmed,Schmallenberg,,"domestic, cattle",1,1,1,0,0,,,,
169819,OIE,51.3336,0.7746,Europe,U.K. of Great Britain and Northern Ireland,England,Kent 37,Unknown,12/03/2012,23/03/2012,Confirmed,Schmallenberg,,"domestic, sheep",2050,2,2,0,0,,,,
169818,OIE,50.8645,-0.2961,Europe,U.K. of Great Britain and Northern Ireland,England,West Sussex 26,Unknown,09/03/2012,23/03/2012,Confirmed,Schmallenberg,,"domestic, sheep",400,1,1,0,0,,,,
169817,OIE,50.9366,-2.93893,Europe,U.K. of Great Britain and Northern Ireland,England,Somerset 03,Unknown,12/03/2012,23/03/2012,Confirmed,Schmallenberg,,"domestic, sheep",1,1,1,0,0,,,,
169816,OIE,51.0384,-0.0662,Europe,U.K. of Great Britain and Northern Ireland,England,West Sussex 25,Unknown,09/03/2012,23/03/2012,Confirmed,Schmallenberg,,"domestic, sheep",3,3,3,0,0,,,,
169815,OIE,50.9774,0.9195,Europe,U.K. of Great Britain and Northern Ireland,England,Kent 39,Unknown,14/03/2012,23/03/2012,Confirmed,Schmallenberg,,"domestic, sheep",1,1,1,0,0,,,,
169814,OIE,49.1917,-2.1833,Europe,Jersey,Brelade,Jersey,Unknown,09/03/2012,23/03/2012,Confirmed,Schmallenberg,,"domestic, sheep",30,2,2,0,0,,,,
169813,OIE,50.8907,-1.3088,Europe,U.K. of Great Britain and Northern Ireland,England,Hampshire 10,Unknown,09/03/2012,23/03/2012,Confirmed,Schmallenberg,,"domestic, sheep",15,1,1,0,0,,,,
169812,OIE,52.2179,1.2561,Europe,U.K. of Great Britain and Northern Ireland,England,Suffolk 14,Unknown,20/03/2012,23/03/2012,Confirmed,Schmallenberg,,"domestic, cattle",39,1,1,0,0,,,,
169811,OIE,50.7476,-1.6424,Europe,U.K. of Great Britain and Northern Ireland,England,Hampshire 12,Unknown,19/03/2012,23/03/2012,Confirmed,Schmallenberg,,"domestic, sheep",120,2,2,0,0,,,,
169810,OIE,51.9358,1.1134,Europe,U.K. of Great Britain and Northern Ireland,England,Essex 10,Unknown,13/03/2012,23/03/2012,Confirmed,Schmallenberg,,"domestic, sheep",44,2,2,0,0,,,,
169809,OIE,51.1537,-0.5755,Europe,U.K. of Great Britain and Northern Ireland,England,West Sussex 28,Unknown,12/03/2012,23/03/2012,Confirmed,Schmallenberg,,"domestic, sheep",450,1,1,0,0,,,,
169808,OIE,51.0349,-0.1747,Europe,U.K. of Great Britain and Northern Ireland,England,West Sussex 24,Unknown,05/03/2012,23/03/2012,Confirmed,Schmallenberg,,"domestic, cattle",340,1,1,0,0,,,,
169807,OIE,50.9564,-0.8733,Europe,U.K. of Great Britain and Northern Ireland,England,West Sussex 31,Unknown,16/03/2012,23/03/2012,Confirmed,Schmallenberg,,"domestic, sheep",1500,1,1,0,0,,,,
169806,OIE,49.1833,-2.2167,Europe,Jersey,Brelade,Jersey 02,Unknown,14/03/2012,23/03/2012,Confirmed,Schmallenberg,,"domestic, sheep",7,2,2,0,0,,,,
169805,OIE,51.3398,-2.7781,Europe,U.K. of Great Britain and Northern Ireland,England,North Somerset & South Glouceshire 02,Unknown,20/03/2012,23/03/2012,Confirmed,Schmallenberg,,"domestic, sheep",87,1,1,0,0,,,,
169804,OIE,52.3932,0.9564,Europe,U.K. of Great Britain and Northern Ireland,England,Norfolk 23,Unknown,16/03/2012,23/03/2012,Confirmed,Schmallenberg,,"domestic, sheep",34,1,1,0,0,,,,
169803,OIE,51.4155,-2.4356,Europe,U.K. of Great Britain and Northern Ireland,England,North Somerset & South Gloucestershire,Unknown,12/03/2012,23/03/2012,Confirmed,Schmallenberg,,"domestic, sheep",1000,4,4,0,0,,,,
169802,OIE,50.8412,-0.4965,Europe,U.K. of Great Britain and Northern Ireland,England,West Sussex 27,Unknown,12/03/2012,23/03/2012,Confirmed,Schmallenberg,,"domestic, sheep",1000,3,3,0,0,,,,
169800,National authorities,25.679272,32.696534,Africa,Egypt,Luxor,Qina,Centroid Admin1,15/03/2012,16/03/2012,Confirmed,Influenza - Avian,H5N1 HPAI,"domestic, chicken, domestic, turkey, domestic, duck",,22,,22,,,,,
169799,National authorities,28.9,30.95,Africa,Egypt,Beni Suef,Souds,Centroid Locality,04/03/2012,05/03/2012,Confirmed,Influenza - Avian,H5N1 HPAI,"domestic, chicken",,2000,250,2000,,,,,
169798,National authorities,22.39159,89.43974,Asia,Bangladesh,Khulna,"Khulna Sadar, Khulna",Centroid Admin2,24/03/2012,26/03/2012,Confirmed,Influenza - Avian,H5N1 HPAI,"domestic, chicken",420,172,172,248,,,,,
169797,National authorities,23.182367,89.190183,Asia,Bangladesh,Khulna,Government poutry farm,Unknown,23/03/2012,26/03/2012,Confirmed,Influenza - Avian,H5N1 HPAI,"domestic, chicken",2328,414,414,1914,0,,,,
169796,National authorities,23.871086,90.279244,Asia,Bangladesh,Dhaka,Government poultry farm,Unknown,19/03/2012,21/03/2012,Confirmed,Influenza - Avian,H5N1 HPAI,"domestic, chicken",5163,3350,3350,1813,0,,,,
169794,OIE,-4.843565,18.812568,Africa,Democratic Republic of the Congo,Bandundu,Kwilu,Centroid Locality,23/01/2012,27/03/2012,Confirmed,Peste des petits ruminants,,"domestic, goats",,10656,,,,,,,
169793,National authorities,-8.596882,117.265689,Asia,Indonesia,Nusatenggara Barat,Nusa Tenggara Barat,Centroid Admin1,28/02/2012,26/03/2012,Confirmed,Influenza - Avian,H5N1 HPAI,,,,,,,,,1,1
169792,National authorities,31.3917579086,34.7573957857,Asia,Israel,Southern District,Township Rahat (""Dudaim site""),Unknown,21/03/2012,26/03/2012,Confirmed,Foot and mouth disease,O,"domestic, sheep",220,,2,,,,,,
169791,OIE,27.6435,85.3016,Asia,Nepal,Central,Khadakagaun,Unknown,16/03/2012,27/03/2012,Confirmed,Influenza - Avian,H5N1 HPAI,"domestic, unspecified bird, domestic, unspecified bird, domestic, unspecified bird",9600,6646,6646,2954,0,,,,
169790,OIE,27.629,85.261,Asia,Nepal,Central,Dullu,Unknown,05/03/2012,27/03/2012,Confirmed,Influenza - Avian,H5N1 HPAI,"domestic, unspecified bird",15220,15160,15160,60,0,,,,
169789,OIE,41.6182,22.5573,Europe,North Macedonia,Radovic,Jargulica,Unknown,02/03/2012,26/03/2012,Confirmed,Rabies,,"domestic, cats, domestic, dogs",3,1,0,3,0,,,,
169788,OIE,33.0892973542,35.4698224429,Asia,Israel,Northern,AVIVIM,Unknown,09/03/2012,25/03/2012,Confirmed,Newcastle disease,,"domestic, unspecified bird",2786,,0,0,0,,,,
169787,OIE,33.0253844327,35.4171869914,Asia,Israel,Northern,ZIV'ON,Unknown,,26/03/2012,Confirmed,Newcastle disease,,"domestic, unspecified bird",10500,1000,250,0,10250,,,,
169786,OIE,51.92423,4.25328,Europe,Netherlands,Zuid-holland,Maassluis,Unknown,16/03/2012,23/03/2012,Confirmed,Schmallenberg,,"domestic, cattle",2,2,2,0,0,,,,
169785,OIE,52.37737,6.2722,Europe,Netherlands,Overijssel,Raalte,Unknown,16/03/2012,23/03/2012,Confirmed,Schmallenberg,,"domestic, cattle",1,1,1,0,0,,,,
169784,OIE,52.74147,4.94033,Europe,Netherlands,Noord-holland,Aartswoud,Unknown,21/03/2012,23/03/2012,Confirmed,Schmallenberg,,"domestic, cattle",2,2,2,0,0,,,,
169783,OIE,52.92555,5.80369,Europe,Netherlands,Friesland,Oldeouwer,Unknown,16/03/2012,23/03/2012,Confirmed,Schmallenberg,,"domestic, cattle",2,2,2,0,0,,,,
169782,OIE,51.45193,4.92828,Europe,Netherlands,Noord-brabant,Baarle Nassau,Unknown,16/03/2012,23/03/2012,Confirmed,Schmallenberg,,"domestic, cattle",1,1,1,0,0,,,,
169781,OIE,51.92501,4.82481,Europe,Netherlands,Zuid-holland,Groot Ammers,Unknown,16/03/2012,23/03/2012,Confirmed,Schmallenberg,,"domestic, cattle",2,2,2,0,0,,,,
169780,OIE,52.28064,6.79105,Europe,Netherlands,Overijssel,Overschild,Unknown,16/03/2012,23/03/2012,Confirmed,Schmallenberg,,"domestic, cattle",1,1,1,0,0,,,,
169779,OIE,52.81858,6.47922,Europe,Netherlands,Drenthe,Spier,Unknown,16/03/2012,23/03/2012,Confirmed,Schmallenberg,,"domestic, cattle",1,1,1,0,0,,,,
169778,OIE,52.45566,6.56798,Europe,Netherlands,Overijssel,Vroomshoop,Unknown,16/03/2012,23/03/2012,Confirmed,Schmallenberg,,"domestic, cattle",1,1,1,0,0,,,,
169777,OIE,52.71947,5.07401,Europe,Netherlands,Noord-holland,Midwoud,Unknown,16/03/2012,23/03/2012,Confirmed,Schmallenberg,,"domestic, sheep",1,1,1,0,0,,,,
169776,OIE,52.14607,5.58405,Europe,Netherlands,Gelderland,Barneveld,Unknown,16/03/2012,23/03/2012,Confirmed,Schmallenberg,,"domestic, cattle",1,1,1,0,0,,,,
169775,OIE,52.26408,5.04096,Europe,Netherlands,Noord-holland,Nederhorst den Berg,Unknown,16/03/2012,23/03/2012,Confirmed,Schmallenberg,,"domestic, cattle",1,1,1,0,0,,,,
169774,OIE,52.25176,5.60421,Europe,Netherlands,Gelderland,Putten,Unknown,21/03/2012,23/03/2012,Confirmed,Schmallenberg,,"domestic, cattle",2,2,2,0,0,,,,
169773,OIE,52.84407,5.79655,Europe,Netherlands,Friesland,Bantega,Unknown,21/03/2012,23/03/2012,Confirmed,Schmallenberg,,"domestic, cattle",2,2,2,0,0,,,,
169772,OIE,51.5107,6.04195,Europe,Netherlands,Limburg,Oirlo,Unknown,16/03/2012,23/03/2012,Confirmed,Schmallenberg,,"domestic, sheep",2,2,2,0,0,,,,
169771,OIE,52.85236,6.50991,Europe,Netherlands,Drenthe,Beilen,Unknown,16/03/2012,23/03/2012,Confirmed,Schmallenberg,,"domestic, cattle",1,1,1,0,0,,,,
169770,OIE,47.48414,3.98098,Europe,France,Bourgogne,Magny,Unknown,23/02/2012,23/03/2012,Confirmed,Schmallenberg,,"domestic, sheep",0,0,0,0,0,,,,
169769,OIE,48.05,5.9,Europe,France,Lorraine,Tignécourt,Unknown,20/02/2012,23/03/2012,Confirmed,Schmallenberg,,"domestic, sheep",0,0,0,0,0,,,,
169768,OIE,46.25,1.316667,Europe,France,Limousin,Saint-Hilaire-La-Treille,Unknown,09/03/2012,23/03/2012,Confirmed,Schmallenberg,,"domestic, sheep",0,0,0,0,0,,,,
169767,OIE,46.166667,0.85,Europe,France,Limousin,Saint-Barbant,Unknown,09/03/2012,23/03/2012,Confirmed,Schmallenberg,,"domestic, sheep",0,0,0,0,0,,,,
169766,OIE,46.216667,0.966667,Europe,France,Limousin,Darnac,Unknown,29/02/2012,23/03/2012,Confirmed,Schmallenberg,,"domestic, sheep",0,0,0,0,0,,,,
169765,OIE,46.266667,0.966667,Europe,France,Limousin,Thiat,Unknown,27/02/2012,23/03/2012,Confirmed,Schmallenberg,,"domestic, sheep",0,0,0,0,0,,,,
169764,OIE,46.133333,1.116667,Europe,France,Limousin,Blanzac,Unknown,24/02/2012,23/03/2012,Confirmed,Schmallenberg,,"domestic, sheep",0,0,0,0,0,,,,
169763,OIE,46.266667,0.966667,Europe,France,Limousin,Thiat,Unknown,22/02/2012,23/03/2012,Confirmed,Schmallenberg,,"domestic, sheep",0,0,0,0,0,,,,
169762,OIE,46.166667,0.95,Europe,France,Limousin,Saint-Bonnet-de-Bellac,Unknown,21/02/2012,23/03/2012,Confirmed,Schmallenberg,,"domestic, sheep",0,0,0,0,0,,,,
169761,OIE,46.166667,0.8,Europe,France,Poitou-Charentes,Asnières-sur-Blour,Unknown,29/02/2012,23/03/2012,Confirmed,Schmallenberg,,"domestic, sheep",0,0,0,0,0,,,,
169760,OIE,46.266667,0.416667,Europe,France,Poitou-Charentes,Château-Garnier n°2,Unknown,28/02/2012,23/03/2012,Confirmed,Schmallenberg,,"domestic, sheep",0,0,0,0,0,,,,
169759,OIE,46.383333,0.883333,Europe,France,Poitou-Charentes,Saulgé,Unknown,28/02/2012,23/03/2012,Confirmed,Schmallenberg,,"domestic, sheep",0,0,0,0,0,,,,
169758,OIE,46.466667,1.05,Europe,France,Poitou-Charentes,La Trimouille n°2,Unknown,23/02/2012,23/03/2012,Confirmed,Schmallenberg,,"domestic, sheep",0,0,0,0,0,,,,
169757,OIE,46.233333,0.65,Europe,France,Poitou-Charentes,Le Vigeant,Unknown,23/02/2012,23/03/2012,Confirmed,Schmallenberg,,"domestic, sheep",0,0,0,0,0,,,,
169756,OIE,46.45,0.483333,Europe,France,Poitou-Charentes,Vernon,Unknown,20/02/2012,23/03/2012,Confirmed,Schmallenberg,,"domestic, sheep",0,0,0,0,0,,,,
169755,OIE,47.5,3.85,Europe,France,Bourgogne,Vault-de-Lugny,Unknown,24/02/2012,23/03/2012,Confirmed,Schmallenberg,,"domestic, sheep",0,0,0,0,0,,,,
169754,OIE,48.25,6.0,Europe,France,Lorraine,Domjulien,Unknown,20/02/2012,23/03/2012,Confirmed,Schmallenberg,,"domestic, sheep",0,0,0,0,0,,,,
169753,OIE,46.35,1.133333,Europe,France,Limousin,Verneuil-Moustiers,Unknown,09/03/2012,23/03/2012,Confirmed,Schmallenberg,,"domestic, sheep",0,0,0,0,0,,,,
169752,OIE,45.983333,1.05,Europe,France,Limousin,Cieux,Unknown,09/03/2012,23/03/2012,Confirmed,Schmallenberg,,"domestic, sheep",0,0,0,0,0,,,,
169751,OIE,46.15,1.033333,Europe,France,Limousin,Peyrat-de-Bellac,Unknown,24/02/2012,23/03/2012,Confirmed,Schmallenberg,,"domestic, sheep",0,0,0,0,0,,,,
169750,OIE,46.316667,1.366667,Europe,France,Limousin,Saint-Sulpice-les-Feuilles,Unknown,24/02/2012,23/03/2012,Confirmed,Schmallenberg,,"domestic, sheep",0,0,0,0,0,,,,
169749,OIE,45.65,1.3,Europe,France,Limousin,Saint-Priest-Ligoure,Unknown,22/02/2012,23/03/2012,Confirmed,Schmallenberg,,"domestic, sheep",0,0,0,0,0,,,,
169748,OIE,46.216667,1.166667,Europe,France,Limousin,Magnac-Laval,Unknown,21/02/2012,23/03/2012,Confirmed,Schmallenberg,,"domestic, sheep",0,0,0,0,0,,,,
169747,OIE,46.5,0.783333,Europe,France,Poitou-Charentes,Leignes-sur-Fontaine,Unknown,28/02/2012,23/03/2012,Confirmed,Schmallenberg,,"domestic, sheep",0,0,0,0,0,,,,
169746,OIE,46.366667,0.416667,Europe,France,Poitou-Charentes,Saint-Maurice-la-Clouère,Unknown,28/02/2012,23/03/2012,Confirmed,Schmallenberg,,"domestic, sheep",0,0,0,0,0,,,,
169745,OIE,46.25,0.8,Europe,France,Poitou-Charentes,Adriers,Unknown,23/02/2012,23/03/2012,Confirmed,Schmallenberg,,"domestic, sheep",0,0,0,0,0,,,,
169744,OIE,46.566667,0.65,Europe,France,Poitou-Charentes,Chauvigny,Unknown,23/02/2012,23/03/2012,Confirmed,Schmallenberg,,"domestic, sheep",0,0,0,0,0,,,,
169743,OIE,46.45,0.483333,Europe,France,Poitou-Charentes,Vernon,Unknown,23/02/2012,23/03/2012,Confirmed,Schmallenberg,,"domestic, sheep",0,0,0,0,0,,,,
169742,OIE,46.383333,1.0,Europe,France,Poitou-Charentes,Bourg-Archambault,Unknown,16/02/2012,23/03/2012,Confirmed,Schmallenberg,,"domestic, sheep",0,0,0,0,0,,,,
169741,OIE,46.333333,0.483333,Europe,France,Poitou-Charentes,Saint-Sécondin,Unknown,16/02/2012,23/03/2012,Confirmed,Schmallenberg,,"domestic, sheep",0,0,0,0,0,,,,
169740,OIE,49.816667,0.983333,Europe,France,Haute-Normandie,Hermanville,Unknown,23/02/2012,23/03/2012,Confirmed,Schmallenberg,,"domestic, sheep",0,0,0,0,0,,,,
169739,OIE,46.35,4.683333,Europe,France,Bourgogne,Sologny,Unknown,05/03/2012,23/03/2012,Confirmed,Schmallenberg,,"domestic, sheep",0,0,0,0,0,,,,
169738,OIE,46.733333,4.683333,Europe,France,Bourgogne,Bissey-sous-Cruchaud,Unknown,28/02/2012,23/03/2012,Confirmed,Schmallenberg,,"domestic, sheep",0,0,0,0,0,,,,
169737,OIE,48.416667,0.55,Europe,France,Basse-Normandie,Éperrais,Unknown,02/03/2012,23/03/2012,Confirmed,Schmallenberg,,"domestic, sheep",0,0,0,0,0,,,,
169736,OIE,49.55,2.05,Europe,France,Picardie,Blicourt,Unknown,28/02/2012,23/03/2012,Confirmed,Schmallenberg,,"domestic, sheep",0,0,0,0,0,,,,
169735,OIE,47.733333,3.133333,Europe,France,Bourgogne,Tannerre-en-Puisaye,Unknown,24/02/2012,23/03/2012,Confirmed,Schmallenberg,,"domestic, sheep",0,0,0,0,0,,,,
169734,OIE,47.816667,3.8,Europe,France,Bourgogne,Chablis,Unknown,23/02/2012,23/03/2012,Confirmed,Schmallenberg,,"domestic, sheep",0,0,0,0,0,,,,
169733,OIE,48.366667,5.816667,Europe,France,Lorraine,Houéville,Unknown,20/02/2012,23/03/2012,Confirmed,Schmallenberg,,"domestic, sheep",0,0,0,0,0,,,,
169732,OIE,48.483333,5.816667,Europe,France,Lorraine,Punerot,Unknown,20/02/2012,23/03/2012,Confirmed,Schmallenberg,,"domestic, sheep",0,0,0,0,0,,,,
169731,OIE,46.166667,1.15,Europe,France,Limousin,Droux,Unknown,09/03/2012,23/03/2012,Confirmed,Schmallenberg,,"domestic, sheep",0,0,0,0,0,,,,
169730,OIE,46.15,1.366667,Europe,France,Limousin,Morterolles-sur-Semme,Unknown,29/02/2012,23/03/2012,Confirmed,Schmallenberg,,"domestic, sheep",0,0,0,0,0,,,,
169729,OIE,46.266667,1.383333,Europe,France,Limousin,Arnac-la-Poste,Unknown,24/02/2012,23/03/2012,Confirmed,Schmallenberg,,"domestic, sheep",0,0,0,0,0,,,,
169728,OIE,46.166667,0.983333,Europe,France,Limousin,La Croix-sur-Gartempe,Unknown,24/02/2012,23/03/2012,Confirmed,Schmallenberg,,"domestic, sheep",0,0,0,0,0,,,,
169727,OIE,46.083333,1.2,Europe,France,Limousin,Roussac,Unknown,22/02/2012,23/03/2012,Confirmed,Schmallenberg,,"domestic, sheep",0,0,0,0,0,,,,
169726,OIE,46.166667,1.066667,Europe,France,Limousin,Saint-Ouen-sur-Gartempe,Unknown,22/02/2012,23/03/2012,Confirmed,Schmallenberg,,"domestic, sheep",0,0,0,0,0,,,,
169725,OIE,46.4,0.683333,Europe,France,Poitou-Charentes,Mazerolles,Unknown,28/02/2012,23/03/2012,Confirmed,Schmallenberg,,"domestic, sheep",0,0,0,0,0,,,,
169724,OIE,46.366667,0.616667,Europe,France,Poitou-Charentes,Bouresse,Unknown,28/02/2012,23/03/2012,Confirmed,Schmallenberg,,"domestic, sheep",0,0,0,0,0,,,,
169723,OIE,46.016667,0.783333,Europe,France,Poitou-Charentes,Luchapt,Unknown,23/02/2012,23/03/2012,Confirmed,Schmallenberg,,"domestic, sheep",0,0,0,0,0,,,,
169722,OIE,46.516667,1.083333,Europe,France,Poitou-Charentes,Liglet,Unknown,23/02/2012,23/03/2012,Confirmed,Schmallenberg,,"domestic, sheep",0,0,0,0,0,,,,
169721,OIE,46.466667,1.05,Europe,France,Poitou-Charentes,La Trimouille n°1,Unknown,23/02/2012,23/03/2012,Confirmed,Schmallenberg,,"domestic, sheep",0,0,0,0,0,,,,
169720,OIE,46.4,1.083333,Europe,France,Poitou-Charentes,Brigueil-le-Chantre n°2,Unknown,23/02/2012,23/03/2012,Confirmed,Schmallenberg,,"domestic, sheep",0,0,0,0,0,,,,
169719,OIE,46.466667,1.05,Europe,France,Poitou-Charentes,La Trimouille,Unknown,16/02/2012,23/03/2012,Confirmed,Schmallenberg,,"domestic, sheep",0,0,0,0,0,,,,
169718,OIE,46.4,0.683333,Europe,France,Poitou-Charentes,Mazerolles,Unknown,16/02/2012,23/03/2012,Confirmed,Schmallenberg,,"domestic, sheep",0,0,0,0,0,,,,
169717,OIE,50.1,1.583333,Europe,France,Picardie,Nibas,Unknown,20/01/2012,23/03/2012,Confirmed,Schmallenberg,,"domestic, sheep",0,0,0,0,0,,,,
169716,OIE,49.666667,0.216667,Europe,France,Haute-Normandie,Beaurepaire,Unknown,23/02/2012,23/03/2012,Confirmed,Schmallenberg,,"domestic, sheep",0,0,0,0,0,,,,
169715,OIE,46.666667,5.383333,Europe,France,Bourgogne,Beaurepaire-en-Bresse,Unknown,06/03/2012,23/03/2012,Confirmed,Schmallenberg,,"domestic, sheep",0,0,0,0,0,,,,
169714,OIE,47.566667,4.016667,Europe,France,Bourgogne,Angely,Unknown,23/02/2012,23/03/2012,Confirmed,Schmallenberg,,"domestic, sheep",0,0,0,0,0,,,,
169713,OIE,47.616667,3.266667,Europe,France,Bourgogne,Saints,Unknown,21/02/2012,23/03/2012,Confirmed,Schmallenberg,,"domestic, sheep",0,0,0,0,0,,,,
169712,OIE,48.3,6.683333,Europe,France,Lorraine,Autrey,Unknown,22/02/2012,23/03/2012,Confirmed,Schmallenberg,,"domestic, sheep",0,0,0,0,0,,,,
169711,OIE,47.966667,5.8,Europe,France,Lorraine,Senaide,Unknown,22/02/2012,23/03/2012,Confirmed,Schmallenberg,,"domestic, sheep",0,0,0,0,0,,,,
169710,OIE,46.266667,1.383333,Europe,France,Limousin,Arnac-la-Poste,Unknown,29/02/2012,23/03/2012,Confirmed,Schmallenberg,,"domestic, sheep",0,0,0,0,0,,,,
169709,OIE,46.133333,1.283333,Europe,France,Limousin,Châteauponsac,Unknown,29/02/2012,23/03/2012,Confirmed,Schmallenberg,,"domestic, sheep",0,0,0,0,0,,,,
169708,OIE,46.166667,0.85,Europe,France,Limousin,Saint-Martial-sur-Isop,Unknown,27/02/2012,23/03/2012,Confirmed,Schmallenberg,,"domestic, sheep",0,0,0,0,0,,,,
169707,OIE,46.133333,1.283333,Europe,France,Limousin,Châteauponsac,Unknown,27/02/2012,23/03/2012,Confirmed,Schmallenberg,,"domestic, sheep",0,0,0,0,0,,,,
169706,OIE,46.233333,1.033333,Europe,France,Limousin,Oradour-Saint-Genest,Unknown,21/02/2012,23/03/2012,Confirmed,Schmallenberg,,"domestic, sheep",0,0,0,0,0,,,,
169705,OIE,46.133333,1.116667,Europe,France,Limousin,Blanzac,Unknown,21/02/2012,23/03/2012,Confirmed,Schmallenberg,,"domestic, sheep",0,0,0,0,0,,,,
169704,OIE,46.233333,0.916667,Europe,France,Limousin,Bussière-Poitevine,Unknown,17/02/2012,23/03/2012,Confirmed,Schmallenberg,,"domestic, sheep",0,0,0,0,0,,,,
169703,OIE,46.2,0.75,Europe,France,Poitou-Charentes,Mouterre-sur-Blourde,Unknown,29/02/2012,23/03/2012,Confirmed,Schmallenberg,,"domestic, sheep",0,0,0,0,0,,,,
169702,OIE,46.666667,0.65,Europe,France,Poitou-Charentes,Archigny,Unknown,29/02/2012,23/03/2012,Confirmed,Schmallenberg,,"domestic, sheep",0,0,0,0,0,,,,
169701,OIE,46.4,0.683333,Europe,France,Poitou-Charentes,Mazerolles,Unknown,23/02/2012,23/03/2012,Confirmed,Schmallenberg,,"domestic, sheep",0,0,0,0,0,,,,
169700,OIE,46.42108,1.12298,Europe,France,Poitou-Charentes,Thollet,Unknown,23/02/2012,23/03/2012,Confirmed,Schmallenberg,,"domestic, sheep",0,0,0,0,0,,,,
169699,OIE,46.116667,0.65,Europe,France,Poitou-Charentes,Availles-Limouzine,Unknown,23/02/2012,23/03/2012,Confirmed,Schmallenberg,,"domestic, sheep",0,0,0,0,0,,,,
169698,OIE,46.366667,0.616667,Europe,France,Poitou-Charentes,Bouresse,Unknown,16/02/2012,23/03/2012,Confirmed,Schmallenberg,,"domestic, sheep",0,0,0,0,0,,,,
169697,OIE,46.616667,0.7,Europe,France,Poitou-Charentes,Sainte-Radegonde,Unknown,16/02/2012,23/03/2012,Confirmed,Schmallenberg,,"domestic, sheep",0,0,0,0,0,,,,
169696,OIE,46.383333,0.883333,Europe,France,Poitou-Charentes,Saulgé,Unknown,03/02/2012,23/03/2012,Confirmed,Schmallenberg,,"domestic, sheep",0,0,0,0,0,,,,
169695,OIE,49.833333,1.733333,Europe,France,Picardie,Saint-Germain-sur-Bresle,Unknown,22/02/2012,23/03/2012,Confirmed,Schmallenberg,,"domestic, cattle",0,0,0,0,0,,,,
169694,OIE,47.883333,5.983333,Europe,France,Franche-Comte,Ormoy,Unknown,22/02/2012,23/03/2012,Confirmed,Schmallenberg,,"domestic, sheep",0,0,0,0,0,,,,
169693,OIE,48.05,6.116667,Europe,France,Lorraine,Hennezel,Unknown,28/02/2012,23/03/2012,Confirmed,Schmallenberg,,"domestic, goats",0,0,0,0,0,,,,
169692,OIE,48.133333,6.183333,Europe,France,Lorraine,Escles,Unknown,28/02/2012,23/03/2012,Confirmed,Schmallenberg,,"domestic, sheep",0,0,0,0,0,,,,
169691,OIE,46.166667,1.066667,Europe,France,Limousin,Saint-Ouen-sur-Gartempe,Unknown,09/03/2012,23/03/2012,Confirmed,Schmallenberg,,"domestic, sheep",0,0,0,0,0,,,,
169690,OIE,46.3,1.116667,Europe,France,Limousin,Tersannes,Unknown,09/03/2012,23/03/2012,Confirmed,Schmallenberg,,"domestic, sheep",0,0,0,0,0,,,,
169689,OIE,46.2,1.3,Europe,France,Limousin,Saint-Sornin-Leulac,Unknown,29/02/2012,23/03/2012,Confirmed,Schmallenberg,,"domestic, sheep",0,0,0,0,0,,,,
169688,OIE,46.233333,1.25,Europe,France,Limousin,Dompierre-les-Églises,Unknown,29/02/2012,23/03/2012,Confirmed,Schmallenberg,,"domestic, sheep",0,0,0,0,0,,,,
169687,OIE,46.283333,1.25,Europe,France,Limousin,Saint-Léger-Magnazeix n°2,Unknown,24/02/2012,23/03/2012,Confirmed,Schmallenberg,,"domestic, cattle",0,0,0,0,0,,,,
169686,OIE,46.283333,1.25,Europe,France,Limousin,Saint-Léger-Magnazeix n°1,Unknown,24/02/2012,23/03/2012,Confirmed,Schmallenberg,,"domestic, sheep",0,0,0,0,0,,,,
169685,OIE,46.35,1.333333,Europe,France,Limousin,Saint-Georges-les-Landes n°2,Unknown,20/02/2012,23/03/2012,Confirmed,Schmallenberg,,"domestic, sheep",0,0,0,0,0,,,,
169684,OIE,46.233333,1.033333,Europe,France,Limousin,Oradour-Saint-Genest,Unknown,16/02/2012,23/03/2012,Confirmed,Schmallenberg,,"domestic, sheep",0,0,0,0,0,,,,
169683,OIE,46.483333,0.833333,Europe,France,Poitou-Charentes,Jouhet,Unknown,28/02/2012,23/03/2012,Confirmed,Schmallenberg,,"domestic, sheep",0,0,0,0,0,,,,
169682,OIE,46.166667,0.516667,Europe,France,Poitou-Charentes,Mauprévoir,Unknown,28/02/2012,23/03/2012,Confirmed,Schmallenberg,,"domestic, sheep",0,0,0,0,0,,,,
169681,OIE,46.3,0.733333,Europe,France,Poitou-Charentes,Nérignac,Unknown,23/02/2012,23/03/2012,Confirmed,Schmallenberg,,"domestic, sheep",0,0,0,0,0,,,,
169680,OIE,46.333333,0.816667,Europe,France,Poitou-Charentes,Moulismes,Unknown,23/02/2012,23/03/2012,Confirmed,Schmallenberg,,"domestic, sheep",0,0,0,0,0,,,,
169679,OIE,46.516667,1.083333,Europe,France,Poitou-Charentes,Liglet,Unknown,20/02/2012,23/03/2012,Confirmed,Schmallenberg,,"domestic, sheep",0,0,0,0,0,,,,
169678,OIE,46.766667,0.6,Europe,France,Poitou-Charentes,Sénillé,Unknown,20/02/2012,23/03/2012,Confirmed,Schmallenberg,,"domestic, sheep",0,0,0,0,0,,,,
169677,OIE,46.683333,0.85,Europe,France,Poitou-Charentes,Saint-Pierre-de-Maillé,Unknown,20/02/2012,23/03/2012,Confirmed,Schmallenberg,,"domestic, sheep",0,0,0,0,0,,,,
169676,OIE,48.316667,5.966667,Europe,France,Lorraine,Ménil-en-Xaintois,Unknown,26/01/2012,23/03/2012,Confirmed,Schmallenberg,,"domestic, sheep",0,0,0,0,0,,,,
169675,OIE,46.15,1.033333,Europe,France,Limousin,Peyrat-de-Bellac,Unknown,09/03/2012,23/03/2012,Confirmed,Schmallenberg,,"domestic, sheep",0,0,0,0,0,,,,
169674,OIE,46.166667,0.983333,Europe,France,Limousin,La Croix-sur-Gartempe,Unknown,09/03/2012,23/03/2012,Confirmed,Schmallenberg,,"domestic, sheep",0,0,0,0,0,,,,
169673,OIE,46.133333,1.183333,Europe,France,Limousin,Rancon,Unknown,09/03/2012,23/03/2012,Confirmed,Schmallenberg,,"domestic, sheep",0,0,0,0,0,,,,
169672,OIE,46.166667,0.95,Europe,France,Limousin,Saint-Bonnet-de-Bellac,Unknown,09/03/2012,23/03/2012,Confirmed,Schmallenberg,,"domestic, sheep",0,0,0,0,0,,,,
169671,OIE,46.2,1.3,Europe,France,Limousin,Saint-Sornin-Leulac,Unknown,24/02/2012,23/03/2012,Confirmed,Schmallenberg,,"domestic, sheep",0,0,0,0,0,,,,
169670,OIE,46.266667,1.383333,Europe,France,Limousin,Arnac-la-Poste n°2,Unknown,24/02/2012,23/03/2012,Confirmed,Schmallenberg,,"domestic, sheep",0,0,0,0,0,,,,
169669,OIE,46.233333,0.916667,Europe,France,Limousin,Bussière-Poitevine,Unknown,22/02/2012,23/03/2012,Confirmed,Schmallenberg,,"domestic, sheep",0,0,0,0,0,,,,
169668,OIE,46.166667,0.95,Europe,France,Limousin,Saint-Bonnet-de-Bellac n°1,Unknown,22/02/2012,23/03/2012,Confirmed,Schmallenberg,,"domestic, sheep",0,0,0,0,0,,,,
169667,OIE,46.333333,0.816667,Europe,France,Poitou-Charentes,Moulismes n°2,Unknown,28/02/2012,23/03/2012,Confirmed,Schmallenberg,,"domestic, sheep",0,0,0,0,0,,,,
169666,OIE,46.216667,0.533333,Europe,France,Poitou-Charentes,Saint-Martin-l'Ars,Unknown,28/02/2012,23/03/2012,Confirmed,Schmallenberg,,"domestic, sheep",0,0,0,0,0,,,,
169665,OIE,46.383333,1.0,Europe,France,Poitou-Charentes,Bourg-Archambault,Unknown,28/02/2012,23/03/2012,Confirmed,Schmallenberg,,"domestic, sheep",0,0,0,0,0,,,,
169664,OIE,48.4,6.483333,Europe,France,Lorraine,Haillainville,Unknown,07/03/2012,23/03/2012,Confirmed,Schmallenberg,,"domestic, sheep",0,0,0,0,0,,,,
169663,OIE,47.983333,6.75,Europe,France,Lorraine,Basse-sur-le-Rupt,Unknown,24/02/2012,23/03/2012,Confirmed,Schmallenberg,,"domestic, sheep",0,0,0,0,0,,,,
169662,OIE,46.1,0.916667,Europe,France,Limousin,Mézières-sur-Issoire,Unknown,09/03/2012,23/03/2012,Confirmed,Schmallenberg,,"domestic, sheep",0,0,0,0,0,,,,
169661,OIE,46.166667,0.85,Europe,France,Limousin,Saint-Martial-sur-Isop,Unknown,09/03/2012,23/03/2012,Confirmed,Schmallenberg,,"domestic, sheep",0,0,0,0,0,,,,
169660,OIE,46.183333,0.983333,Europe,France,Limousin,Saint-Sornin-la-Marche,Unknown,29/02/2012,23/03/2012,Confirmed,Schmallenberg,,"domestic, sheep",0,0,0,0,0,,,,
169659,OIE,46.35,1.183333,Europe,France,Limousin,Lussac-les-Églises,Unknown,29/02/2012,23/03/2012,Confirmed,Schmallenberg,,"domestic, sheep",0,0,0,0,0,,,,
169658,OIE,46.216667,1.166667,Europe,France,Limousin,Magnac-Laval,Unknown,24/02/2012,23/03/2012,Confirmed,Schmallenberg,,"domestic, sheep",0,0,0,0,0,,,,
169657,OIE,46.25,1.1,Europe,France,Limousin,La Bazeuge,Unknown,20/02/2012,23/03/2012,Confirmed,Schmallenberg,,"domestic, sheep",0,0,0,0,0,,,,
169656,OIE,46.35,1.333333,Europe,France,Limousin,Saint-Georges-les-Landes n°1,Unknown,20/02/2012,23/03/2012,Confirmed,Schmallenberg,,"domestic, sheep",0,0,0,0,0,,,,
169655,OIE,46.333333,0.816667,Europe,France,Poitou-Charentes,Moulismes n°1,Unknown,28/02/2012,23/03/2012,Confirmed,Schmallenberg,,"domestic, sheep",0,0,0,0,0,,,,
169654,OIE,46.4,1.083333,Europe,France,Poitou-Charentes,Brigueil-le-Chantre,Unknown,28/02/2012,23/03/2012,Confirmed,Schmallenberg,,"domestic, sheep",0,0,0,0,0,,,,
169653,OIE,46.166667,0.8,Europe,France,Poitou-Charentes,Asnières-sur-Blour,Unknown,23/02/2012,23/03/2012,Confirmed,Schmallenberg,,"domestic, sheep",0,0,0,0,0,,,,
169652,OIE,46.233333,0.683333,Europe,France,Poitou-Charentes,L'Isle-Jourdain n°1,Unknown,23/02/2012,23/03/2012,Confirmed,Schmallenberg,,"domestic, sheep",0,0,0,0,0,,,,
169651,OIE,47.516667,3.483333,Europe,France,Bourgogne,Andryes,Unknown,20/02/2012,23/03/2012,Confirmed,Schmallenberg,,"domestic, sheep",0,0,0,0,0,,,,
169650,OIE,48.433333,6.583333,Europe,France,Lorraine,Saint-Pierremont,Unknown,22/02/2012,23/03/2012,Confirmed,Schmallenberg,,"domestic, sheep",0,0,0,0,0,,,,
169649,OIE,48.266667,5.85,Europe,France,Lorraine,Sandaucourt,Unknown,26/01/2012,23/03/2012,Confirmed,Schmallenberg,,"domestic, sheep",0,0,0,0,0,,,,
169648,OIE,46.066667,0.916667,Europe,France,Limousin,Nouic,Unknown,09/03/2012,23/03/2012,Confirmed,Schmallenberg,,"domestic, sheep",0,0,0,0,0,,,,
169647,OIE,46.35,1.266667,Europe,France,Limousin,Jouac,Unknown,29/02/2012,23/03/2012,Confirmed,Schmallenberg,,"domestic, sheep",0,0,0,0,0,,,,
169646,OIE,46.216667,1.166667,Europe,France,Limousin,Magnac-Laval,Unknown,29/02/2012,23/03/2012,Confirmed,Schmallenberg,,"domestic, sheep",0,0,0,0,0,,,,
169645,OIE,46.266667,1.383333,Europe,France,Limousin,Arnac-la-Poste n°1,Unknown,24/02/2012,23/03/2012,Confirmed,Schmallenberg,,"domestic, sheep",0,0,0,0,0,,,,
169644,OIE,46.166667,0.95,Europe,France,Limousin,Saint-Bonnet-de-Bellac n°2,Unknown,22/02/2012,23/03/2012,Confirmed,Schmallenberg,,"domestic, sheep",0,0,0,0,0,,,,
169643,OIE,46.35,1.4,Europe,France,Limousin,Les Grands Chézeaux,Unknown,21/02/2012,23/03/2012,Confirmed,Schmallenberg,,"domestic, sheep",0,0,0,0,0,,,,
169642,OIE,46.283333,0.533333,Europe,France,Poitou-Charentes,Usson-du-Poitou,Unknown,29/02/2012,23/03/2012,Confirmed,Schmallenberg,,"domestic, sheep",0,0,0,0,0,,,,
169641,OIE,46.266667,0.416667,Europe,France,Poitou-Charentes,Château-Garnier n°1,Unknown,28/02/2012,23/03/2012,Confirmed,Schmallenberg,,"domestic, sheep",0,0,0,0,0,,,,
169640,OIE,46.233333,0.683333,Europe,France,Poitou-Charentes,L'Isle-Jourdain n°2,Unknown,23/02/2012,23/03/2012,Confirmed,Schmallenberg,,"domestic, sheep",0,0,0,0,0,,,,
169639,OIE,46.216667,0.483333,Europe,France,Poitou-Charentes,Payroux,Unknown,23/02/2012,23/03/2012,Confirmed,Schmallenberg,,"domestic, sheep",0,0,0,0,0,,,,
169638,OIE,46.8,0.75,Europe,France,Poitou-Charentes,Coussay-les-Bois,Unknown,23/02/2012,23/03/2012,Confirmed,Schmallenberg,,"domestic, sheep",0,0,0,0,0,,,,
169637,OIE,46.2,0.75,Europe,France,Poitou-Charentes,Mouterre-sur-Blourde,Unknown,17/02/2012,23/03/2012,Confirmed,Schmallenberg,,"domestic, sheep",0,0,0,0,0,,,,
169636,OIE,46.833333,4.5,Europe,France,Bourgogne,Saint-Pierre-de-Varennes,Unknown,28/02/2012,23/03/2012,Confirmed,Schmallenberg,,"domestic, sheep",0,0,0,0,0,,,,
169635,OIE,50.666667,1.833333,Europe,France,Nord-Pas-de-Calais,Desvres,Unknown,10/02/2012,23/03/2012,Confirmed,Schmallenberg,,"domestic, sheep",0,0,0,0,0,,,,
169634,OIE,48.916667,0.2,Europe,France,Basse-Normandie,Vimoutiers,Unknown,02/03/2012,23/03/2012,Confirmed,Schmallenberg,,"domestic, sheep",0,0,0,0,0,,,,
169633,OIE,50.266667,4.0,Europe,France,Nord-Pas-de-Calais,Rousies,Unknown,14/02/2012,23/03/2012,Confirmed,Schmallenberg,,"domestic, sheep",0,0,0,0,0,,,,
169632,OIE,47.45,3.516667,Europe,France,Bourgogne,Clamecy,Unknown,07/03/2012,23/03/2012,Confirmed,Schmallenberg,,"domestic, sheep",0,0,0,0,0,,,,
169631,OIE,48.833333,5.35,Europe,France,Lorraine,Levoncourt n°2,Unknown,28/02/2012,23/03/2012,Confirmed,Schmallenberg,,"domestic, sheep",0,0,0,0,0,,,,
169630,OIE,49.45,5.45,Europe,France,Lorraine,Marville,Unknown,28/02/2012,23/03/2012,Confirmed,Schmallenberg,,"domestic, cattle",0,0,0,0,0,,,,
169629,OIE,47.883333,5.083333,Europe,France,Champagne-Ardenne,Ériseul,Unknown,28/02/2012,23/03/2012,Confirmed,Schmallenberg,,"domestic, sheep",0,0,0,0,0,,,,
169628,OIE,48.1,5.066667,Europe,France,Champagne-Ardenne,Villiers-le-Sec,Unknown,22/02/2012,23/03/2012,Confirmed,Schmallenberg,,"domestic, sheep",0,0,0,0,0,,,,
169627,OIE,49.133333,-1.233333,Europe,France,Basse-Normandie,Montreuil-sur-Lozon,Unknown,06/03/2012,23/03/2012,Confirmed,Schmallenberg,,"domestic, sheep",0,0,0,0,0,,,,
169626,OIE,49.683333,-1.316667,Europe,France,Basse-Normandie,Gouberville,Unknown,01/03/2012,23/03/2012,Confirmed,Schmallenberg,,"domestic, sheep",0,0,0,0,0,,,,
169625,OIE,46.566667,1.783333,Europe,France,Centre,Mouhers,Unknown,09/03/2012,23/03/2012,Confirmed,Schmallenberg,,"domestic, sheep",0,0,0,0,0,,,,
169624,OIE,46.433333,1.3,Europe,France,Centre,Chaillac n°1,Unknown,09/03/2012,23/03/2012,Confirmed,Schmallenberg,,"domestic, sheep",0,0,0,0,0,,,,
169623,OIE,46.983333,1.616667,Europe,France,Centre,Levroux,Unknown,09/03/2012,23/03/2012,Confirmed,Schmallenberg,,"domestic, sheep",0,0,0,0,0,,,,
169622,OIE,46.483333,2.016667,Europe,France,Centre,Pouligny-Notre-Dame,Unknown,09/03/2012,23/03/2012,Confirmed,Schmallenberg,,"domestic, sheep",0,0,0,0,0,,,,
169621,OIE,47.116667,1.433333,Europe,France,Centre,Luçay-le-Mâle,Unknown,01/03/2012,23/03/2012,Confirmed,Schmallenberg,,"domestic, goats",0,0,0,0,0,,,,
169620,OIE,46.683333,1.516667,Europe,France,Centre,La Pérouille,Unknown,01/03/2012,23/03/2012,Confirmed,Schmallenberg,,"domestic, sheep",0,0,0,0,0,,,,
169619,OIE,46.483333,1.683333,Europe,France,Centre,Orsennes,Unknown,01/03/2012,23/03/2012,Confirmed,Schmallenberg,,"domestic, sheep",0,0,0,0,0,,,,
